name,lat,lng,adderss,street_id,telephone,detail,uid
拱辰街道北关东路社区来京人员和出租房屋服务站,39.741751,116.151467,北京市房山区文化路67号楼附近,,(010)69385364,1,1b379c9a079c3a8e631809c4
北京市房山区森林公安处,39.733185,116.13448,北京市房山区良乡苏庄东街7号,4cf8d24ea92056e79cf779d6,(010)69353535,1,4cf8d24ea92056e79cf779d6
北京市公安局房山分局人民来访接待室,39.7499,116.143177,政通西路16号附近,,,1,ace82367d804f05cadcb6670
北京市公安局房山分局西潞派出所西门巡逻警务站,39.737521,116.141541,西潞北大街甲1-9号附近,,,1,8838a1a5996ab21dbda240a4
西潞派出所,39.749484,116.135107,北京市房山区北潞园社区北潞冠18号,61085211bcc77ea1c51b75c6,(010)89368293,1,61085211bcc77ea1c51b75c6
良乡派出所,39.708651,116.156195,北京市房山区良乡镇良官大街58号,6f1cdfbcc46b517c7dc8769c,"(010)60331012,(010)60333822",1,6f1cdfbcc46b517c7dc8769c
北环东路社区警务工作室,39.741842,116.151463,北关东路与文化路交叉口南50米,83b1d238b191fefb095cb38c,,1,83b1d238b191fefb095cb38c
警务工作站(良乡地区鸿顺园社区卫生服务站东北),39.72926,116.160891,长虹东路附近,5d2e542131b3fdfdfea7780b,,1,5d2e542131b3fdfdfea7780b
北京送变电公司社区居委会-外来人口管理站,39.755527,116.162337,明源北街1号附近,05bc9fbd4fbeecf822026245,,1,05bc9fbd4fbeecf822026245
行宫园社区居委会-外来人口管理站,39.755975,116.153523,行宫二里14-5,33f5655b2d2266d60869d953,,1,33f5655b2d2266d60869d953
良乡派出所南关村警务工作室,39.730863,116.148181,北京市房山区拱辰南大街109号附近,70b3461fe7a11fc6250bd0ea,,1,70b3461fe7a11fc6250bd0ea
北潞春治安岗亭,39.743589,116.137255,北京市房山区月华大街西150米,8891d7a527b284043904b116,,1,8891d7a527b284043904b116
西潞街道太平庄西里社区来京人员和出租房屋服务站,39.737056,116.125826,北京市房山区西潞街道月华大街太平庄东里临甲1号,,(010)89358533,1,8482b151842cdc02fea778e7
罗府街社区警务工作站,39.736329,116.143025,西潞南大街3号附近,5c11cd491848ea844151c07d,,1,5c11cd491848ea844151c07d
房山区公安分局,39.750666,116.143397,政通路16号,5211d219d6c3fd587dc876c6,(010)81389110,1,5211d219d6c3fd587dc876c6
电力设备总厂社区警务工作室,39.746014,116.157745,繁华巷11号附近,,,1,e71708c34b70381f8e7727ad
北京市公安局房山分局拱辰派出所财富广场巡逻警务站,39.738194,116.148845,拱辰大街与路家胡同交叉口东南50米,,,1,48101e2fba422c6bd81318b4
昊天小区社区警务工作站,39.740762,116.155047,良乡昊天大街114号院,df627fee38ccd92c97031972,,1,df627fee38ccd92c97031972
拱辰街道昊天社区来京人员和出租房屋服务站,39.74054,116.155137,北京市房山区拱辰街道昊天大街114号院1号楼,2a55d67b07340eeb774ff1dd,(010)69385964,1,2a55d67b07340eeb774ff1dd
城管执法,39.729142,116.143767,北京市房山区长虹东路甲1号,8cf2866b119e531609b93a80,,1,8cf2866b119e531609b93a80
瑞雪春堂流动人口和出租房屋管理服务站,39.724836,116.152989,北京市房山区,,,1,36cd97b3bb49cf4e1e580010
拱辰派出所,39.744009,116.149782,北京市房山区拱辰街道拱辰大街68号(良乡影剧院对面),,(010)69351019,1,be73831b9e3b5714f8dc85c8
北京市公安局公安交通管理局执法办案区域,39.750603,116.151913,月华大街14号附近,fd22dde774fba0529f09f76d,,1,fd22dde774fba0529f09f76d
北京市公安局公安交通管理局房山交通支队,39.737521,116.138578,北京市房山区良乡西路7号附近,,,1,9026573276de3f6432f71d65
刻制公章公安备案,39.737176,116.131204,良乡西路21号附近,,,1,a6d2e6b21e30636f1f38948f
北京市公安局交通管理局房山交通支队-南门,39.753974,116.146106,政通路5号附近,7b1f31005520a763283a9f15,,1,7b1f31005520a763283a9f15
北京市公安局法医检验鉴定中心二部,39.712247,116.128366,北京市房山区X004(炒十路),34e9097615a7575087154149,,1,34e9097615a7575087154149
房山公安交通办公大厅-西北门,39.751061,116.151782,月华北大街32号,,,1,348a706f768d4d712b11d193
房山公安交通办公大厅,39.750787,116.151735,北京市房山区月华北大街32号,378272bfd3451528fd0eb0ef,(010)68397030,1,378272bfd3451528fd0eb0ef
西潞派出所-停车场,39.749519,116.135063,北潞冠18号西潞派出所附近,,,1,8722e825999c5335a0acc4fe
北京市公安局房山分局拱辰派出所-停车场,39.743808,116.148727,北京市房山区拱辰大街68号,13ccbf80196175fb283a9f38,,1,13ccbf80196175fb283a9f38
北京市公安局房山分局停车场-出入口,39.749698,116.143526,北京市房山区合欢北街,f16d0651d185227fc909f0fd,,1,f16d0651d185227fc909f0fd
西潞派出所-西北门,39.749616,116.135139,北潞园社区北潞冠18号西潞派出所附近,,,1,34fa5d9ae045fd0f250bd003
房山区公安分局-停车场,39.74992,116.14367,北京市房山区合欢北街,49f68f4f3e9689703310af3b,,1,49f68f4f3e9689703310af3b
北京市公安局房山分局-出入境接待大厅,39.749921,116.143588,北京市房山区政通路16号,620248d134d98f98704b87f5,,1,620248d134d98f98704b87f5
长阳镇碧波园社区来京人员和出租房屋服务站,39.755883,116.181495,北京市房山区长阳镇阳城环路长阳社区居委会内,,(010)80351165,1,8d9fb78c69486841734b87c7
长阳家属区社区流动人口管理站,39.75335,116.188811,长阳农场居民委员会附近,3fba67367b07691add1e521e,,1,3fba67367b07691add1e521e
大兴一职社区警务工作站,39.727678,116.288505,佟前路附近,48dd9435bb54320bc61e51eb,,1,48dd9435bb54320bc61e51eb
黄村镇周村综治工作中心,39.714527,116.296717,北京市大兴区黄村镇芦求路周村村委会,9cc2b1b40cbaae0efb22137f,,1,9cc2b1b40cbaae0efb22137f
长阳镇阎仙垡来京人员和出租房屋服务站,39.733926,116.236646,北京市房山区长阳镇107国道阎仙垡村委会,,(010)60355433,1,e9dc6352170fec1dfb42b202
林校路街道永华北里社区来京人员和出租房屋服务站,39.735007,116.329908,北京市大兴区永华北里9号楼西侧平房,,(010)69205194,1,58aa9fc6c2b5084dca1b9568
兴丰街道黄村东里社区来京人员和出租房屋服务站,39.742846,116.3492,北京市大兴区龙河街时代龙河小区42号,,(010)69258171,1,bf5829e5167b3d1a6140a90b
兴丰街道兴华东里来京人员和出租房屋服务站,39.741698,116.342983,北京市大兴区兴华大街黄村西里37号楼南侧兴华东里居委会,,(010)69293520,1,a5ac6edd937ffd8995ca070a
兴丰街道黄村西里社区来京人员和出租房屋服务站,39.73996,116.34105,北京市大兴区三中巷黄村西里56号楼北侧平房,73b366fc6d1a8fc2d13ce328,(010)69208082,1,73b366fc6d1a8fc2d13ce328
滨河西里北区社区居委会-外来人口管理站,39.755992,116.346753,滨河西里16号,c73b06e810371fe2bea240aa,,1,c73b06e810371fe2bea240aa
三合南里社区警务工作室,39.740683,116.332037,北京市大兴区三合北巷与兴业大街交叉口西南100米,,,1,b86d2da32e84b2ab0bf5eba9
兴政东里警务站,39.733473,116.348476,林校路街道兴政东里24号楼院内西侧,bb80a983997b83e5ddee8b65,,1,bb80a983997b83e5ddee8b65
兴丰派出所三合庄警务区,39.742776,116.326252,黄村西大街,dd9c2617a23a3ecfa104649f,,1,dd9c2617a23a3ecfa104649f
北京市公安局大兴分局-人民来访接待室,39.739029,116.340691,北京市大兴区兴华中路32号,e81ea10231dee443a7c756e5,,1,e81ea10231dee443a7c756e5
观音寺街道开发区社区来京人员和出租房屋服务站,39.759682,116.356522,北京市大兴区黄村镇科苑路8号甲30号楼,619e96059219f9808adb736f,(010)60282247,1,619e96059219f9808adb736f
富强东里-社区警务工作站,39.74645,116.347168,兴丰大街52号附近,a58ff9b765818cff6fc02ca4,,1,a58ff9b765818cff6fc02ca4
北京市公安局大兴分局观音寺派出所观音寺社区警务工作室,39.735144,116.355726,南湖巷与观音寺街交叉口北100米,bcad6e5cbb10ddae04fef549,,1,bcad6e5cbb10ddae04fef549
林校路街道兴华南里社区来京人员和出租房屋服务站,39.737074,116.336793,北京市大兴区兴华南里黄村西大街,b54b52612e38be6a43afe641,(010)69269684,1,b54b52612e38be6a43afe641
海子角地区警务工作室,39.727341,116.354235,海北路与海子角北街交叉口东南50米,21537296be7f06810c0a7024,,1,21537296be7f06810c0a7024
北京铁路公安局北京公安处黄村车站派出所,39.728818,116.336199,北京市大兴区黄村站西北50米(兴旺大街南),711d4a8d29d48a99a4c7568f,,1,711d4a8d29d48a99a4c7568f
大兴公安分局兴丰派出所,39.742122,116.346542,北京市大兴区兴丰大街三段58号,6a2024a337b320fd2efaa7ac,"(010)69242256,(010)69235863",1,6a2024a337b320fd2efaa7ac
清源街道康馨园社区来京人员和出租房屋服务站,39.755683,116.318841,北京市大兴区丽园路30号院2号楼底商康馨园社区居委会107室,,(010)69293421,1,8138162cf9223e164657267e
黄村镇派出所户籍室,39.754645,116.298473,北京市大兴区第十小学对面,,,1,b8bd2e3f6ef008cfad0457ea
黄村镇派出所,39.754853,116.298168,北京市大兴区黄村镇黄鹅路1号,be1ea5ef6ee573bf14948efb,(010)61239766,1,be1ea5ef6ee573bf14948efb
林校路街道车站中里社区来京人员和出租房屋服务站,39.725177,116.340736,北京市大兴区黄村镇林校南路车站中里41号楼1单元底商,,(010)69259902,1,017b2740b1faf145fb2d61a5
义和庄南里社区警务工作站,39.718384,116.33695,义和庄东路17号附近,fd03eaf41ae8010cd8ecedb5,,1,fd03eaf41ae8010cd8ecedb5
义和庄北里-社区警务工作站,39.722869,116.335244,北京市大兴区义平路56附近,2e28f0fe9322a9f9b8bd635a,(010)69201110,1,2e28f0fe9322a9f9b8bd635a
北京铁路公安处黄村车站派出所中铁吉盛警务区,39.70648,116.345492,矿林路10号附近,80fcd8250a8effd4704b873b,,1,80fcd8250a8effd4704b873b
义和庄东里社区警务工作站(锦华园小区西),39.721849,116.329997,北京市大兴区佟前路,fa2729bf224b183ae812e435,,1,fa2729bf224b183ae812e435
义和庄东里社区居委会外来人口管理站,39.721867,116.330015,义平路78号附近,9a999e3c32b2ce0f9b68b486,,1,9a999e3c32b2ce0f9b68b486
林校路派出所户籍室,39.726413,116.34177,北京市大兴区车站北巷7号,,,1,44274c0414bcbc39ad0457e4
双河南里-社区警务工作室,39.740397,116.353095,北京市大兴区双河南里,d84ecffacd58e884283a9fcd,,1,d84ecffacd58e884283a9fcd
清源街道彩虹新城社区来京人员和出租房屋服务站,39.753416,116.342745,北京市大兴区兴丰大街彩虹新城29号楼一层,,(010)69238690,1,861d287a4a1cfdbff90cadde
瑞康家园社区警务工作室,39.745704,116.347613,北京市大兴区兴丰大街东150米,,,1,cc6695b0006421fea8f729af
海子角东里-社区警务工作站,39.726766,116.361133,黄马路86附近,73d66050e6ea18ffda2f28be,,1,73d66050e6ea18ffda2f28be
观音寺街道金华里社区来京人员和出租房屋服务站,39.750935,116.353608,北京市大兴区京开辅路金华里小区内,,(010)69205426,1,b0e668dea2aa3222b5147f3c
黄村火车站巡逻警务站,39.727688,116.338886,兴华大街与林校北路交叉口西南100米,,,1,49a1183aa21a8ac16fa3cce2
丽园社区居委会-流动人口管理站,39.759241,116.32538,兴盛街与枣园路交叉口东100米,331ec33e8b034fdb16764333,,1,331ec33e8b034fdb16764333
林校路街道兴政东里社区来京人员和出租房屋服务站,39.73394,116.349612,北京市大兴区兴政街兴政东里106号,,(010)69207461,1,10b781bd9054f615c356ac76
黄村镇黄河北里社区来京人员和出租房屋服务站,39.746738,116.356268,北京市大兴区黄村镇双河北里社区9号楼北侧,35a6a3cbba264ff16cc02c33,(010)60282240,1,35a6a3cbba264ff16cc02c33
富强西里-社区警务工作站,39.743624,116.341568,富强路与富林巷交叉口北100米,0ad532e8b49597956c3e1b3a,,1,0ad532e8b49597956c3e1b3a
北京市公安局特警总队大兴大队,39.737931,116.350275,北京市大兴区黄村东大街5号,4929fd7048eef80f8bb98813,,1,4929fd7048eef80f8bb98813
大兴公安分局交通支队,39.748455,116.348326,黄村镇清源路9号5层(黄村镇人民政府东),382dc0e6f107f7fa8405bf56,(010)69242047,1,382dc0e6f107f7fa8405bf56
北京市公安局大兴分局,39.738299,116.340075,北京市大兴区黄村西大街35号,e96b442074acb65982288afb,(010)69243071,1,e96b442074acb65982288afb
清源街道康秀园社区来京人员和出租房屋服务站,39.752322,116.319761,北京市大兴区黄村镇圣和巷8号院2号楼一层,,(010)69263112,1,4a884e33f00728e4c9e33c24
警务工作站(辛店南街),39.715977,116.354768,北京市大兴区行知路与黄徐路交叉口西南50米,b6e40086012351abdc1e52dc,,1,b6e40086012351abdc1e52dc
义和庄村委会治安联防办公室,39.721859,116.330267,义平路78号附近,ff499f5d349d7c18100daac5,,1,ff499f5d349d7c18100daac5
车站南里居委会警务工作站,39.714301,116.338071,林校路73号附近,4bc0123d42c5caef17b54bf5,,1,4bc0123d42c5caef17b54bf5
海子角社区警务工作站,39.725482,116.360163,海子角北街东五条颈肩腰腿痛专科(北京友爱医院东南)附近,4b18efbaffc5b5c4ca2915f8,,1,4b18efbaffc5b5c4ca2915f8
清源街道滨河西里北区社区来京人员和出租房屋服务站,39.757512,116.346034,北京市大兴区滨河西里17号楼东配楼滨河西里北区居委会,,(010)69203673,1,d7fea0a9a995927a077ce8b0
滨河西里-社区警务工作站,39.756441,116.347221,北京市大兴区滨河西里16,aa53224e6607f7b52bd7ab10,,1,aa53224e6607f7b52bd7ab10
清源街道丽园南区社区来京人员和出租房屋服务站,39.7553,116.325132,北京市大兴区黄村镇丽园C区16号楼2单元101室,,(010)69231152,1,14e361136d5e0b27c9fa5fd3
警务工作站(清平路),39.75586,116.353551,清平路附近,f812a766d55daa3b6c4760c1,,1,f812a766d55daa3b6c4760c1
滨河西里治安联防办公室,39.755988,116.34675,滨河西里16号,f8f292bead81a4c79222e0cc,,1,f8f292bead81a4c79222e0cc
海子角东里社区居委会-流动人口管理站,39.726776,116.361142,北京市大兴区黄马路86附近,2c3e8667aaa50b3aa2a93453,,1,2c3e8667aaa50b3aa2a93453
清源路派出所丽园社区警务工作站,39.759236,116.32538,北京市大兴区兴盛街与枣园路交叉口东100米,af63a5adba39a57dc7f50de4,,1,af63a5adba39a57dc7f50de4
康居社区居委会流动人口管理站,39.738863,116.330752,三中西巷21号附近,06dc5da3365f1abd48cc4a28,,1,06dc5da3365f1abd48cc4a28
富强东里社区居委会外来人口管理站,39.746554,116.346706,兴丰大街52号附近,96611b85f916524321f01721,,1,96611b85f916524321f01721
滨河东里-社区警务工作站,39.756711,116.347901,滨河街14号楼附近,ba227dfde7191b89220220a7,,1,ba227dfde7191b89220220a7
大兴公安分局观音寺派出所,39.730446,116.35648,北京市大兴区黄村镇观音寺街69号,99ddcc41a586ad1c6cc02c09,"(010)60282007,(010)60282012",1,99ddcc41a586ad1c6cc02c09
辛店小区外来人口管理站,39.72121,116.354405,北京市大兴区海子角南街与海子角南路交叉口西南150米,bfad308124d8b96a9cec2bad,,1,bfad308124d8b96a9cec2bad
车站南里社区居委会外来人口管理站,39.713194,116.33854,林校路60-9号附近,5b7ee169eb9e4edc2dfaa769,,1,5b7ee169eb9e4edc2dfaa769
海子角西里-社区警务工作站,39.718417,116.353992,黄徐路81号附近,b5bc8d8904ff96b081a12ea6,,1,4a1d7d53b1aa5a1976e5b63e
海子角(辛店)社区居委会流动人口管理站,39.72162,116.355101,海子角北街东五条颈肩腰腿痛专科(北京友爱医院东南)附近,37947b01e801f0599e95de01,,1,37947b01e801f0599e95de01
车站南里-社区警务工作站,39.713194,116.33854,林校路60-9号附近,b942b6ecf3a5aea324e0a04a,,1,b942b6ecf3a5aea324e0a04a
天宫院街道海子角东里社区来京人员出租房屋服务站,39.724022,116.360956,喜盛街五条与海子角东街交叉口西50米,caf8848146b432d481a12eea,(010)61244270,1,caf8848146b432d481a12eea
海子角(辛店)社区警务工作站,39.721503,116.355113,天宫院街道大兴桥东100米路南车站,b2cf746028020a1ab2077de5,,1,b2cf746028020a1ab2077de5
天宫院派出所(辛店村警务工作室),39.716109,116.35563,行知路与黄徐路交叉口东南50米,da02ffb111ecd0ce8d77277c,,1,da02ffb111ecd0ce8d77277c
林校路街道饮马井社区来京人员和出租房屋服务站,39.726551,116.342142,北京市大兴区黄村车站北巷6号,c6c118936a5cc75531169b0f,(010)69224318,1,c6c118936a5cc75531169b0f
大兴公安分局林校路派出所,39.726314,116.341429,北京市大兴区黄村镇车站北巷7号,2527be1ea205acb34afc8dfb,(010)69201110,1,2527be1ea205acb34afc8dfb
大兴公安分局清源路派出所,39.749123,116.341047,北京市大兴区黄村镇清源路清源西里小区内南门西侧,6a35bf0ed7e27ed817a1905d,"(010)69245101,(010)60211083",1,6a35bf0ed7e27ed817a1905d
大兴公安分局培训基地,39.738284,116.340173,北京市大兴区西大街35号北90米,,,1,ca59933dc184cd83a6da39c3
北京市公安局特警总队大兴大队-东门,39.737976,116.350578,黄村东大街16号附近,,,1,37a9c50c3d83593cbca82278
自行车租赁兴丰派出所站,39.742098,116.345898,北京市大兴区兴丰南大街,3b61cade08b69edd5d0d0273,,1,3b61cade08b69edd5d0d0273
黄村站铁路派出所-东北门,39.728793,116.336228,兴旺路附近,,,1,0bdc2c8ed8b53f0dc4f025e4
大兴区公安系统综合业务用房,39.748812,116.348327,清源路5号附近,335502439df7c09c8e7727f5,,1,335502439df7c09c8e7727f5
兴丰派出所-西门,39.742138,116.346246,兴丰南大街黄村中里兴丰家园,,,1,65fc47b7b9ee7672a8f0cd10
大兴公安分局交通支队停车场-出口,39.748401,116.348201,北京市大兴区滨河街与龙河路交叉口西100米,,,1,f3d2c12d102c1fc99e82ea90
北京市公安局大兴分局兴丰派出所-停车场,39.741966,116.346313,北京市大兴区黄村地区兴丰北大街3,58265e792bf6039d8605bfff,,1,58265e792bf6039d8605bfff
观音寺派出所户籍室,39.730647,116.356731,北京市大兴区观音寺街69号附近,,,1,1b1e7359dd521587931fc90c
北京市公安局大兴分局法医检验鉴定所,39.73132,116.312588,北京市大兴区永华路北50米,4156c135f08a77b12811d15a,,1,4156c135f08a77b12811d15a
大兴区综合行政服务中心公安分局分中心,39.738465,116.339511,黄村西大街35号,896d718454f946e5c909f026,,1,896d718454f946e5c909f026
观音寺派出所-东北门,39.730513,116.356722,观音寺街69号附近,4c0bf6ed4b7d548cad31e50f,,1,4c0bf6ed4b7d548cad31e50f
大兴公安分局交通支队-停车场,39.748458,116.347761,北京市大兴区清源大兴交警支队(大兴区黄村镇政府东),48cefcde15333be381a12edf,,1,48cefcde15333be381a12edf
国家电网充电站(北京市大兴区黄村镇派出所),39.754463,116.298341,北京市大兴区黄村镇派出所南侧停车场,,,1,fc5da1eaa39daa83bfa82205
大兴区公安分局林校路派出所治安联防办公室,39.7207,116.361609,北京市大兴区,dc0bfdcd0459407271455bfd,,1,dc0bfdcd0459407271455bfd
林校路派出所-东门,39.726229,116.34183,车站北巷7号附近,,,1,c092ca06190e0e092efaa7bc
大兴公安分局交通支队停车场-入口,39.748397,116.349028,滨河街与龙河路交叉口西100米,450d2cd8dc79c571a80dd8db,,1,450d2cd8dc79c571a80dd8db
大兴公安分局小马坊,39.738284,116.340173,北京市大兴区西大街35号北90米,,,1,def8bf72082052804d2fdf89
大兴区公安系统综合业务用房-南门,39.748537,116.348678,北京市大兴区滨河街与龙河路交叉口西100米,a5c0bc65d602150377026989,,1,a5c0bc65d602150377026989
大兴公安分局交通支队-南门,39.748448,116.348357,清源路与龙河路交叉口西150米,e3117cb09c213e1a3310af10,,1,e3117cb09c213e1a3310af10
北京市公安局大兴分局-南门,39.73776,116.340436,黄村西大街35号,b333b770cba0fdff8e772772,,1,b333b770cba0fdff8e772772
丰台公安分局云岗派出所,39.8142,116.165172,北京市丰台区云岗南区西里2号,62dfba5fb0e3c6ad6168584a,(010)83316325,1,62dfba5fb0e3c6ad6168584a
王佐乡南宫市场外来人口管理站,39.814319,116.161512,福宫路11号附近,67055b4a11f62cb7102935a1,,1,67055b4a11f62cb7102935a1
北京市公安局房山分局巡警支队,39.76744,116.150475,良三路,,,1,4a7d9579dc3fef49931fc9ed
北京市丰台区人民法院王佐人民法庭,39.810587,116.163475,康泉路云岗联通电话局东南侧30米,fa9201a245d83e1f97f08c55,(010)12368,1,fa9201a245d83e1f97f08c55
云岗派出所户籍室居住证临时受理点,39.81427,116.165228,北京市丰台区文西路云岗南区西里2号,,(010)88539831,1,4a564bacc0bd540a0b1cc73c
朱家坟派出所,39.817046,116.204703,北京市丰台区长辛店乡赵辛店村83号,d5243787fd0b993731f71da2,"(010)83876067,(010)83876411",1,d5243787fd0b993731f71da2
丰台区劳动争议仲裁委员会(云岗分庭),39.817718,116.170279,北京市丰台区云岗北区西里4号,c9e28f88488dd3533586f469,,1,c9e28f88488dd3533586f469
王佐镇佃起中心村来京人员和出租房屋服务站,39.812492,116.179797,北京市丰台区云岗路130号,5dd5d0812180e46a9ee321fe,,1,5dd5d0812180e46a9ee321fe
佃起中心村社区警务工作室,39.813259,116.174924,北京市丰台区云岗路151附近,db3dca6c7c96050f4afd3fe8,,1,db3dca6c7c96050f4afd3fe8
长阳镇大宁村来京人员和出租房屋服务站,39.81176,116.215179,北京市丰台区长阳镇大宁村京深路1号,,(010)80364670,1,24456b59665458302cb96dfd
长阳派出所,39.772493,116.222397,北京市房山区长阳镇长营镇村西镇政府西侧,cc7ea7fb06329305364aaef0,"(010)80358875,(010)80358876",1,cc7ea7fb06329305364aaef0
长阳镇派出所警务站,39.765531,116.170963,昊天北大街20号附近,,,1,ef02a0d47a988b636d20b9ef
警务工作站(长阳卫生院长龙苑社区卫生服务站南),39.813701,116.221096,长阳卫生院长龙苑社区卫生服务站附近,68b44a7e26f5266bb45f1eb3,,1,68b44a7e26f5266bb45f1eb3
长辛店街道赵辛店社区来京人员和出租房屋服务站,39.811443,116.202471,北京市丰台区赵辛店村929号,ed532006e2c71d24bb17e79f,(010)83875760,1,ed532006e2c71d24bb17e79f
长阳镇社会治安综合治理巡逻大队,39.772704,116.222686,北京市房山区京深路西200米,953f769e8f12134e3686f41f,,1,953f769e8f12134e3686f41f
丰台区朱家坟派出所宿舍,39.816957,116.20484,北京市丰台区S317(周口店路),,,1,dc2b3c6124bfc55bd3ff23ad
北京市公安局公安交通管理局G4京港澳高速路队,39.77474,116.176352,昊天北大街甲39号房山交通支队良乡队附近,1e2604ed61dba8c53010af3f,,1,1e2604ed61dba8c53010af3f
北京市公安局大兴分局(狼垡社区警务工作室),39.789284,116.293757,北京市大兴区花乡长丰园大兴区黄村镇狼垡二村村民委员会,76968ccb281b5f3128d7abab,,1,76968ccb281b5f3128d7abab
老庄子社区警务工作室,39.805113,116.274383,宛平城北天堂村88号老庄子社区居委会附近,c854abcc0530d9ba43afe61c,,1,c854abcc0530d9ba43afe61c
长丰园社区-流动人口管理工作站,39.789205,116.294569,狼垡东路东100米,ecdcae19dffb521facee7a1d,,1,ecdcae19dffb521facee7a1d
狼垡地区流动人口管理服务中心站,39.788974,116.29394,狼垡东路东50米,3b460b0b6aa405e92b06ce82,,1,3b460b0b6aa405e92b06ce82
长丰园小区-外来人口管理工作站,39.790846,116.292868,狼垡东路东50米,e20c090de56d94ee4354d716,,1,e20c090de56d94ee4354d716
北京市公安局公安交通管理局车管所京南分所,39.796124,116.293399,北京市大兴区芦花路临28号,e3d7b638e336abb88afc0643,,1,e3d7b638e336abb88afc0643
黄村派出所高家堡检查站,39.797487,116.271695,北京市大兴区左堤路与高家堡村东路交叉口西南50米,791b0bab8be961af5abbbc51,,1,791b0bab8be961af5abbbc51
警务工作站(大兴区黄村狼垡二村村卫生室东北),39.788669,116.292359,大兴区黄村狼垡二村村卫生室附近,1007b414ad7328c8922ca3a2,,1,1007b414ad7328c8922ca3a2
狼阀派出所,39.789149,116.293864,狼垡东路狼垡地区流动人口管理服务中心站附近,,,1,a11ac80bab9e6869f4e73baa
北京市公安局大兴分局(狼垡社区警务工作室)-西南门,39.789045,116.293829,狼垡东路88号附近,,,1,82bd262b83ac1c013010afe9
北京公安驾校,39.797283,116.294525,北京市大兴区芦花路临28号,040f0cdbd09b4f304d776e99,(010)83701668,1,040f0cdbd09b4f304d776e99
高米店街道兴涛社区流动人口和出租房屋管理服务站,39.771801,116.335086,北京市大兴区高米店街道乐园路云河墅58号楼4单元102室,,(010)60299663,1,887967a9b71572de0a5cb315
警通迅达保安队,39.811099,116.334893,北京市丰台区新发地联和库1号院,,,1,1633435fbe70aec71f389463
西红门镇礼域南区来京人员和出租房屋服务站,39.799143,116.350706,北京市大兴区西红门镇欣荣北大街礼域府11号楼2单元1层,,(010)80251969,1,047779c1c836dff6441a3299
郁花园社区流动人口管理站,39.780142,116.337696,兴华大街2号附近,f0f2ce61031febfa1b11d58a,,1,f0f2ce61031febfa1b11d58a
西红门镇博苑社区来京人员和出租房屋服务站,39.797977,116.334026,北京市大兴区欣宁街西红门博苑小区底商,c91c5551775bac19a11de9bf,(010)80222145,1,c91c5551775bac19a11de9bf
北京市公安局大兴分局西红门派出所巡逻警务站,39.795371,116.334727,北京市大兴区西红门地铁站A口,,,1,b64d5efb70a040d04f6d469a
新宫站派出所,39.775243,116.35142,国家新媒体产业基地盛坊路6号,,,1,e0baaa8214f1218fc8213db3
新发地派出所,39.810561,116.335048,北京市丰台区新发地陈留村国际名酒城后院,58836b55cf4d3d3d725e80c1,"(010)83705820,(010)83705332,(010)83705601",1,58836b55cf4d3d3d725e80c1
高米店社区警务工作站,39.765962,116.346885,康庄路28-4号附近,748bf22b87983fba8bf15da6,,1,748bf22b87983fba8bf15da6
大兴公安分局团河派出所,39.767971,116.358848,北京市大兴区黄亦路金星路12号院5号楼,,,1,eadd92daf3a61590cb2915cc
北程庄社区村委会流动人口管理站,39.769605,116.313585,金星路北50米,dc2f81f13e8bb94125e0a0cb,,1,dc2f81f13e8bb94125e0a0cb
日月星社区警务工作室,39.799831,116.335657,北京市大兴区欣宁街辅路,,,1,89c76d48554b8d26c9c3dbce
西红门镇瑞海北区来京人员和出租房屋服务站,39.794009,116.33915,北京市大兴区宏旭路西红门兴海公园南门,,(010)60292667,1,1a49756f58ad72aba1d2302f
警务工作站(福星花园西),39.796312,116.356273,宏福东路福星花园(南门)附近,c57743360a8903d9316212a1,,1,c57743360a8903d9316212a1
警务工作站(大兴区宏盛社区卫生服务站东南),39.800852,116.345646,欣旺大街99号附近,35525fe08a395f1a5d17c374,,1,35525fe08a395f1a5d17c374
大兴公安分局西红门派出所,39.780363,116.359305,北京市大兴区西红门镇北兴路双星桥东800米路南,2527be1ea204acb34afc8dfa,"(010)60245006,(010)60252345,(010)60251550,(010)60242702",1,2527be1ea204acb34afc8dfa
康顺园-治安联防办公室,39.765955,116.346876,康庄路28-4号附近,7361df79af1eaa484d2fdfde,,1,7361df79af1eaa484d2fdfde
枣园东里-社区警务工作室,39.762316,116.342404,北京市大兴区黄村西大街47号附近,022cbfac0df44d576ca3ccf0,,1,022cbfac0df44d576ca3ccf0
清源街道康顺园社区来京人员和出租房屋服务站,39.763284,116.341968,北京市大兴区康庄路首邑上城,a510d1e9b1f87a54a8059d97,(010)60205193,1,a510d1e9b1f87a54a8059d97
清源路派出所驻社区民警办公室,39.765952,116.346876,康庄路28-4号附近,52f4dd0134241862e115f9cd,,1,52f4dd0134241862e115f9cd
大兴公安分局出入境接待大厅,39.768251,116.358945,大兴区金星路12号院5号楼,0e335d18d1d1b8b5bd48421c,,1,0e335d18d1d1b8b5bd48421c
北程庄社区警务工作站,39.769601,116.313585,金星路北50米,6bf08211ee05caa4932ca3a1,,1,6bf08211ee05caa4932ca3a1
驻市场派出所,39.815948,116.348739,北京市丰台区,4e184c4a7cb2aee000ec011b,,1,4e184c4a7cb2aee000ec011b
北京市公安局公共交通安全保卫总队郭公庄站派出所,39.818039,116.318794,北京市丰台区樊羊路89号,7fc7fadd4747e3eea6da3937,(010)60831576,1,7fc7fadd4747e3eea6da3937
西红门镇宏业西区来京人员和出租房屋服务站,39.789013,116.348009,北京市大兴区宏业路2号院11号楼,,(010)80225228,1,fc97ac921b4e4e94631c6795
同华社区警务工作室,39.797676,116.359503,北京市大兴区南西路14-6号附近,,,1,5119b8e544a00435c17da2de
北京市公安局大兴分局西红门派出所社区警务队三队,39.79907,116.350803,欣荣北大街26号附近,37736ed5331ab01596f08c43,,1,37736ed5331ab01596f08c43
观音寺街道泰中花园社区来京人员和出租房屋站,39.767179,116.353685,北京市大兴区广茂大街5号院,,(010)60213070,1,7de565b3f20af7018bfc0654
开发区社区警务工作站,39.767035,116.353057,广茂大街5-1号楼附近,e017efc1dafc9efea3a93428,,1,e017efc1dafc9efea3a93428
开发区社区居委会外来人口管理站,39.767039,116.353057,广茂大街5-1号楼附近,8376001b15931e93ee74f8ba,,1,8376001b15931e93ee74f8ba
团河派出所,39.768331,116.358916,北京市大兴区金星路12号院5号楼,be1ea5ef6ee473bf14948efa,(010)61272534,1,be1ea5ef6ee473bf14948efa
北京铁路公安处广安门派出所汾庄警务站,39.804469,116.329463,北京市丰台区白盆窑,702ffe6e20acbc782902e154,,1,702ffe6e20acbc782902e154
北京市公安局大兴分局西红门派出所警务三队中心流管站,39.799075,116.350802,北京市大兴区欣荣北大街,9c372d6235913fe5081cc7d9,,1,9c372d6235913fe5081cc7d9
新发地派出所户籍室,39.810694,116.33505,北京市丰台区京良路新发地陈留村国际名酒城后院,,(010)83705601,1,cbc69727a6c1a2a18bf15d03
西红门派出所-西北门,39.780081,116.359131,北兴路南150米,,,1,aac0eeb7c0e6e408ac0457af
停车场(团河派出所北),39.763612,116.354527,北京市大兴区广茂大街北方新兴汽车销售有限公司,a5eaa2d2f76cd54ffb221309,,1,a5eaa2d2f76cd54ffb221309
停车场(团河派出所北),39.763303,116.354746,北京市大兴区广茂大街与广茂大街(二段)交叉口北100米,,,1,5ce135b87898b52fd5b74e00
丰台区新发地派出所木材市场,39.810711,116.33505,北京市丰台区,,,1,e17f44e4c8aa34de9e82ea66
公安大学驾校-西南门,39.788757,116.305196,优龙路60号附近,,,1,74da523eab9ed5882cb17e1f
公安大学驾校,39.789212,116.305626,北京市大兴区优龙路临4号,ef773a0f2755b734220220e7,(010)83905093,1,ef773a0f2755b734220220e7
太平岭森林派出所,39.857984,116.14312,大灰厂东路56,42d07aa3ca2ee299601809ec,(010)83878818,1,42d07aa3ca2ee299601809ec
长辛店街道西峰寺社区来京人员和出租房屋服务站,39.828581,116.205935,北京市丰台区长辛店西峰寺69号,,(010)83845409,1,a1d20c3a500774d4c26c14ae
长辛店街道光明里社区来京人员和出租房屋服务站,39.835867,116.198625,北京市丰台区二七厂路长辛店胜利里甲12号,,(010)83308363,1,7768820fb5aa5c8e8bb988bf
长辛店镇长辛店村来京人员和出租房屋服务站,39.843357,116.215621,北京市丰台区长辛店杜家坎南路17号,,(010)83863954,1,1d50a4a800e7280e9cf779ac
张郭庄派出所,39.856493,116.203795,北京市丰台区长辛店张郭庄南路6号,349947df782e63ecd0f49e0c,"(010)83876632,(010)83873750,(010)83881628",1,349947df782e63ecd0f49e0c
长辛店镇太子峪村来京人员和出租房屋服务站,39.847633,116.180698,北京市丰台区长辛店镇太子峪10号,,,1,b5452dea06a6ec76843304c5
长辛店街道北关社区来京人员和出租房屋服务站,39.83125,116.212358,北京市丰台区长辛店大街教堂胡同29号,,(010)83845518,1,a3dad010731d620e2902e140
北京市公安局丰台分局刑侦支队,39.856618,116.205371,北京市丰台区大灰厂东路沙锅村291号,00f1c7fb2320311fc056ac04,(010)83873750,1,00f1c7fb2320311fc056ac04
长辛店街道东山坡社区来京人员和出租房屋服务站,39.835559,116.217658,北京市丰台区长辛店卢西家园13号楼,,(010)83841190,1,0ab2c0b0ef16271b343a71e9
北京市丰台区城市管理综合行政执法监察局长辛店执法队,39.830705,116.216182,北京市丰台区长辛店周口店路东山坡三里17号院西北,97b7df393257bfb71e58003f,,1,97b7df393257bfb71e58003f
丰台区城市管理监察大队长辛店镇分队,39.819051,116.211716,南关东里109号,7e72723b25fa75ce72210b8a,,1,7e72723b25fa75ce72210b8a
丰田公安分局长辛店派出所,39.829291,116.213992,北京市丰台区长辛店大街196号,e3e2cd9ded8b1e9ec7f50d45,"(010)83876255,(010)83876254",1,e3e2cd9ded8b1e9ec7f50d45
丰台交通支队卢沟桥大队,39.856777,116.230111,北京市丰台区卢沟桥城内街137号,78f8acd3121cc37d52e5c510,(010)68399751,1,78f8acd3121cc37d52e5c510
长辛店街道朱西社区来京人员和出租房屋服务站,39.821998,116.183699,北京市丰台区张家坟路张家坟东里朱西社区居民委员会,,(010)83807277,1,21bd07e73dee1733f7231019
吉林省公安厅(驻北京办事处),39.863347,116.227246,城北路8号,8c980437982dcf2128201a78,,1,8c980437982dcf2128201a78
北京市公安局丰台分局治安处理点,39.856876,116.231085,城内街甲23号,dcd87d39b69aaace22022003,,1,dcd87d39b69aaace22022003
长辛店派出所一层办公室,39.829329,116.214086,北京市丰台区长辛店大街196号,,(010)83876254,1,66fc3aedafabcff73f9a5ed1
北京市公安局丰台分局刑侦支队-东北门,39.856463,116.205833,北京市丰台区大灰厂东路西50米,,,1,06c711b5f6fe1eae78f7962e
张郭庄派出所-西门,39.856554,116.203547,北京市丰台区张郭庄南路2号楼附近,,,1,61374181f5bdc8d370455ba0
丰台区流动人口管理办公室,39.864872,116.292646,文体路2号,9abd3c6b8ae7304c3517dce6,(010)83656000,1,9abd3c6b8ae7304c3517dce6
社区警务工作站,39.853558,116.28718,东安街三条东安街3条6-6号楼附近,f96c6991000dc3ee2806cede,,1,f96c6991000dc3ee2806cede
南开西里社区出租房屋管理站,39.846831,116.286545,看丹路北150米,436f4db037c329372b3a9fe6,,1,436f4db037c329372b3a9fe6
丰台区城市管理监察大队科技园区执法分队(保温段住宅小区南),39.839086,116.286233,星火路12号,3c641a62b93e20821c38941d,,1,3c641a62b93e20821c38941d
科技园区派出所,39.834592,116.286407,北京市丰台区外环西路16号,34059f97e159935471455b04,"(010)63729803,(010)63722186",1,34059f97e159935471455b04
卢沟桥街道丰体时代社区来京人员和出租房屋服务站,39.873496,116.276412,北京市丰台区丰体南路1号院3号楼201号,,(010)63876708,1,1b6d571f8c38ca7c6018094e
新村街道看丹社区来京人员和出租房屋服务站,39.845087,116.27764,北京市丰台区新村街道建新路32号,,(010)63710358,1,c49fd59b7f47172ed22dd68b
丰台区榆树庄村流动人口管理站,39.847417,116.259577,丰裕路与看丹路交叉口南150米,358090c9ee7d36abe60738ec,,1,358090c9ee7d36abe60738ec
治安岗亭,39.827971,116.275515,北京市丰台区看杨路西150米,604c610ba3cb7144b15c6a42,,1,604c610ba3cb7144b15c6a42
丰西北里车站派出所,39.842183,116.258481,北京市丰台区卢沟桥南路与大瓦窑桥交叉口西150米,,,1,f202d01eb5e0f08cc16c1403
丰西派出所值勤一队,39.848186,116.253947,北京精诚远志制冷设备有限公司附近,354d40fe9e1431db3904b1c2,,1,354d40fe9e1431db3904b1c2
卢沟桥派出所,39.842103,116.246642,北京市丰台区晓月苑三里13号楼,28e700f1ef66c101095cb304,"(010)83213394,(010)83210531",1,28e700f1ef66c101095cb304
丰台街道北大地西区社区出租房屋服务站,39.861632,116.28862,北大地三里平房,,,1,b1d67cb299e74b2f85420ec4
北京市公安局丰台镇派出所巡逻警务站,39.862522,116.292826,文体路22号附近,741985f3f3cd0b2fc7f50db6,,1,741985f3f3cd0b2fc7f50db6
丰台街道东安街头条社区来京人员和出租房屋服务站,39.856859,116.285164,北京市丰台区东安街头条15号楼东侧平房,,(010)63814522,1,63df917c0d3c0c4f7369d366
东安街社区来京人员出租房屋服务站,39.853608,116.287126,北京市丰台区正阳大街福顺里小区内,701ce38c84e6ccd01b94c61d,(010)63856433,1,701ce38c84e6ccd01b94c61d
新村街道韩二社区来京人员出租房屋服务站,39.845115,116.296058,造甲街4号造甲村社区,76943eabaad2ffef1ce999fe,,1,76943eabaad2ffef1ce999fe
韩一社区来京人员出租房屋服务站,39.845697,116.295574,北京市丰台区丰台南路南200米,1966d347ceda39003686f443,,1,1966d347ceda39003686f443
来京人员出租房屋服务站,39.846831,116.286545,造甲街4号造甲村社区,10225aafea4615c68bfc0615,,1,10225aafea4615c68bfc0615
丰台区城市管理综合行政执法监察局园区执法队,39.839077,116.286144,星火路12号,b8bf3a9b4680408017948e75,(010)63734114,1,b8bf3a9b4680408017948e75
丰台镇派出所,39.855603,116.295813,北京市丰台区丰台镇正阳大街9号,f9fd6062e95d8b1f0f0e6b00,"(010)63819947,(010)63851537",1,f9fd6062e95d8b1f0f0e6b00
卢沟桥街道假日万恒社区来京人员和出租房屋服务站,39.87343,116.2579,北京市丰台区大瓦窑北路假日风景C区2号楼,,(010)83205843,1,1a2ecb969764fdeb84154100
卢沟桥乡大瓦窑村来京人员和出租房屋服务站,39.869324,116.244948,北京市丰台区大瓦窑村委会内,,(010)83292957,1,9eea3eb16d76fcfbae31e535
榆树庄责任区外来人口管理站,39.847417,116.259577,丰裕路与看丹路交叉口南150米,3bc621b8960f3a223904b129,,1,3bc621b8960f3a223904b129
警务工作站(看丹路),39.843582,116.27706,建新路36号附近,6a5defef65ad431e43afe648,,1,6a5defef65ad431e43afe648
来京人员和出租房屋服务站,39.846208,116.243642,晓月中路15号附近,,,1,bd78c19e7c7e3fdca20464d4
丰台公安分局看丹地区直属中心警务站,39.844808,116.277371,建新路32号附近,598d0e20207cbbdc100daa53,,1,598d0e20207cbbdc100daa53
城管执法(晓月中路),39.845583,116.243728,北京市丰台区晓月中路4-11-2号附近,,,1,38bcc6dbfd841647744ff190
户籍室,39.841696,116.276872,北京市丰台区看丹街410号,b502a9899983d8a7c056acf5,,1,b502a9899983d8a7c056acf5
宛平城管监察,39.845526,116.243745,卢沟桥晓月中路7号,,,1,d73541f1b722856196f08c56
丰台分局,39.855076,116.246693,北京市丰台区卢沟桥沙岗村6号,,,1,395fda2eee64a10cdc1e529b
丰台公安分局西院办公区接待大厅,39.855117,116.24668,卢沟桥乡沙岗村6号,ac4c209f2a8caa2916a1900e,,1,ac4c209f2a8caa2916a1900e
北京市公安局丰台分局世界公园派出所,39.818731,116.296558,花乡丰葆路158号世界公园内,ee46306d4d5df3f63ce231ee,(010)83612788,1,ee46306d4d5df3f63ce231ee
社区警务工作站,39.861169,116.264922,五里店南路西200米,e23e880fdfb29d2b27d2bb50,,1,e23e880fdfb29d2b27d2bb50
丰台区卢沟桥街道五里店第一社区来京人员和出租房屋服务站,39.864454,116.263904,北京市丰台区五里店南路7号院,,(010)63821531,1,f83e150721329a084d5547f1
北京市公安局公共交通安全保卫分局大瓦窑站巡警大队,39.866452,116.239623,北京市丰台区卢沟桥张仪村路市运输机械厂西北50米,9644b8cfa920cc096140a98a,,1,9644b8cfa920cc096140a98a
北京市丰台区司法局宛平城司法所,39.846394,116.243541,北京市丰台区宛平城地区办事处社会保障事务所,d546ee04f09bdb934afd3f9a,,1,d546ee04f09bdb934afd3f9a
看丹派出所榆树庄责任区警务工作站,39.84729,116.259544,丰裕路与看丹路交叉口南150米,87cbfcbd2204c2e328201a66,,1,87cbfcbd2204c2e328201a66
公安,39.842034,116.246375,晓月中路29号院附近,4b05e23b9214726c601c674d,,1,4b05e23b9214726c601c674d
北京丰台公安分局卢沟桥派出所出入境受理点,39.841885,116.246484,北京市丰台区晓月三里13号楼卢沟桥派出所内,f67c880eca87469b09b93ac2,(010)83213394,1,f67c880eca87469b09b93ac2
看丹派出所,39.841595,116.277053,北京市丰台区看丹村796号,f56f72a4735e986bed74f839,(010)63736379,1,f56f72a4735e986bed74f839
北京市公安局丰台分局醒酒中心-西南门,39.855228,116.285256,西安街甲1号附近,,,1,32483971b278175009a8d495
丰台镇派出所治安办公室,39.846237,116.288665,看丹路33号附近,9590600c8375ea2e36b06c60,,1,9590600c8375ea2e36b06c60
北京市公安局丰台分局科技园区派出所韩庄子第二社区警务工作室,39.843076,116.295786,科兴路与邻枫路交叉口西北100米,53ad4bce2bb7e90ace04efba,,1,53ad4bce2bb7e90ace04efba
丰台镇派出所-东南门,39.855458,116.295698,正阳大街9号附近,,,1,08f91f18a33fa4bb9fec2bb4
卢沟桥派出所治安站,39.86833,116.239291,大瓦窑西二街与张仪村路交叉口西南100米,65eec5d1ed6eca6402294fe1,,1,65eec5d1ed6eca6402294fe1
北京铁路公安处警犬训练大队,39.852822,116.246774,宛平城沙岗村136号,,,1,7a4c2bc8182b133f2cb17e47
科技园区派出所户籍室,39.834642,116.28635,北京市丰台区外环西路16号,,(010)63722186,1,8ca924ba1ace413a4e2fdf56
北京市公安局丰台分局科技园区派出所-东北门,39.834715,116.286541,外环西路16,4dd1cf889cf3cfbd5fd4fe00,,1,4dd1cf889cf3cfbd5fd4fe00
北京市公安局丰台分局看丹派出所榆树庄社区警务工作室,39.847322,116.259558,丰裕路与看丹路交叉口西南200米附近,9e209bae072db42fd518b724,,1,9e209bae072db42fd518b724
看丹派出所居住证临时受理点,39.841724,116.277083,北京市丰台区看丹南路看丹村796号,,(010)63716814,1,902dc407536d609c6ec02c95
丰台公安分局预审大队,39.855013,116.247211,卢沟桥沙岗村6号,b6693b31bf8d81d0734b8787,,1,b6693b31bf8d81d0734b8787
北京市公安局丰台分局醒酒中心,39.855254,116.285275,北京市丰台区西安街甲1号,,,1,aa31fd3066659201276e9855
北京市公安局丰台分局丰台镇派出所永善社区警务工作室,39.856564,116.292484,兴隆中街与文体路交叉口北100米,85fdf303ff9a0ec0715e8002,,1,85fdf303ff9a0ec0715e8002
北京铁路公安处刑警支队,39.846771,116.293591,丰台南路122号(东院平房),,,1,634181b9fcda796490114ceb
岳各庄派出所大井警区,39.872044,116.269173,丰体南路,98489bbff8b0636d2ce67b9d,,1,98489bbff8b0636d2ce67b9d
北京市公安局丰台分局卢沟桥派出油泵厂社区警务工作室,39.867649,116.267004,五里店7号院3号楼,aab1c1b26c8765abac0457a2,,1,aab1c1b26c8765abac0457a2
丰台西车站派出所-北门,39.843869,116.257415,北京市丰台区丰裕路360号附近,,,1,5b81544caaa9a739f50e771b
卢沟桥派出所-西南门,39.841809,116.246371,晓月中路29号院附近,,,1,ad8397e70a99db4185420e36
卢沟桥派出所居住证受理点,39.842096,116.246572,北京市丰台区晓月中路晓月苑三里13号楼,,(010)83210531,1,1f52193aa364ac82b7265526
太平桥街道万润社区来京人员和出租房屋服务站,39.863062,116.344913,北京市丰台区菜户营东街万泉寺256号院5号楼西侧底商,9e809fbf92999ed1932ca39b,(010)63339718,1,9e809fbf92999ed1932ca39b
北京市公安局丰台分局-人民来访接待室,39.863765,116.303057,丰管路58-1号附近,4798cbd84ca346b1d6b74e3d,,1,4798cbd84ca346b1d6b74e3d
六里桥南里社区居委会外来人口管理站,39.874225,116.302562,北京市丰台区七里庄地铁站B东北口东150米,cbb85042563bd1a18bdb738a,,1,cbb85042563bd1a18bdb738a
六里桥南里社区警务工作站,39.874224,116.302482,北京市丰台区七里庄地铁站B东北口东150米,6768ff899d5013ef76e5b60b,,1,6768ff899d5013ef76e5b60b
丰台街道东大街社区来京人员和出租房屋服务站,39.863767,116.298117,北京市丰台区游泳场北路9号院内,,(010)63800684,1,edd4b475c1bf28095a3ac80d
丰台交通支队丰北大队,39.871013,116.306162,北京市丰台区泥洼路3号,,(010)68399711,1,58d676f47ea6f935a2acc4b4
丰台交通支队,39.870988,116.305985,北京市丰台区泥洼路3号,38e4803762513449373a7100,(010)68399701,1,38e4803762513449373a7100
治安巡防,39.832866,116.340233,京开西路西200米,0666f5e4f00c60a349fc8d97,,1,0666f5e4f00c60a349fc8d97
丰台区花乡新发地治安巡防队(北京京科肝泰医院东北),39.829526,116.356211,北京市丰台区新村街道京开路潘家庙市场办公室旁,038b20b5dae4b78de9f85370,,1,038b20b5dae4b78de9f85370
草桥社区警务站,39.855504,116.361966,右安路东200米,,,1,5b79841e014b51a4246e9894
黄土岗社区警务工作室,39.830883,116.347546,北京市丰台区右安路202号,a9d7a71d6586061f2811d17f,,1,a9d7a71d6586061f2811d17f
育芳园-社区警务工作站,39.856649,116.326637,育芳园47号楼,21f82970244b3acdf72310bc,,1,21f82970244b3acdf72310bc
北京市花乡草桥治安联防队,39.855681,116.357603,南三环西路辅路附近,5205c5f63dd3878ce81e9785,,1,5205c5f63dd3878ce81e9785
新村街道鸿业兴园社区来京人员和出租房屋服务站,39.845974,116.312099,北京市丰台区丰台南路鸿业兴园二区2号楼一层社区居委会内,,(010)83817576,1,965dacfa555aca842fb90813
造甲村社区-外来人口管理站,39.851038,116.30259,造甲南里11号,f7a2c3d0d1b16fb2b75f1eb0,,1,f7a2c3d0d1b16fb2b75f1eb0
怡海花园社区居民委员会外来人口管理站,39.839993,116.30496,怡海南路5号附近,ccbc1e73769232454354d7e4,,1,ccbc1e73769232454354d7e4
丰台街道新华街南社区来京人员和出租房屋服务站,39.851586,116.299725,北京市丰台区东兴里与新华街交叉口,,(010)83624480,1,4edcd0a0552dcaaf29fc48e4
花乡地区暂住人口管理委员会,39.840379,116.319258,樊羊路西50米,ef5ee1ac71fc6d9403ec0149,,1,ef5ee1ac71fc6d9403ec0149
科学城第二社区警务工作站,39.841572,116.299725,恒富街2,7cb9cfb2041e6aa021022036,,1,7cb9cfb2041e6aa021022036
丰台公安分局樊家村派出所,39.840566,116.319046,北京市丰台区四合庄283号,89fd4ea3ac519a47e5e96500,"(010)63736942,(010)63736772",1,89fd4ea3ac519a47e5e96500
太平桥街道万泉寺东社区来京人员和出租房屋服务站,39.871496,116.345938,北京市丰台区万泉寺北路16号院4号楼一层西侧,,(010)57502815,1,91a1ab16ef06ce0846e2741c
周庄子村治安巡防队,39.867251,116.312625,泥洼路周庄子村,21b9d36d03e2b5e9abf7294d,,1,21b9d36d03e2b5e9abf7294d
前泥洼社区警务工作站,39.862627,116.310494,前泥洼一区4号,691ad6c22b856934a8175a11,,1,691ad6c22b856934a8175a11
北京市总队第十五支队,39.872423,116.307829,北京市丰台区丰台北路,,,1,a1e6c57a04606d53990050a6
新村街道首经贸中街社区来京人员和出租房屋服务站,39.846997,116.331107,北京市丰台区首经贸中街1号院3号楼2单元1层居委会内,,(010)83600994,1,61079876e9128d2193114cf7
新发地派出所汉龙货运警务站,39.819053,116.357661,北京市丰台区S215(京开路),,,1,243f0413c88c8a8cb54f5447
花乡黄土岗村来京人员和出租房屋服务站,39.83217,116.34733,北京市丰台区右安路黄土岗村甲200号,d7366be1996d9300260bd086,(010)83730706,1,d7366be1996d9300260bd086
北京市丰台区劳动人事争议仲裁委员会,39.856804,116.339485,南三环万柳桥甲3号宝隆大厦东北角一层,19f2a9544c617f1b4151c0af,(010)53201265,1,19f2a9544c617f1b4151c0af
玉泉营派出所,39.839538,116.336937,北京市丰台区黄土岗甲1号,7fd7231171c4afe25cbe86c5,"(010)83608825,(010)83606590",1,7fd7231171c4afe25cbe86c5
科学城第二社区居民委员会外来人口管理站,39.841673,116.299752,恒富街2,d659ec1c4f758d859868b49a,,1,d659ec1c4f758d859868b49a
北京市公安局丰台分局樊家村派出所造甲村社区警务工作室,39.851122,116.302667,造甲街4号附近,b729df91c777bdd1b75f1ec9,,1,b729df91c777bdd1b75f1ec9
丰台分局六里桥派出所万泉寺责任区警务站,39.863654,116.344231,东管头街76号附近,a44d8c283118c018a8f0cddf,,1,a44d8c283118c018a8f0cddf
北京市公安局丰台分局第二办案中心,39.86593,116.31102,北京市丰台区泥洼东路16,,,1,4da9d58b0cda117ed12dd61f
丰台街道丰益花园社区来京人员和出租房屋服务站,39.864275,116.313985,北京市丰台区丰管路3号院丰益花园居委会内,,(010)63899664,1,5d94d6f8e1086d35c056ace9
丰台街道前泥洼社区来京人员和出租房屋服务站,39.86274,116.310222,北京市丰台区前泥洼一区4号楼居委会,,(010)63865130,1,6eab38c1ab06009d2b11d132
丰益派出所警务室,39.861877,116.318342,丰管路17号附近,,,1,d0239bfffebef4bc1c58005d
丰台公安分局综合服务大厅,39.863687,116.302576,北京市丰台区丰管路58-2号,c7fb04bd617a6b16fa0cadc5,,1,c7fb04bd617a6b16fa0cadc5
北京市公安局丰台分局-户政办公大厅,39.863703,116.302616,丰管路58-2,6f90cfa0693c5bef8e772788,,1,6f90cfa0693c5bef8e772788
丰益派出所,39.866158,116.311068,北京市丰台区泥洼东路16号,3b50fc9c91904e043517dca4,"(010)63869967,(010)63861656,(010)63861162",1,3b50fc9c91904e043517dca4
北京公安局出入境管理处(丰台分局),39.863693,116.302553,北京市丰台区丰管路58号-2号,402e060df7e2cbffeee4a53f,(010)83681338,1,402e060df7e2cbffeee4a53f
花乡人民政府纪家庙村民委员会治安联防办公室,39.852273,116.33883,纪家庙村委会人口学校附近,e6e7dcf2cdb776cf6fa3cc41,,1,e6e7dcf2cdb776cf6fa3cc41
新村街道草桥社区来京人员和出租房屋服务站,39.855428,116.361912,北京市丰台区新村街道右安路草桥28号院11号楼6单元底商,,(010)67547941,1,d96371888043b0e82fb17e53
纪家庙村社会治安综合治理办公室,39.852273,116.33883,纪家庙村委会人口学校附近,5d45ef4304710ecdc9c3db62,,1,5d45ef4304710ecdc9c3db62
新发地农产品股份有限公司治安管理部,39.82343,116.348691,尚购综合礼品商城附近,09313546bf59175326d2bbc6,,1,09313546bf59175326d2bbc6
新村街道万柳园社区来京人员和出租房屋服务站,39.856804,116.343472,北京市丰台区南三环西路万柳园小区1号楼居委会,76f5becbfa1239f6c7f50dba,(010)63302250,1,76f5becbfa1239f6c7f50dba
纪家庙管理委员会来京人员出租房屋服务站,39.851938,116.329261,首经贸地铁站B东北口东北200米,,,1,b88e54abf0ea32512ce67b21
丰台区新发地流动人口管理站(北京京科肝泰医院东北),39.829518,116.356202,开心家常菜附近,e737198ff3ec801b6ca3cc27,,1,e737198ff3ec801b6ca3cc27
四合庄派出所,39.82074,116.330977,北京市丰台区花乡白盆窑甲302号,766313a906992f042ce67b7d,"(010)83797238,(010)83797236,(010)83797136",1,766313a906992f042ce67b7d
怡海花园社区警务工作站樊家村派出所,39.840058,116.304911,北京市丰台区帝京路与科怡路交叉口东100米,,,1,51dfe08ccc13ae707c29bd63
科学城第一社区居民委员会外来人口管理站,39.842499,116.297019,科兴路9号附近,fc8868893fb1cd86fb2d61b0,,1,fc8868893fb1cd86fb2d61b0
怡海花园-社区警务工作站,39.840066,116.304926,怡海路5-15号中国建设银行(怡海花园储蓄所)附近,c47b57563703f68a9d9d681a,,1,c47b57563703f68a9d9d681a
科学城第二社区来京人员和出租房屋服务站,39.841727,116.300351,恒富街2,c9118924ec343def7bf7964d,,1,c9118924ec343def7bf7964d
新村街道桥梁厂第二社区来京人员和出租房屋服务站,39.847551,116.314216,北京市丰台区丰台南路新村二里5号楼北侧桥梁厂二社区警务室内,5e0841122bfa509eb23c8150,(010)63720478,1,5e0841122bfa509eb23c8150
丰台街道建国街社区来京人员和出租房屋服务站,39.853865,116.300133,北京市丰台区建国街一里东门左手平房,,(010)63726887,1,e3a44673cbc58d9051e5c57b
北京市公安局丰台分局科学园区派出所科学城第一社区警务工作室,39.842601,116.297625,北京市丰台区丰泽街1-3号科学城第一社区,cb23df7b1ed86bdaa5da3910,,1,cb23df7b1ed86bdaa5da3910
四合庄巡防队,39.831803,116.315224,五圈路北100米,c725cb4a85a3c6789cf77916,,1,c725cb4a85a3c6789cf77916
新村街道怡海花园社区来京人员和出租房屋服务站,39.838521,116.305467,北京市丰台区怡海花园社区富润园11号楼108室,,(010)83671481,1,a19190a5931124b4f7eafc55
新村街道三环新城第二社区来京人员和出租房屋服务站,39.854704,116.31587,北京市丰台区丰桥路8号院14号楼东侧底商居委会内,ed7bff51d91803db16764360,(010)83626387,1,ed7bff51d91803db16764360
新村街道造甲村社区来京人员和出租房屋服务站,39.851075,116.302553,北京市丰台区造甲街造甲村90号院社区居委会内,7e207b1eda46a314047ce84b,(010)63736973,1,7e207b1eda46a314047ce84b
丰台区水务局防汛应急抢险四大队,39.852389,116.327563,北京市丰台区育菲园东里13号,26499cfd94022dc5725e80b0,,1,26499cfd94022dc5725e80b0
人民公安报社(右安路),39.833165,116.348146,丰台区右安路9号,544007c78f3e1c5d9dec2bf4,(010)83731000,1,544007c78f3e1c5d9dec2bf4
六里桥派出所立体巡控大队万泉寺分队,39.863584,116.344353,东管头街与柳村路交叉口东150米,a721594ad0bbdab9130daaf9,,1,a721594ad0bbdab9130daaf9
公安部住宅小区地下停车场-出口,39.863741,116.303883,北京市丰台区丰管路,33240de87735c42c081cc700,,1,33240de87735c42c081cc700
公安信访,39.863713,116.303089,北京市丰台区丰管路58-1附近,989d48e4f2eed19aa2a9340c,,1,989d48e4f2eed19aa2a9340c
公安部住宅小区地下停车场-入口,39.863838,116.305177,北京市丰台区丰管路,c2e5286dbf6c3e6233621265,,1,c2e5286dbf6c3e6233621265
公安部住宅小区-2栋楼,39.863227,116.304229,北京市丰台区公安部住宅小区2栋楼,aa065e7a4f76c4d3c81b95af,,1,aa065e7a4f76c4d3c81b95af
公安部住宅小区-北1门,39.86391,116.305124,丰管路56号院,303407be6ab12865adb22ab3,,1,303407be6ab12865adb22ab3
丰台公安分局出入境自助服务厅,39.863674,116.302716,北京市丰台区丰管路59号院附近,,,1,bb3dceb7d47868384002456a
公安部住宅小区-1栋楼,39.863278,116.304961,北京市丰台区公安部住宅小区1栋楼,8e0756eb3008acada7c75632,,1,8e0756eb3008acada7c75632
北京市公安局丰台分局-北门,39.863644,116.301683,北京市丰台区东大街与丰管路交叉口东150米,cfc2505a8f1f50564afd3fef,,1,cfc2505a8f1f50564afd3fef
北京市公安局公安交通管理局丰台交通支队-停车场,39.871252,116.306232,北京市丰台区泥洼路3号附近,73e49b45d5484cd57bf79640,,1,73e49b45d5484cd57bf79640
玉泉营派出所治安岗亭,39.842859,116.351764,北京市丰台区马家楼村1号,3d0130c2d5c2e91a1d5800ee,,1,3d0130c2d5c2e91a1d5800ee
丰台公安分局新发地地区直属中心警务站,39.823531,116.348632,北京市丰台区东环路,5fd2ab4a39d5a25e3310af3b,,1,5fd2ab4a39d5a25e3310af3b
人民公安报社-东南2门,39.832348,116.348531,北京市丰台区右安路9号,bb1c873b2d259a911ce999a5,,1,bb1c873b2d259a911ce999a5
人民公安报社-东南1门,39.833008,116.348851,右安路9号,c0de9cdbd99611e25abbbc1f,,1,c0de9cdbd99611e25abbbc1f
公安部住宅小区停车场-出口,39.863836,116.303687,丰管路南50米,dcf3f8a30e7aaf700c0e6b76,,1,dcf3f8a30e7aaf700c0e6b76
公安部住宅小区-西门,39.863676,116.303945,北京市丰台区丰管路56号院,cde9e2c71dbb2dc9e81e977d,,1,cde9e2c71dbb2dc9e81e977d
北京公安泰达商贸有限公司,39.86364,116.308052,丰管路甲52号院1号楼底商,ee19f929bbecff3e6949f378,13426057941,1,ee19f929bbecff3e6949f378
公安部住宅小区-停车场,39.863809,116.305108,丰管路56号院,f633606aa3dcd2330a69d990,,1,f633606aa3dcd2330a69d990
北京市公安局丰台分局-西门,39.863041,116.300748,北京市丰台区东大街26号,8cd032a6ebb5278e81a12e30,,1,8cd032a6ebb5278e81a12e30
公安部住宅小区,39.863426,116.304616,北京市丰台区丰管路56号,6ed3083a415be9b72b3a9f00,,1,6ed3083a415be9b72b3a9f00
丰台公安分局樊家村派出所警务办公室,39.85354,116.328439,丰台东路79号附近,29d4984d2b99d1594bcc4ae0,,1,29d4984d2b99d1594bcc4ae0
北京市公安局丰台分局第二办案中心-西门,39.865921,116.310907,北京市丰台区泥洼东路16,3b3afb21974507df4f6d4679,,1,3b3afb21974507df4f6d4679
派出所办事车辆停车场,39.864344,116.310845,北京市丰台区丰管路87号附近,,,1,9301e45ccfb0a5339a0050d4
公安部住宅小区停车场-入口,39.86389,116.305216,丰管路56号院,,,1,26e7bec01f09d96a9e9d6815
公安,39.839547,116.336949,北京市丰台区,,,1,713ec304db65367badcb66c3
樊家村派出所万柳西园、纪家庙社区警务工作室,39.852463,116.339551,北京市丰台区玉泉营郑王坟280号院1号楼,d02220620858fef0fbdc85f4,,1,d02220620858fef0fbdc85f4
玉泉营派出所-东北门,39.839581,116.336852,新发地,c37a740ea179a3f7fb221310,,1,c37a740ea179a3f7fb221310
四合庄派出所-西门,39.820551,116.330147,白盆窑305号附近,deffb15b00f47b3c095cb309,,1,deffb15b00f47b3c095cb309
樊家村派出所-东北门,39.840465,116.319292,四合庄283号樊家村派出所附近,ffe17c980d1a9208b2077dc2,,1,ffe17c980d1a9208b2077dc2
冯村村委会流动人口管理中心站,39.913913,116.111844,冯园街与冯村中路交叉口西南200米,,,1,2b09cf6cf2d4695d40afe6fa
北京市工商行政管理局门头沟分局执法检查队,39.909816,116.118265,北京市门头沟区石龙南路8号,923ffd00d8c98cb7d92f2809,,1,923ffd00d8c98cb7d92f2809
门头沟区石龙工业区来京人员和出租房屋服务站,39.912578,116.110099,北京市门头沟区永定镇石龙西路58号(镇政府社保大厅),,,1,ad2e4770d483231df90cad2b
西峰寺派出所,39.909305,116.156667,北京市门头沟区永定河西大堤附近,,,1,db21ad104aadf5ad0b69d937
北京市公安局巡特警总队门头沟大队,39.926949,116.121655,体北路与新桥南大街交叉口东100米,,,1,4f5cf63026210c0ef02d832d
桥户营村治安联防队,39.917758,116.126289,北京市门头沟区永定惠康嘉园六区南(上园路南),9a50782485b8683e306212de,,1,9a50782485b8683e306212de
永兴小区居委会-流动人口管理中心站,39.918698,116.121385,曹各庄后街北150米,638c49fa405a89d351e5c541,,1,638c49fa405a89d351e5c541
永定派出所,39.913107,116.109956,北京市门头沟区永定镇石龙西路丽景长安小区西侧200米,,(010)69804633,1,8abff3e59165a9cb2b06ce51
永定派出所-东北门,39.913397,116.110275,北京市门头沟区冯万路与石龙西路交叉口东南50米,,,1,087a20e5bd17f3ed8405bf67
八角路社区外来人口管理站,39.919118,116.204518,北京市石景山区八角西街110号附近,275569823481d11d51e5c569,,1,275569823481d11d51e5c569
八千平社区警务站,39.92241,116.194129,北京市石景山区古城街道古城北路3号楼下,8a49d93a07cfc8c0d5b74e8d,(010)68875184,1,8a49d93a07cfc8c0d5b74e8d
西路北社区警务工作站,39.920947,116.192315,北京市石景山区古城西路32号附近,273e9f5e4245b12c1df74df9,,1,273e9f5e4245b12c1df74df9
西路北社区居委会-外来人口管理站,39.920947,116.192315,北京市石景山区古城西路32号附近,f52a69ae693da2f743afe65b,,1,f52a69ae693da2f743afe65b
双锦园-社区警务工作室,39.909132,116.231444,银河东街与鲁谷路交叉口东南100米,c353acd6b8bd2f568505bf6b,,1,c353acd6b8bd2f568505bf6b
八角北路社区-治安工作委员会,39.920325,116.203031,北京市石景山区八角西街90号附近,1ff3198b480b89484e776ed5,,1,1ff3198b480b89484e776ed5
环铁社区居委会-外来人口管理站,39.927348,116.193528,北京市石景山区杨庄大街18-1号附近,70b7a872cc6ba3300482c2a6,,1,70b7a872cc6ba3300482c2a6
老山街道老山东里北社区来京人员和出租房屋服务站,39.917561,116.229059,北京市石景山区老山南路老山东里临甲47号,02a1a6e1b8f3c80e45572638,,1,02a1a6e1b8f3c80e45572638
八角北里-社区警务工作站,39.919966,116.20718,北京市石景山区八角路1-1号附近,98b1b45d2351f0487f29bd76,,1,a9019a4091dbf52a32870a82
八角北路特钢社区警务工作站,39.923249,116.199897,八角北路9栋附近,771ddac2ea37f283d6851fc2,,1,771ddac2ea37f283d6851fc2
八角街道八角北里社区来京人员和出租房屋服务站,39.920227,116.20715,北京市石景山区八角北里临乙45号(45号楼前居委会),2e4958ee1415affdc61b7570,,1,2e4958ee1415affdc61b7570
十万平社区警务站,39.913969,116.192441,古城大街75号附近,39ec93784904e529213bf2ab,,1,4a28f0df3fde6399cb2915a3
网安大队,39.911816,116.194173,古城街道古城南里甲1号,,,1,1dc9bf82363a11bc0969d941
石景山公安分局鲁谷派出所万达广场警务工作站,39.911257,116.231813,石景山路乙18号万达广场F1层,e7505d709b5c4e467ab55c6d,,1,e7505d709b5c4e467ab55c6d
新华社鲁谷社区警务工作站,39.906814,116.219119,京源路8号新华出版社附近,dacc9b6742aa721f38221c94,,1,dacc9b6742aa721f38221c94
北京市公安局石景山分局新古城派出所 古城路社区警务工作室,39.918615,116.1935,八角街道公园北社区古城路57号楼北侧,578c672d2a0736e4ddee8b71,,1,578c672d2a0736e4ddee8b71
八角南路社区警务工作室,39.915749,116.202157,北京市石景山区八角南路1,9817bd5456a5dc709d82ea1a,,1,9817bd5456a5dc709d82ea1a
石景山分局出入境证件鲁谷派出所受理点,39.907727,116.224803,北京市石景山区依翠园甲16,e524cd3edc3245cbc9fa5f9b,,1,e524cd3edc3245cbc9fa5f9b
石景山交通支队,39.92835,116.20278,北京市石景山区杨庄路8号(杨庄中里),69130523b7962475725e80c5,(010)68873720,1,69130523b7962475725e80c5
北京市公安局石景山分局,39.911222,116.19432,北京市石景山区古城南里甲1号,0a15c7ec55e96efced74f822,(010)68873814,1,0a15c7ec55e96efced74f822
金顶街派出所,39.931375,116.174958,北京市石景山区金顶街五区3栋,d52831f90ddf02a72efaa7dd,"(010)88732328,(010)88713172",1,d52831f90ddf02a72efaa7dd
西路北社区治安工作委员会,39.920947,116.192315,北京市石景山区古城西路32号附近,0b361e02390362b7db13183a,,1,0b361e02390362b7db13183a
鲁谷街道新岚大厦社区来京人员和出租房屋服务站,39.907504,116.224413,北京市石景山区鲁谷街道新岚大厦北路新岚大厦北路新岚大厦居委会,b22d9236859a19698bb988cf,(010)68641236,1,b22d9236859a19698bb988cf
京源路社区来京人员出租房屋服务站,39.915141,116.21866,五景桥东街与S50西五环入口交叉口东北150米,bd7f009117095e5536b06c8d,,1,bd7f009117095e5536b06c8d
新古城派出所环铁社区警务工作站,39.927243,116.193588,古城街道环铁社区图书阅览室附近,68f711d30654addf77026928,,1,68f711d30654addf77026928
鲁谷社区居委会外来人口管理站,39.906805,116.219092,北京市石景山区京源路8号新华出版社附近,2be416e60c7af639d13ce3e7,,1,2be416e60c7af639d13ce3e7
南路东社区来京人员出租房屋服务站,39.91564,116.197095,古城南路28栋附近,,,1,2dc72a550c7d892df8dc8512
特钢社区警务站,39.925446,116.192332,杨庄大街83号附近,c6e50e1cc962538f9f09f72a,,1,c6e50e1cc962538f9f09f72a
八角路社区-来京人员出租房屋服务站,39.918904,116.204369,八角西街85号附近,4da5e577c19176cc9cf779f8,,1,4da5e577c19176cc9cf779f8
八角街道杨庄中区社区来京人员和出租房屋服务站,39.929652,116.202438,北京市石景山区八角街道阜石路杨庄中区1号楼西侧平房,,,1,798d86ccbfff1b6f9222e0c4
依翠园南社区居委会-外来人口管理站,39.905932,116.223162,鲁谷南路29-9号附近,53b78449e2332126bca822b7,,1,53b78449e2332126bca822b7
依翠园南社区-治安工作委员会,39.905939,116.223212,鲁谷南路29-9号附近,567d0bbd0c119c3008f5eb5b,,1,567d0bbd0c119c3008f5eb5b
环铁社区-治安工作委员会,39.927345,116.193519,北京市石景山区杨庄大街18-1号附近,1c0f4a36f4594b57c91b95e0,,1,1c0f4a36f4594b57c91b95e0
依翠园南社区警务工作站,39.905822,116.223633,鲁谷南路29-9号附近,492f91fc5a9ce57aad31e520,,1,492f91fc5a9ce57aad31e520
北京市公安局石景山分局八角派出所八角中里社区警务工作室,39.918588,116.209709,北京市石景山区八角路,599546899c5e7e73f4b9165b,,1,599546899c5e7e73f4b9165b
石景山公安分局八角派出所暂住证办证处,39.921657,116.203282,石景山区八角北街甲38号,cd07aa8be3b9d44a343a71f5,(010)88788059,1,cd07aa8be3b9d44a343a71f5
老山东里南社区警务工作室,39.914793,116.229854,老山东里甲20附近,728b41fa5c3e5693a11de9fc,,1,102f866933b940b0adb22aa8
八角北里社区居委员会-外来人口管理站,39.919959,116.207163,八角西街甲32号附近,d7ffb7771f21eabc57bfffa8,,1,d7ffb7771f21eabc57bfffa8
北京市公安局石景山分局八角派出所八角南理社区警务工作室,39.916038,116.210145,八角南路南100米,94d742f437b6b0932afc4827,,1,94d742f437b6b0932afc4827
新古城派出所,39.918066,116.191861,北京市石景山区老古城北后道甲1号,8eb48fa1b601d2a6f32d8322,"(010)68872373,(010)68873770,(010)68861215",1,8eb48fa1b601d2a6f32d8322
石景山交通支队车管站,39.928422,116.202396,北京市石景山区杨庄路8号,a117ec9fd29ae92a3f9a5ee0,(010)68399806,1,a117ec9fd29ae92a3f9a5ee0
鲁谷派出所,39.907871,116.224649,北京市石景山区依翠园甲16号,925c550f069589b35a3ac877,"(010)88682186,(010)88682185",1,925c550f069589b35a3ac877
十万平社区-外来人口管理站,39.914513,116.190022,石景山路55号附近,64df39d8e3d0ce1df8dc8544,,1,64df39d8e3d0ce1df8dc8544
古城街道老古城东社区来京人员和出租房屋服务站,39.920525,116.186066,北京市石景山区古城街道古城西路现代嘉园66号院1号楼老古城东社区居委会,,,1,6e1fb6efa7349c0654bfff90
古城街道滨和园燕堤中街社区来京人员和出租房屋服务站,39.90071,116.182702,北京市石景山区古城街道滨河园燕堤中街6号院3号楼一楼中心警务站内,,,1,990eb92af33eaba577026928
古城南路社区警务工作室,39.914739,116.198818,八角南路,f89fc58b3259cc7a29fc48ef,,1,f89fc58b3259cc7a29fc48ef
八角北路社区-外来人口管理站,39.920318,116.203013,北京市石景山区八角西街90号附近,637d839e17a544e13b221c8a,,1,637d839e17a544e13b221c8a
北京市公安局石景山分局-人民来访接待室,39.911122,116.193423,古城南街附近,787396c68610bee603ff2d4e,,1,787396c68610bee603ff2d4e
鲁谷社区综治维稳工作中心万达广场分中心,39.911444,116.231755,北京市石景山区石景山路乙18号院3,ab8a210d0cc835935d17c371,,1,ab8a210d0cc835935d17c371
古城街道南路西社区来京人员和出租房屋服务站,39.915071,116.195077,北京市石景山区古城街道古城南路16栋对面门南路西社区居委会内,,,1,2374e71148a0f6359d9d68d9
公园北治保会,39.91763,116.198584,古城南路57号附近,16a47c148f0d2818d3ff232a,,1,16a47c148f0d2818d3ff232a
石景山公安分局鲁谷派出所万达广场警务工作站,39.911343,116.231845,北京市石景山区石景山路乙18号院3,3cfd6dc71ca0e0d288fc06ad,,1,3cfd6dc71ca0e0d288fc06ad
北京市公安局石景山分局-办证大厅,39.911212,116.193517,古城南里甲1号,d622e747085edd120d3dda4d,(010)88788336,1,d622e747085edd120d3dda4d
八角派出所-户证办理中心,39.921618,116.203175,八角西街1号,9c79435e7433a31ceee4a52e,,1,9c79435e7433a31ceee4a52e
鲁谷派出所-户证大厅,39.907693,116.224787,北京市石景山区依翠园甲16号,f3c2373c39952252d22dd622,(010)88682185,1,f3c2373c39952252d22dd622
石景山路派出所,39.911028,116.206523,石景山路32号,8fa14fc3eed8ca6ef7eafc22,(010)68875350,1,8fa14fc3eed8ca6ef7eafc22
公安局出入境管理处(石景山分局),39.912001,116.194183,古城南里甲1号,085523ac58328734fbf0cbf6,(010)68873814,1,085523ac58328734fbf0cbf6
老山派出所,39.916492,116.227565,北京市石景山区老山东里甲35号,7da78d0c6c95b7668b2fb5af,"(010)88971590,(010)88971385",1,d8caa51c3f2027a98f55ecb0
八角派出所 ,39.921628,116.203519,北京市石景山区八角北路甲38号,201d88a9749d32b58bdb7338,"(010)68873077,(010)88788059",1,201d88a9749d32b58bdb7338
石景山公安分局出入境接待大厅,39.912192,116.193446,石景山区古城南里甲3号,60f5a328e45caca13686f4b5,,1,60f5a328e45caca13686f4b5
十万平社区-治安工作委员会,39.914547,116.190043,石景山路55号附近,c53d08076c24de4ca2d230f0,,1,c53d08076c24de4ca2d230f0
金顶街三区-社区警务工作站,39.931335,116.178831,苹果园南路128号附近,0da5d8832933b7bcd13ce3b7,,1,0da5d8832933b7bcd13ce3b7
北京石景山公安分局金顶街派出所出入境受理点,39.931411,116.175084,北京市石景山区金顶街五区3号金顶街派出所院内,08437027b07ae6e82ce67bc9,(010)88713172,1,08437027b07ae6e82ce67bc9
北京市公安局北京铁路公安局石景山南站派出所,39.88282,116.218538,卢沟桥小郭庄西路52号,662f096a0c11929d8c55ece9,,1,662f096a0c11929d8c55ece9
丰台公安分局园博园派出所,39.882723,116.17578,北京市丰台区芦井路,2564db12487235b63062121f,(010)63915688,1,2564db12487235b63062121f
北京市石景山区城市管理综合行政执法监察局,39.920466,116.205448,北京市石景山区八角西街32号,8e45ec7b0d15f7f93913fdc1,(010)68874274,1,8e45ec7b0d15f7f93913fdc1
北京市公安局石景山分局老山派出所京源路社区警务工作室,39.91375,116.219593,石景山路23号临8号附近,444b9d4ef8c43f1df5eafc7b,,1,444b9d4ef8c43f1df5eafc7b
北京市公安局石景山分局-停车场,39.910859,116.193258,古城南街东50米,,,1,3fed46a1e4b1eb6e33f71d11
鲁谷派出所居住证窗口,39.907899,116.224564,北京市石景山区新岚大厦西路依翠园甲16号鲁谷派出所内,,(010)68878081,1,e21e9f49bc8873b46c476007
老山派出所-西南门,39.916339,116.227465,老山西里,4dcc78d3933694d6b11e36ea,,1,4dcc78d3933694d6b11e36ea
北京市公安局石景山分局-西门,39.911278,116.193493,古城南里甲1号,,,1,01d1864c9ba5cb6b72455bce
北京市公安局公安交通管理局石景山交通支队-北门,39.928509,116.20298,北京市石景山区杨庄路8号,,,1,54ea250bf979881f76e5b653
金顶街派出所-东门,39.931345,116.175252,金顶街,,,1,b006690772c165bab64f5423
石景山南站铁路派出所-西南门,39.882784,116.218494,卢沟桥小郭庄西路52号石景山南站铁路派出所附近,,,1,4894bede8dfda4a5a5da39c3
北京市公安局石景山分局停车场-入口,39.911924,116.194092,古城南里1幢附近,04e839e9b9372f31704b8725,,1,04e839e9b9372f31704b8725
鲁谷派出所-南门,39.907461,116.22414,北京市石景山区新岚大厦北路与新岚大厦西路交叉口北100米,,,1,18ee8f77e82179b7354aaea9
八角派出所居住证窗口,39.921663,116.203436,北京市石景山区八角北路甲38号,,(010)68874171,1,b54cebc1a2725b4a1894c6f3
北京市公安局石景山分局八角派出所杨庄中区社区警务工作室,39.928822,116.203067,北京市石景山区杨庄路10号东北60米,,,1,6b3ee12bf36fd42c841541e9
新古城派出所居住证窗口,39.91811,116.191945,北京市石景山区老古城北后道甲1号,,,1,67d4b97924f9e1fc132935e1
八角派出所-停车场,39.921504,116.203298,八角西街1号,1e66f16e1d2489ec3686f4a6,,1,1e66f16e1d2489ec3686f4a6
石景山公安分局经侦大队,39.911254,116.193648,古城南里甲1号,,,1,bff51d79c8587d5afa42b285
八角派出所-西门,39.921795,116.203123,八角西街1号附近,,,1,690d66f48d400d56c13644bb
北京市公安局石景山分局-北门,39.911818,116.194203,古城南里甲1号,6722d26def856e4beaf85326,,1,6722d26def856e4beaf85326
北京市公安局石景山分局停车场-出入口,39.911908,116.194137,古城南街与古城大街交叉口东南200米,,,1,cf52f3eb2e3f38af8e772748
老山派出所居住证窗口,39.916585,116.227466,北京市石景山区老山西里甲35栋东侧,,(010)88973150,1,ff44b1ea5705895bd1f49ebc
北京市公安局石景山分局-户口审批服务中心,39.911269,116.193708,北京市石景山区古城南里甲1附近,e68aa63da6d5207d9d95deb9,,1,e68aa63da6d5207d9d95deb9
石景山公安分局巡逻警务站,39.913356,116.218066,五景桥东街与石景山路交叉口北50米,db12ca99c75cc81b42d63eba,,1,db12ca99c75cc81b42d63eba
石景山公安分局八角派出所居住证办证处,39.921532,116.203685,北京市石景山区八角北路甲38号,,(010)88788059,1,cfa5634e43dbe73c8bb98898
北京市公安局石景山分局-停车场,39.911909,116.19413,古城南街与石景山路交叉口东南200米,1f94de5f2d93127288f15daf,,1,1f94de5f2d93127288f15daf
北京市公安局交管局石景山交通支队车辆管理站-停车场,39.928451,116.202318,杨庄南路与杨庄路交叉口东南50米,,,1,6855b3ff7dbc2135c61b7547
金顶街派出所户政服务大厅,39.931459,116.175069,金顶街五区3号楼金顶街派出所附近,,,1,10fc756f2b20e20900ec01a7
北京市公安局园博园派出所-西南门,39.88254,116.175631,北京市丰台区射击场路与芦井路交叉口西北150米,,,1,d5d7a6fd3618ce400482c214
万寿路街道今日家园社区来京人员和出租房屋服务站,39.90787,116.288014,北京市海淀区西翠路5号院今日家园社区居委会,,,1,9d5738292c93423f2cb9087f
万寿路8号院-社区警务工作站,39.919035,116.296272,北京市海淀区万寿路8号院附近,997260e81f508a98d6b74e8f,,1,997260e81f508a98d6b74e8f
出租房屋管理站,39.90788,116.287777,北京市海淀区沙窝街,563606a3d5ccc4534002456a,,1,563606a3d5ccc4534002456a
今日家园-社区警务工作室,39.908042,116.286755,沙窝中路与沙窝街交叉口东150米,ce6b2c7ec6f64fc817c8f6d4,,1,ce6b2c7ec6f64fc817c8f6d4
九街坊社区治安警务室,39.921016,116.280182,西四环中路与西四环中路出口交叉口西50米,ed6c2c3a426518d193114c94,,1,ed6c2c3a426518d193114c94
万寿路街道太平路22号社区来京人员和出租房屋服务站,39.903763,116.291838,北京市海淀区莲花池西路太平路22号社区18楼204号,,,1,7da1b391d04a7d4c1894c6cd
万寿寺派出所岗亭,39.90534,116.284927,太平路丙20号附近,,,1,d29b6bd57cc6701e0bf5eb63
治安岗亭恩济庄派出所,39.927552,116.287695,北京市海淀区,a501349fe53e1e0d4c3a59bc,"(010)82588140,(010)88110680",1,a501349fe53e1e0d4c3a59bc
北京市公安局海淀分局万寿路派出所巡逻警务站,39.914269,116.281943,北京市海淀区复兴路五棵松地铁站B1出口处,b8e8eb0722b9a01ff32d83df,(010)68189819,1,b8e8eb0722b9a01ff32d83df
八宝山街道外文局家委会,39.909107,116.236906,鲁谷路332号附近,d0eaf1fab34d8b0c0969d958,,1,d0eaf1fab34d8b0c0969d958
石景山公安分局八宝山派出所驻一中院警务站,39.912219,116.235785,石景山路16号附近,,,1,52a3afc235d60ce3c8e33ca2
田村路街道玉海园二里社区来京人员和出租房屋服务站,39.925613,116.260136,北京市石景山区玉泉路8号玉海园二里5号楼108号,aa605c8a439aaef814b54b69,(010)88268223,1,aa605c8a439aaef814b54b69
永定路三街坊社区居委会-外来人口管理站,39.920063,116.263468,采石北路3号永定路街道三街坊社区(玉泉路)附近,d180fa62784ce527ddee8b03,,1,d180fa62784ce527ddee8b03
三街坊西社区警务工作室,39.919092,116.25984,北京市石景山区玉泉路16号,c411f4f038b297e1f02d833e,(010)68388010,1,c411f4f038b297e1f02d833e
中共八宝山街道流动人口管理服务中心支部委员会,39.906932,116.240037,北京市石景山区鲁谷东街西200米,e402452ffc23dde94354d79d,,1,e402452ffc23dde94354d79d
十一号院社区警务工作站,39.922351,116.255385,玉泉西街甲19附近,676f85d3dc61fd235d0d0214,,1,676f85d3dc61fd235d0d0214
万寿路街道太平路44号来京人员和出租房屋服务站,39.906338,116.272489,北京市海淀区太平路44号社区警务室,,(010)88214794,1,d7d36de04ca29a4c6c476039
北京市公安局海淀分局电路派出所三街坊社区警务工作室,39.921326,116.266237,金沟河路12号三街坊北社区南侧,8b68492d35fb26f69122e06f,,1,8b68492d35fb26f69122e06f
永定路地区社会治安巡防大队,39.918934,116.271473,正大路与永定路交叉口东50米,1ade859d1499c8b39f82eab7,,1,1ade859d1499c8b39f82eab7
玉阜嘉园-社区警务站,39.930274,116.260318,北京市海淀区玉泉路6号院,18fa91771f7a747f12882410,,1,18fa91771f7a747f12882410
八宝山街道玉泉西里北社区来京人员和出租房屋服务站,39.909357,116.248764,北京市石景山区鲁谷路玉泉西里二区1号楼1层,43d75d86e41d70d814a1909c,,1,43d75d86e41d70d814a1909c
北京市公安局石景山分局巡警支队(八宝山地区巡逻警务站),39.912913,116.241497,石景山路10号,cabddb57004b05b2bfa82207,,1,cabddb57004b05b2bfa82207
田村路街道瑞和园社区来京人员和出租房屋服务站,39.927861,116.24164,北京市海淀区山南路33号瑞和园1号楼瑞和园居委会,,(010)88620510,1,308480a0c607effb6cc02cd1
八宝山街道流动人口管理服务中心,39.907015,116.240261,北京八宝山街道永乐小区64栋,5c71ac1226a96cb80aa8d4aa,,1,5c71ac1226a96cb80aa8d4aa
复兴路32号社区警务工作站,39.913225,116.278269,复兴路30-6号附近,0a298716a01473568505bf49,,1,0a298716a01473568505bf49
永定路警务中心,39.919183,116.270768,永定路57-楼院201号楼附近,20ae35c454c30b67c9e33cd6,,1,20ae35c454c30b67c9e33cd6
八宝山街道永东南社区来京人员出租房屋服务站,39.90534,116.23806,鲁谷大街35号附近,5d58bfb2e4bd9d11e6073805,,1,5d58bfb2e4bd9d11e6073805
北京市公安局石景山分局八宝山派出所户证大厅,39.907205,116.240208,北京市石景山区鲁谷路永乐小区甲66号,ca061d38b4e80602a0acc42c,(010)68659008,1,ca061d38b4e80602a0acc42c
北京市公安局公安交通管理局石景山支队北辛安大队,39.918775,116.251638,北京市石景山区北辛安玉泉西街2号,db7889bc07b4a9a1cac3db20,(010)68872417,1,db7889bc07b4a9a1cac3db20
北京市公安局交管局石景山交通支队北辛安交通队,39.918968,116.251352,石景山区玉泉西街临3号,c61bd305c1dbfd68c27da2dd,(010)68399811,1,c61bd305c1dbfd68c27da2dd
八宝山派出所,39.907284,116.240322,北京市石景山区八宝山永乐小区甲66号,bd5046e854bbb43cd72ce27a,(010)68652234,1,bd5046e854bbb43cd72ce27a
靛厂治安巡防队,39.890459,116.291887,岳各庄东路东150米,f2739e156003c2f309a8d4cb,,1,f2739e156003c2f309a8d4cb
岳各庄派出所治安岗亭,39.889189,116.279649,卢沟桥西四环中路红星美凯龙113号东南角,df5c479bb7ec2fa0abf72924,"(010)63813316,(010)63813317",1,df5c479bb7ec2fa0abf72924
小井五队寻访工作站岳各庄派出所,39.886194,116.29601,北京市丰台区G4京港澳高速与G4京港澳高速入口交叉口北150米岳各庄派出所小井五队民调室附近,2ed549962005c44cc42ba1f2,,1,2ed549962005c44cc42ba1f2
北京市公安局丰台分局岳各庄派出所丰台路口社区警务工作室,39.876761,116.29093,丰台北路182号附近,0ace4756d31e4ca09de321e9,,1,0ace4756d31e4ca09de321e9
北京市公安局丰台分局巡警支队,39.893527,116.283709,靛厂村397号,df0dc9653f4937a68bf15d2d,,1,df0dc9653f4937a68bf15d2d
岳各庄派出所,39.87606,116.282764,北京市丰台区丰体北路甲10号,63ccde97cb19251429fc488b,"(010)63813316,(010)63813317,(010)63821569",1,63ccde97cb19251429fc488b
卢沟桥街道民岳家园社区来京人员和出租房屋服务站,39.885065,116.278303,北京市丰台区梅市口路民岳家园小区物业一层,da8487e282985c00a8059d6a,(010)83658795,1,da8487e282985c00a8059d6a
卢沟桥乡小瓦窑村来京人员和出租房屋服务站,39.89975,116.252823,北京市石景山区吴家村路9号北京玉泉物业管理中心,,(010)88602128,1,1474ec34b2d945830b1cc7d3
丰台区城市管理综合行政执法监察局直属一执法队,39.876783,116.269946,北京市丰台区小屯双楼甲一号宛平环卫所附近,a592c20ad5416879b54f541f,,1,a592c20ad5416879b54f541f
北京市公安局丰台分局青塔派出所青塔东里社区警务工作室,39.901933,116.276104,南沙窝桥与莲石东路交叉口南200米,757a71051cb89c8e95f08c13,,1,757a71051cb89c8e95f08c13
北京市第一中级人民法院第三审判区,39.894926,116.246559,北京市丰台区吴家村路,8e80cc6e1c36205e3ce23174,,1,8e80cc6e1c36205e3ce23174
车辆管理所京丰分所,39.877484,116.247871,北京市丰台区双林南路新丰考试场南门对面,da879b8170bceb2641d63ea1,,1,da879b8170bceb2641d63ea1
北重西厂-社区警务工作站,39.898833,116.234081,重兴园路西150米,ae0b18017331087dab059dd6,,1,ae0b18017331087dab059dd6
万寿路街道万寿路8号社区来京人员和出租房屋服务站,39.918859,116.296643,北京市海淀区万寿路8号院活动中心2层,,,1,3b40278632a52d69d4851f4e
九街坊社区警务工作站,39.920871,116.279742,北京市海淀区五棵松,65c296b95b610e7d4154d776,,1,65c296b95b610e7d4154d776
八宝山街道流动人口和出租房屋管理委员会办公室,39.906945,116.24005,永乐小区65号楼,9886de8a96a267b1f5c59c27,,1,9886de8a96a267b1f5c59c27
北京市公安局海淀分局田村派出所玉海园一里社区消防警务工作站,39.928619,116.262432,田村路街道玉海园一里5号楼105号玉海园一里社区居委会附近,,,1,3c7d3f805793e50b1d389470
六街坊西社区居委会-外来人口管理站,39.914625,116.276131,复兴路79号,c8d290152e9c07f46ca3cc61,,1,c8d290152e9c07f46ca3cc61
八宝山街道三山园社区来京人员和出租房屋服务站,39.908412,116.237915,北京市石景山区八宝山街道三山园居委会,,,1,b5b97acb08af72f114b54b4a
田村路街道玉海园五里社区来京人员和出租房屋服务站,39.927572,116.264879,北京市海淀区田村采石路1号院玉海园五里12号楼2单元003号,afc5807f363f717f8605bfba,(010)88280837,1,afc5807f363f717f8605bfba
复兴路32号院社区居委会-流动人口管理站,39.911974,116.277711,五棵松地铁站D1西南口西150米,a474bdc3dc6b4cd4b020a87a,,1,a474bdc3dc6b4cd4b020a87a
北京市公安局石景山分局八宝山派出所三山园社区警务工作室,39.908388,116.237962,北京市石景山区鲁谷路114号,dde3ad799fbaf716095cb327,(010)68659008,1,dde3ad799fbaf716095cb327
北京市公安局石景山分局巡警支队玉泉路地区巡逻警务站,39.913276,116.258021,复兴路42号超市发前,0b181247cde4b0d32e4733ca,,1,0b181247cde4b0d32e4733ca
北京市公安局石景山分局老山派出所玉泉西路社区警务工作室,39.920693,116.253837,玉泉西街1东门附近,03054fbb4d94727ef5c59c10,,1,03054fbb4d94727ef5c59c10
永定路派出所(三街坊西社区),39.91903,116.259789,北京市石景山区正大路附近,61958f1aadb868142b201a8f,,1,61958f1aadb868142b201a8f
北京市公安局石景山分局八宝山派出所玉泉西里二区北警务工作室,39.90908,116.248661,雕塑园南街与鲁谷路交叉口西南150米,516ad6b00062f15e88f15d67,,1,516ad6b00062f15e88f15d67
北京市公安局海淀分局永定路派出所铁家坟东社区警务工作室,39.914172,116.274131,复兴路81号附近,407a98e70169f848b35c6a93,,1,407a98e70169f848b35c6a93
岳各庄派出所小井五队警务工作室,39.886287,116.296031,小井村,b8686bf90a6848dfa11de9c6,,1,b8686bf90a6848dfa11de9c6
北京市公安局特警总队丰台大队,39.893478,116.283876,卢沟桥靛厂村乙397号,,,1,b50c77eaf38bee98d12dd6ab
岳各庄派出所户籍室,39.876163,116.282957,北京市丰台区丰体北路甲10号,,(010)63821569,1,1748e9457b5d74e7d7851f20
卢沟桥街道蔚园社区来京人员和出租房屋服务站,39.90155,116.269842,北京市丰台区大成里蔚园12号楼东侧平房,,(010)68671324,1,2d45990d78e25bef9cf7799c
青塔派出所,39.898743,116.269151,北京市丰台区大成里秀园13号楼,e6080251bfe187eab33c8181,"(010)68678248,(010)68671243",1,e6080251bfe187eab33c8181
鲁谷街道西厂社区来京人员和出租房屋服务站,39.899577,116.234465,北京市石景山区重兴园路10号楼对面平房,,(010)68683321,1,42be0d87d11502932d4733dc
京汉·旭城-社区警务工作站,39.89629,116.23308,北京市石景山区重兴园路西50米,88f66fec9d7098e909a8d45a,,1,88f66fec9d7098e909a8d45a
九街坊社区-来京人员出租房屋服务站,39.920764,116.279828,北京市海淀区西四环中路与西四环中路出口交叉口西100米,7203355cfbfe0d6ee315f957,,1,7203355cfbfe0d6ee315f957
治安联防永定路地区值班室,39.923579,116.279931,北京市海淀区金沟河路2号,d306e2c34ef2c90e5a3ac86e,,1,d306e2c34ef2c90e5a3ac86e
北京市公安局海淀分局万寿路派出所万寿路一号院社区警务工作室,39.924888,116.293091,北京市海淀区万寿路一号院21号楼地下室,e9c397ef99b4b934b1077de7,(010)68217251,1,e9c397ef99b4b934b1077de7
永定路街道二街坊东来京人员和出租房屋服务站,39.914775,116.277534,北京市海淀区复兴路79号626楼北侧平房,,(010)88526762,1,7422ef8fe2aa182e932ca3bf
北京市公安局海淀分局永定路派出所二街坊西社区警务工作室,39.919231,116.266682,正大路与采石北路交叉口东北50米,,,1,4e807eba0c1966f19f09f76e
永定路街道三街坊东来京人员和出租房屋服务站,39.914792,116.277368,北京市海淀区复兴路79号626楼北侧平房,,(010)88526762,1,d14074853f5f1528081cc7f2
复兴路32号社区-出租房屋管理站,39.913216,116.278457,复兴路30-6附近,af291bded46bb05709a8d464,,1,af291bded46bb05709a8d464
何家坟社区警务工作室,39.914698,116.252069,玉泉西街与石景山路交叉口北150米,8d16bad0b1d5adc194031931,,1,8d16bad0b1d5adc194031931
永定路六街坊西社区警务工作站,39.914625,116.276131,复兴路79号,b2d528c8dc96e3bec26c146b,,1,b2d528c8dc96e3bec26c146b
何家坟社区居委会外来人口管理站,39.914493,116.25194,北京市石景山区将台路32号附近,41f19a6074e265d9b64f5427,,1,41f19a6074e265d9b64f5427
田村派出所(阜石路第二社区警务工作室),39.927072,116.270898,永定路17号院田村派出所,e2734b626b5cfe66eaf85336,,1,e2734b626b5cfe66eaf85336
泽丰苑-警务室,39.925781,116.26666,北京市海淀区采石路8号院,f03c2a62c60d6d826849f33f,,1,f03c2a62c60d6d826849f33f
北京市公安局海淀分局田村派出所玉海园五里社区警务工作室,39.927572,116.265061,采石北路1号玉海园附近,71a892504025700a9703198a,,1,71a892504025700a9703198a
北京市公安局石景山分局老山派出所研究生院社区警务工作室,39.920877,116.258924,玉泉路西50米,8859dcc7f4e57868cd04efa9,,1,8859dcc7f4e57868cd04efa9
北京市公安局海淀分局永定路派出所永定路社区警务工作室,39.909502,116.271581,北太平路与永定路交叉口东南100米,e11123b53698fe91f423103f,,1,e11123b53698fe91f423103f
北京市公安局海淀分局永定路派出所巡逻警务站,39.913074,116.261493,北京市海淀区玉泉路麦当劳旁,9e8cd63b81c0185852e5c53e,(010)68171782,1,9e8cd63b81c0185852e5c53e
北京市公安局海淀分局永定路派出所,39.906212,116.272452,北京市海淀区太平路44号院,f20f7035b360b5ee6f476027,,1,f20f7035b360b5ee6f476027
永定路派出所居民身份证办理,39.918297,116.279132,五棵松12号,baf488bf33ead4322fb90823,(010)82588496,1,baf488bf33ead4322fb90823
永定路派出所,39.918404,116.279096,北京市海淀区西四环中路43号,41572e0050f309b4b55f1eb6,(010)68272005,1,41572e0050f309b4b55f1eb6
老山街道东里社区民兵连连部,39.914021,116.233019,北京市石景山区老山街道老山东里5号石景山区老山街道楼东侧健身园内老山街道东里社区居委会附近,300e7156b20d795bcae33c2e,,1,300e7156b20d795bcae33c2e
北京市公安局石景山分局鲁谷派出所五芳园社区警务工作室,39.904503,116.232271,鲁谷南路5,26b174d892bc15e8acee7aa5,,1,26b174d892bc15e8acee7aa5
靛厂村来京人员出租房屋服务站,39.890651,116.292017,北京市丰台区郑常庄靛厂村214号东北方向195米,d608dfde3cfb97de00ff2d28,,1,d608dfde3cfb97de00ff2d28
小井五队民调室,39.886135,116.296001,北京市丰台区G4辅路,3b7dd579c37c8ec14051c096,,1,3b7dd579c37c8ec14051c096
卢沟桥街道京铁家园社区来京人员和出租房屋服务站,39.899797,116.285498,北京市丰台区西翠路京铁家园二区8号楼二层,,(010)51806369,1,5bec4372f1fd8f91b23c8121
卢沟桥乡郑常庄村来京人员出租房屋服务站,39.890833,116.275409,天安街8号附近,121db1500e14e77ceedfcaec,,1,121db1500e14e77ceedfcaec
卢沟桥街道芳园社区来京人员和出租房屋服务站,39.898114,116.265096,北京市丰台区青塔五街大成里芳园19号楼东侧平房,,(010)68671524,1,ef7a4a2e79ef0af1d618b767
北京市公安局铁道建筑公安局,39.89528,116.25324,丰台区吴家村路1号,221ed31010f56ca0adb22a74,,1,221ed31010f56ca0adb22a74
北京市公安局丰台分局岳各庄派出所(碾子坟社区警务站),39.880971,116.27873,碾子坟301号岳各庄综合治理办公室附近,d76dc74fb91e76a8accb666c,,1,d76dc74fb91e76a8accb666c
卢沟桥乡小屯村来京人员和出租房屋服务站,39.88543,116.266062,北京市丰台区大屯村联防队院内,95ef379f8314f1fc59bbbc1d,(010)63775295,1,95ef379f8314f1fc59bbbc1d
北京市公安局轨道建设安全保卫分局,39.895203,116.253566,吴家村路1号,dc98b7dfc68f543bd12dd6b6,,1,dc98b7dfc68f543bd12dd6b6
京汉·旭城社区-外来人口管理站,39.896286,116.233089,北京市石景山区重兴园路西50米,3507ce2060d4c7301c1d115d,,1,3507ce2060d4c7301c1d115d
西厂西社区居委会外来人口管理站,39.899093,116.234795,重兴园路西150米,26ad668e5740a4fea8175a3a,,1,26ad668e5740a4fea8175a3a
公安部信息安全等级保护评估中心,39.930181,116.292989,北京市海淀区阜成路58号新洲商务大厦7层,d1e310c215dd8d65c61e51ab,,1,d1e310c215dd8d65c61e51ab
北京市公安局海淀分局永定路派出所九街坊社区警务团队工作室,39.920785,116.279692,金沟河路2号附近,28e555b5abd1062975e5b6a3,,1,28e555b5abd1062975e5b6a3
永定路派出所治安志愿者休息室,39.914089,116.274509,复兴路81号附近,,,1,76dc84c27ec2784702ec01d9
北京市公安局海淀分局永定路派出所三街坊中社区警务团队工作室,39.918943,116.266076,正大路与采石北路交叉口西50米,33cbff23f7978b16911fc956,,1,33cbff23f7978b16911fc956
北京市公安局海淀分局永定路派出所一街坊社区警务工作室,39.91901,116.271545,正大路与永定路交叉口东50米,b526156b656e7234e856faa1,,1,8295f22bcb1e150d8936ee9c
北京市公安局石景山分局八宝山派出所四季园社区警务工作室,39.904903,116.241675,鲁谷东街27号附近,5ad4f2ef6b2f72d9ad080f1e,,1,5ad4f2ef6b2f72d9ad080f1e
海淀区公安消防支队采石路中队(西门),39.92856,116.266626,采石北路2号附近,4313a29fad066ef33de2315e,,1,4313a29fad066ef33de2315e
北京市公安局公安交通管理局石景山交通支队北辛安大队-东门,39.918758,116.251646,北辛安和平街31号,4caa98e333f4981da1046477,,1,4caa98e333f4981da1046477
停车场(岳各庄派出所东北),39.876798,116.285503,北京市丰台区+西四环南路19号,a3c78d270dcef3cc9868b47c,,1,a3c78d270dcef3cc9868b47c
北京市公安局丰台分局卢沟桥派出所丰仪家园社区警务工作室,39.880194,116.235833,张仪村路133号附近,b47d76a932841c33ed74f88c,,1,b47d76a932841c33ed74f88c
北京市公安局石景山分局八宝山派出所永东南社区警务工作室,39.90538,116.237926,鲁谷大街35号附近,f5a6e59c59277a203010aff9,,1,f5a6e59c59277a203010aff9
北京市公安局海淀分局永定路派出所三街坊东社区警务工作室,39.918943,116.266076,北京市海淀区玉泉路16号院南70米,0b4c317df554473fbda2403f,,1,0b4c317df554473fbda2403f
永定路派出所治安志愿者巡逻队,39.914089,116.274517,复兴路81号附近,,,1,3bda80c29760bf267bf7967e
北京市公安局海淀分局田村派出所永金里社区警务团队工作室,39.927328,116.278659,五棵松路81号附近,cedcc9a4ad10240a88b9887d,,1,cedcc9a4ad10240a88b9887d
北京市公安局石景山分局八宝山派出所瑞达社区警务工作室,39.911045,116.249869,雕塑园中街与鲁谷路交叉口北150米,1aa04eacb8d772552e47331f,,1,1aa04eacb8d772552e47331f
北京市公安局石景山街道八宝山派出所电科院社区警务工作室,39.911557,116.251926,玉泉西街与石景山路交叉口南200米,,,1,f4e2de07b9a1aa3c631c678d
北京市公安局海淀分局田村派出所金沟河社区警务工作室,39.92722,116.275445,北京市海淀区金沟河路3号院-12号楼北90米,4aeea3a38f6a5fe8a21de938,,1,4aeea3a38f6a5fe8a21de938
北京市公安局海淀分局田村派出所阜石路第一社区警务工作室,39.931222,116.270085,阜石路13号附近,40d96a32b87ecbdbc61b757f,,1,40d96a32b87ecbdbc61b757f
北京市公安局丰台分局巡警支队-东门,39.893467,116.283954,北京市丰台区水衙沟路,,,1,8cc8d07452d13124a1046421
永定路派出所警务工作室,39.917019,116.270926,北京市海淀区永定路69号附近,435f8e9788a8f9b5d518b7c6,,1,435f8e9788a8f9b5d518b7c6
北京市公安局海淀分局田村派出所玉阜嘉园社区警务团队工作室,39.929992,116.2603,北京市海淀区田村山南路玉阜嘉园,75bd7d7274768979fea7780c,,1,75bd7d7274768979fea7780c
永定路派出所-北门,39.91858,116.279295,西四环中路43号号附近,470e2731a99d599a49fd3f56,,1,470e2731a99d599a49fd3f56
岳各庄派出所寻访工作站-东南门,39.88621,116.2961,北京市丰台区G4京港澳高速与G4京港澳高速入口交叉口北150米岳各庄派出所小井五队民调室附近,bfad3b32c6f2862e213bf25c,,1,bfad3b32c6f2862e213bf25c
北京市公安局丰台分局岳各庄派出所-东北门,39.876019,116.283059,丰体北路甲10号,4a285699c047c11f88fc0610,,1,4a285699c047c11f88fc0610
北京市公安局轨道建设安全保卫分局-北门,39.895353,116.253171,吴家村路1号,4fec39674ffbeeca3686f47c,,1,4fec39674ffbeeca3686f47c
彩电社区居委会-外来人口管理站,39.916676,116.325776,玉渊潭南路8号附近,e385a31602ae6581430245d4,,1,e385a31602ae6581430245d4
展览路街道万明园社区来京人员和出租房屋服务站,39.926366,116.360882,北京市西城区南礼士路万明园小区7号楼2单元104号,e874a41380fc10f1100daa72,,1,e874a41380fc10f1100daa72
月坛街道三里河三区一社区来京人员和出租房屋服务站,39.917236,116.345065,北京市西城区三里河三区南七巷一号院一号楼东侧警务室,,(010)68583132,1,6f62a1a80bf0f3ab9d95de90
"铁二,二社区警务工作站",39.914995,116.353361,铁二、二社区老干部党校课堂附近,be72f7e95045dc1042e1928b,,1,be72f7e95045dc1042e1928b
万明园社区居委会-外来人口管理站,39.926422,116.360895,南礼士路与南营房交叉口东南200米,94416b673bf09b0cb05c6aba,,1,94416b673bf09b0cb05c6aba
铁东社区警务工作站(室),39.907024,116.336818,北蜂窝路22号院6号楼下平房,98ccf22f39b8b8bd30621233,,1,98ccf22f39b8b8bd30621233
月坛街道三里河社区来京人员和出租房屋服务站,39.921189,116.345162,北京市西城区三里河北街5号院西平房,,(010)68571044,1,a97aef12c0dc71aa2dfaa7ea
复兴门外社区外来人口管理工作站,39.91194,116.355222,复兴门外大街6,68ee170f5fb53e37354aaebd,,1,68ee170f5fb53e37354aaebd
北京市公安局西城分局月坛派出所巡逻警务站,39.913395,116.343585,北京市西城区复兴门外大街21-23号,,(010)68026943,1,44b2e7b6670169d24251c074
玉南路9号社区来京人员出租房屋服务站,39.916922,116.334902,北京市海淀区玉渊潭南路9号院,46f109475e10e72b26d2bb23,(010)68538179,1,46f109475e10e72b26d2bb23
北京市公安局海淀分局羊坊店派出所玉渊潭南路9号院社区警务团队工作室,39.916897,116.334819,晾果厂与茂林居西路交叉口西北100米,73203ed995239b9aa11de968,,1,73203ed995239b9aa11de968
海淀区城市管理综合行政执法监察局甘家口街道执法队,39.926567,116.324087,北京市海淀区航天机关幼儿园(玉渊潭公园西),3e23234562ec60409122e0e3,,1,3e23234562ec60409122e0e3
月坛街道三里河一区来京人员和出租房屋服务站,39.921111,116.349161,北京市西城区三里河东路三里河一区3号院5号楼半地下居委会,,,1,bbc7818cb3dec619f8221384
月坛社区外来人口管理工作站,39.92388,116.357354,月坛北街8号,7e26f9898a961eee6b49f3fd,,1,7e26f9898a961eee6b49f3fd
北京市公安局海淀分局羊坊店派出所世纪坛巡逻警务站,39.916952,116.328983,北京市海淀区中华世纪坛世界艺术馆东50米,fea28397a836a9b5ece4a5b0,,1,fea28397a836a9b5ece4a5b0
北京市公安局海淀分局羊坊店派出所三住宅社区警务工作室,39.903926,116.338338,莲花池东路9号院,1ee834e0a9c6fa103486f480,,1,1ee834e0a9c6fa103486f480
月坛街道木樨地社区警务工作站,39.911918,116.34526,木樨地北里甲2号,8173423b3ac91b0abd4842b5,,1,8173423b3ac91b0abd4842b5
北京市公安局西城分局阜外派出所万明园社区警务工作室,39.926143,116.36151,南礼士路32号附近,937108bd8b2ec553a8175a41,,1,937108bd8b2ec553a8175a41
海淀公安分局羊坊店派出所户政大厅,39.908883,116.335958,北京市海淀区国家发展和改革委员会会城门西区,,,1,44239dcd1eea613895ec84a9
展览路街道黄瓜园社区来京人员和出租房屋服务站,39.929365,116.344132,北京市西城区阜外大街甲41号富城大厦一层,,(010)68327611,1,f2e84b33b24693be8bb988b9
北京市公安局西城分局广内派出所西便门西里社区警务工作室,39.905033,116.356493,广安门北滨河路与莲花池东路交叉口东北50米,ee90fb936d34d03e6f476092,,1,ee90fb936d34d03e6f476092
铁四社区警务工作室,39.910139,116.358885,西便门外大街3号楼附近,cade60626db56ae35e17c3ab,,1,cade60626db56ae35e17c3ab
北京市公安局西城分局阜外派出所北营房西里社区警务工作室,39.930273,116.3526,阜成门北大街203号,fd992c8f76d096e83110afbd,(010)68352653,1,fd992c8f76d096e83110afbd
铁路公安局,39.912817,116.333271,北京市海淀区复兴路10号,e12e21ac7de1fb5094ec8474,,1,e12e21ac7de1fb5094ec8474
中国海警局,39.913469,116.360926,北京市西城区复兴门外大街1号,b671d4ee18cce7129cf779c1,(010)68033988,1,b671d4ee18cce7129cf779c1
羊坊店派出所,39.909627,116.335888,北京市海淀区会城门4号楼,7175f4890834a8b5d12dd671,"(010)68515643,(010)63459110,(010)68530101",1,7175f4890834a8b5d12dd671
八里庄街道八宝庄社区来京人员和出租房屋服务站,39.928316,116.299047,北京市海淀区八里庄街道阜成路八宝庄9号楼4门102号,,(010)88504754,1,3e22d5aaae7b1401f6c59cd5
万寿路甲十五号院警务室,39.924778,116.301405,万寿路甲15号院附近,,,1,423529ca7e55c49aaaf0cd09
羊坊店街道普惠寺社区来京人员和出租房屋服务站,39.917468,116.314273,北京市海淀区普惠南里21号楼东侧,,(010)68223570,1,42a8d8f94d30f52bf82d61ae
翠微南里社区警务工作室,39.918958,116.304863,北京市海淀区玉渊潭南路附近,e2dea08ec2457439bbbd638d,(010)68189819,1,e2dea08ec2457439bbbd638d
翠微中里社区居委会-外来人口管理站,39.920358,116.305771,万寿路工商所附近,b653cad60b25f480e70738ba,,1,b653cad60b25f480e70738ba
万寿路街道翠微中里社区来京人员和出租房屋服务站,39.920333,116.305824,北京市海淀区万寿路翠微中里甲4号楼,ff6d67a73f49c5d194ec8491,,1,ff6d67a73f49c5d194ec8491
八宝庄社区居委会-警务工作站,39.928053,116.299124,中国物业管理协会培训中心附近,c2c14eba43c360e996ca0728,,1,c2c14eba43c360e996ca0728
公安局海淀分局羊坊店派出所颐源居社区警务工作室,39.921886,116.310842,北京市海淀区翠微路乙4号附近,84042460787a9515c41b75b7,,1,84042460787a9515c41b75b7
万寿路派出所驻区社区民警警务工作站,39.916741,116.302676,万寿路12号院附近,51b05736a6c54f4f6f3e1b32,,1,51b05736a6c54f4f6f3e1b32
北京市公安局海淀分局万寿路派出所翠微北里社区警务工作室,39.922868,116.305874,北京市海淀区翠微路翠微北里小区附近,4e2bd1096ce33072611c6754,,1,4e2bd1096ce33072611c6754
万寿路街道翠微南里社区来京人员和出租房屋服务站,39.91882,116.304124,北京市海淀区玉渊潭南路翠微南里23号楼居委会,,,1,13c58f6bfa591bfd1ce999f5
北京市公安局海淀分局甘家口派出所西钓社区警务工作室,39.926875,116.310736,北京市海淀区阜成路,f19d84b861fbb692df1e523c,,1,d3d48fa434aebb06b320a887
北京市公安局海淀分局万寿路派出所万寿路社区警务工作室,39.914054,116.306123,北京市海淀区复兴路甲49号院南二门,6b0feeeeb7f04ed8593ac848,,1,6b0feeeeb7f04ed8593ac848
北京海淀公安分局万寿路派出所出入境受理点,39.906248,116.298405,北京市海淀区太平路丙23号万寿路派出所户籍大厅,79e64eee2a25f2a11b94c684,,1,79e64eee2a25f2a11b94c684
菜户营村来京人员出租房屋服务站,39.877636,116.3487,柳村路附近,9fb3e338af929b26ca09f024,,1,9fb3e338af929b26ca09f024
三义东里-社区警务工作室,39.893606,116.33888,马连道中街甲3号楼一层,e3b0db7cdfb03d24bca822cf,,1,e3b0db7cdfb03d24bca822cf
车站西街社区居委会流动人口管理站,39.887091,116.347791,车站西街红居南街9号院,13358b8f15912211ebe582ef,,1,13358b8f15912211ebe582ef
马连道5号院社区警务工作室,39.893333,116.332548,马连道路9-1号附近,e3ee57f3fb0d0be5ddee8bc3,,1,e3ee57f3fb0d0be5ddee8bc3
红居南街社区居民委员会流动人口管理站,39.887718,116.345914,红居南街4号附近,63fc71ae57ea3a4a4e776e9a,,1,63fc71ae57ea3a4a4e776e9a
广外派出所湾子街社区警务工作站,39.886399,116.331102,北京市西城区马连道路15号院3-8,28dde5dfba93eb9bbbbd6313,,1,28dde5dfba93eb9bbbbd6313
西城区广安门外街道荣丰社区来京人员和出租房屋服务站,39.900672,116.343424,北京市西城区广安门外大街305号八区5号楼1层,8ec7d3e44ce82821a2046486,(010)63310092,1,8ec7d3e44ce82821a2046486
太平桥街道菜户营社区来京人员和出租房屋服务站,39.876692,116.351263,北京市丰台区鹏润家园雅园西北角二层楼,b24a714c853ab2385cbe861d,(010)63356022,1,b24a714c853ab2385cbe861d
北京市公安局铁路工程公安局,39.896634,116.327096,北京市丰台区莲花池南里26号,92d8340b4b709eaf4151c058,,1,92d8340b4b709eaf4151c058
北京市公安局西城分局广外派出所红莲南里社区警务工作站,39.8858,116.342066,北京市西城区红莲中里与马连道东街交叉口南150米,,,1,8b2177543ca1dd36081cc713
石家庄公安局驻京办事处,39.877398,116.330453,北京市丰台区丽泽路61号附近,,,1,e440dfba09e6c93fb05c6a0b
北京西站-出入境联检厅,39.902008,116.326985,北京市丰台区莲花池东路118号北京西站F1,6b69989bd0e1eddaf50e77b7,,1,6b69989bd0e1eddaf50e77b7
北京市公安局丰台分局六里桥派出所-精图社区警务工作室,39.877982,116.323974,西局东南街1号,b4737598ad2c9f23a8175a08,,1,b4737598ad2c9f23a8175a08
天宁寺派出所户政大厅,39.895787,116.346913,北京市西城区广安门外大街189号,5afe07cb5e0074aaac080f84,(010)63269619,1,5afe07cb5e0074aaac080f84
丰台交通支队西站大队,39.900225,116.335216,北京市西城区南蜂窝路11号,9a9a2a40a96a2fbbc909f092,(010)63953662,1,9a9a2a40a96a2fbbc909f092
北京公安处北京铁路公安局北京西站派出所,39.901788,116.32571,北京市丰台区莲花池东路118号北京西站F1,4624b9738c48675fb5147f9f,(010)51824522,1,4624b9738c48675fb5147f9f
北京市公安局北京西站分局,39.90224,116.333028,北京市西城区莲花池东路110号,78bd50f750a95b5b31870af1,(010)63969162,1,78bd50f750a95b5b31870af1
太平桥派出所,39.889914,116.326898,北京市丰台区太平桥40号,f48844f94311ad82f82d61c4,"(010)63262312,(010)63408993",1,f48844f94311ad82f82d61c4
莲香园-社区警务工作站,39.894478,116.308932,莲宝路与莲怡园东路交叉口南200米,8e4e6cc1f38c814f5abbbc1d,,1,3dacf5f353fdce932fb96df9
羊坊店街道万丰路18号院社区来京人员和出租房屋服务站,39.894273,116.302002,北京市海淀区万丰路18号院1号楼居委会,,(010)58872149,1,d294b17888c8c6470bf5eb8d
卢沟桥街道莲怡园社区来京人员和出租房屋服务站,39.892073,116.306779,北京市丰台区莲怡园东路莲怡园一区居委会里,c6ee8f29dc00248dcafa5f5a,(010)63366110,1,c6ee8f29dc00248dcafa5f5a
北京市公安局交通安全保卫分局军博站派出所,39.892931,116.31964,北京市丰台区广安路35-1号,d298b04e368d2abd223bf2ad,,1,d298b04e368d2abd223bf2ad
吴家村路5号院社区居委会-外来人口管理站,39.896968,116.308816,莲宝路与莲怡园东路交叉口北150米,dba74c59f6edd5d4bbbd63d2,,1,dba74c59f6edd5d4bbbd63d2
六里桥北里社区租(借)房屋服务站,39.894408,116.315777,西三环中路与西三环中路入口交叉口西北150米,146cd2c3ace3f8b5bca82285,,1,146cd2c3ace3f8b5bca82285
丰台公安分局太平桥派出所巡逻警务站,39.892253,116.321285,北京市丰台区太平桥西里11号楼北京电力医院(西北门)附近,76ae45735c778f8422f017e9,(010)63262312,1,76ae45735c778f8422f017e9
北京市公安局海淀分局羊坊店派出所莲宝路警务工作站,39.895517,116.304126,莲宝路10号院12号,8cb8b02a7e103cecd8ecedbe,"(010)68530101,(010)68515646",1,8cb8b02a7e103cecd8ecedbe
太平桥街道太平桥南里社区来京人员和出租房屋服务站,39.883629,116.3221,北京市丰台区华源一里18号楼西侧,614b23b7e2fc992c3010aff2,(010)63334208,1,614b23b7e2fc992c3010aff2
北京市公安局丰台分局西局派出所小井村中心警务站,39.881367,116.304688,北京市丰台区小井路812号北京市丰台区小井村治安联防队附近,9e222a6e9902186aa1a93481,,1,11f2655355b9f07d7bf79624
北京市公安局北京西站分局巡警中队,39.901709,116.319415,北京市海淀区莲花池东路128号,ec71e07a5b2d240b93114c5e,(010)63976807,1,ec71e07a5b2d240b93114c5e
莲香园社区居委会-外来人口管理站,39.894477,116.308933,莲怡园东路14号附近,d9a72838a933483a6d20b96f,,1,d9a72838a933483a6d20b96f
丰台公安分局西局派出所出入境受理点,39.876754,116.311651,北京市丰台区西局南街99号,062c7bb8b43cb85a1df74d4a,,1,062c7bb8b43cb85a1df74d4a
北京市公安局丰台分局六里桥派出所,39.878669,116.320351,北京市丰台区西局东街甲1号,0de9fd80164c4b4188fc06b5,"(010)63464805,(010)63441424,(010)63425770",1,3a0fbba88f83bc3c9fe32190
汽车局河南社区外来人口管理工作站,39.907845,116.347705,白云路西里15号,eb9282bc256dbd5f715e8065,,1,eb9282bc256dbd5f715e8065
木樨地社区-外来人口管理工作站,39.911916,116.345262,木樨地北里甲2号,9c6ac002f3434b569e95ded1,,1,9c6ac002f3434b569e95ded1
机械公司家委会外来人口管理工作站,39.914421,116.351229,三里河东路甲14号,f43b75690987276b1fe9993c,,1,f43b75690987276b1fe9993c
乔建社区警务工作室,39.907302,116.332567,北京市海淀区会城门东路与北蜂窝西路交叉口南150米,801295a45cbfc9f235b06cb4,,1,801295a45cbfc9f235b06cb4
月坛街道月坛社区来京人员和出租房屋服务站,39.922377,116.356646,北京市西城区月坛西街东里21号院内,755af0c102041946b54f54e6,(010)68069987,1,755af0c102041946b54f54e6
海淀区羊坊店街道通信处社区来京人员和出租房屋服务站,39.903754,116.338392,北京市海淀区莲花池东路9号3塔地下室,d8558b47cf66eb74ae31e5a5,,1,d8558b47cf66eb74ae31e5a5
月坛派出所月坛社区警务工作室,39.922241,116.356705,月坛西街21号附近,2f232bc7ac67fb2e14c8f6f3,,1,2f232bc7ac67fb2e14c8f6f3
司法部司法协助交流中心,39.90432,116.358716,北京市西城区西便门西里甲16号,654c055a1252b47008ccdd39,,1,654c055a1252b47008ccdd39
北京市公安局西城分局阜外大街派出所巡逻警务站,39.929599,116.36125,北京市西城区阜成门外大街,adad96ff232e2a26f603b848,,1,adad96ff232e2a26f603b848
北京市公安局海淀分局羊坊店派出所永红社区警务室,39.910507,116.332369,北蜂窝路5号院-54单元,2d8819b26a947bd7fa0cad65,,1,2d8819b26a947bd7fa0cad65
北京市公安局西城区分局阜外派出所露园社区警务工作室,39.93118,116.350461,展览馆路31-5号附近,410e064d4bbbae5641d63e14,,1,410e064d4bbbae5641d63e14
北京市公安局西城公安分局现场组重大责任事故调查组,39.915327,116.354539,南礼士路头条7-13,6e592563bc491182b23c81e0,,1,6e592563bc491182b23c81e0
西城公安分局治安支队现场组,39.915415,116.354459,北京市西城区电研大厦(南礼士路头条北),801038f2ec001fe5ca213d04,,1,801038f2ec001fe5ca213d04
北京市公安局海淀分局甘家口派出所巡逻警务站,39.929493,116.331956,北京市海淀区阜成路甲3号,47bfae06c652e59c471a3262,,1,47bfae06c652e59c471a3262
三里河社区警务工作室,39.921206,116.345273,中古小区西门三里河北街3号院,49e07c43565f54a38c1a892d,,1,49e07c43565f54a38c1a892d
北京西城公安分局月坛派出所出入境受理点,39.919381,116.355531,北京市西城区月坛南街10号,709f60fa759921493f9a5e6b,(010)68026943,1,709f60fa759921493f9a5e6b
月坛派出所,39.919371,116.355588,北京市西城区月坛南街10号,d78378b7c25c5dbaa4c75694,"(010)68026943,(010)68021066-111",1,d78378b7c25c5dbaa4c75694
卢沟桥街道金家村第二社区来京人员和出租房屋服务站,39.902344,116.30005,北京市丰台区金家村1号院门口,c8c6b7f9136073a9dbd891d1,(010)52850460,1,c8c6b7f9136073a9dbd891d1
万寿路街道翠微西里社区来京人员和出租房屋服务站,39.923041,116.302047,北京市海淀区万寿路翠微西里活动中心1层108室,,,1,8e29a7a06f6bb9df102935ad
翠微中里-社区警务工作站,39.920361,116.30578,万寿路工商所附近,a96deaf5488eed68b45f1eb9,,1,a96deaf5488eed68b45f1eb9
羊坊店派出所巡逻警务站,39.915178,116.316155,北京市海淀区复兴路甲23号临010附近,f7297b637a23c53c631c67f3,,1,f7297b637a23c53c631c67f3
万寿路派出所翠微路2号院治安室,39.915318,116.304849,万寿路东街15号附近,57a0c557c27c852b38221c5d,,1,57a0c557c27c852b38221c5d
莲花小区-社区警务工作站,39.902627,116.311013,北京市海淀区莲花池西路莲花小区莲花苑1号楼,66e9922e822e4ce2283a9f51,,1,66e9922e822e4ce2283a9f51
万寿路甲15号社区居委会外来人口管理站,39.924778,116.301405,万寿路甲15号院五区10号,488537a910fb64a1b35c6a04,,1,488537a910fb64a1b35c6a04
万寿路派出所,39.906329,116.298205,北京市海淀区太平路丙23号,ea4a3dc9e92a18534e5547c4,(010)82588397,1,ea4a3dc9e92a18534e5547c4
太平桥街道三路居社区来京人员和出租房屋服务站,39.881132,116.342157,北京市丰台区三路居路101号院东侧平房,e87fe1acbe3067b13617dc14,(010)63287189,1,e87fe1acbe3067b13617dc14
广安门外街道车站西街社区来京人员和出租房屋服务站,39.884359,116.348303,北京市西城区车站西街17号院1号楼南侧平房,0fa6778f4d1de53edb131858,(010)63490519,1,0fa6778f4d1de53edb131858
马连道中里社区居委会流动人口管理站,39.893679,116.33845,马连道中街与马连道北街交叉口西50米,00aaf3d0b63bc5a03913fd8e,,1,00aaf3d0b63bc5a03913fd8e
菜户营联防队,39.87765,116.348718,柳村路附近,8dc811cee5af95ac3fe23144,,1,8dc811cee5af95ac3fe23144
北京市糖业烟酒公司房屋管理站,39.889592,116.35254,椿树馆街35号,82de6dd199cdab89abf0cd0b,,1,82de6dd199cdab89abf0cd0b
广安门外街道马连道社区来京人员和出租房屋服务站,39.894157,116.332069,北京市西城区马连道路5号院北平房,,(010)63463845,1,97e5e7ad5e1772886d20b965
天宁寺派出所巡逻警务站,39.879443,116.353663,菜户营西街与鸭子桥路交叉口西南50米,8c9fadc0af3da625f60e7712,,1,8c9fadc0af3da625f60e7712
卢沟桥乡马连道村来京人员和出租房屋服务站,39.879298,116.335445,北京市丰台区三路居路马连道欣园小区马连道综合治理办公室院平房内,1965eceb0cd201d0095cb36e,(010)63407387,1,1965eceb0cd201d0095cb36e
北京市公安局西城分局天宁寺派出所白菜湾社区警务工作室,39.892653,116.35247,车站东街甲6,953814181f455d63f5b91611,,1,953814181f455d63f5b91611
鸭子桥社区警务工作室,39.879878,116.351295,鸭子桥路甲47号附近,89c8a6e74646f7abb6147f36,(010)63401010,1,89c8a6e74646f7abb6147f36
广外派出所小红庙社区警务工作站,39.887692,116.345717,北京市第六十六中学附近,22572d037a47bfbdb01e36f4,,1,22572d037a47bfbdb01e36f4
红居街社区警务工作站,39.892077,116.346165,红居街4号附近,11d7ff22dffc1111d2f49ea5,,1,11d7ff22dffc1111d2f49ea5
广外街道小马厂社区来京人员出租房屋服务站,39.900598,116.347357,小马厂路1-4附近,4ae000f0d8381d38c9fa5fac,,1,4ae000f0d8381d38c9fa5fac
槐柏村街北里警务工作站,39.902,116.361078,槐柏树街北里槐柏树街北里4-楼号附近,f41c28356c766f2ef02d837b,,1,f41c28356c766f2ef02d837b
车站西街社区警务工作站,39.8871,116.347803,车站西街9号院,cde660e754bda8b68e55ecbf,,1,cde660e754bda8b68e55ecbf
广安门外街道车站西街15号院社区来京人员和出租房屋服务站,39.884209,116.343739,北京市西城区车站西街15号院9号楼西侧平房,ec817a9bddfa9fb69d95de1f,(010)63263017,1,ec817a9bddfa9fb69d95de1f
北京铁路公安局北京公安处北京西车站-公安段,39.901517,116.325736,"北京市丰台区莲花池东路118-18号(北广场西停车场,华夏明珠宾馆)",17fc1db08927e2c20b1cc7e1,(010)51824581,1,17fc1db08927e2c20b1cc7e1
太平桥派出所户籍室,39.889854,116.326858,北京市丰台区太平桥40号,d09b66abd3182ebb21022029,(010)63408993,1,d09b66abd3182ebb21022029
北京市公安局西城分局广安门外派出所马连道街巡逻警务站,39.887806,116.332966,北京市西城区广安门外街道马连道街挨着家乐福超市,a9fad6dcc8d8d0bb29fc48ba,(010)63360000,1,a9fad6dcc8d8d0bb29fc48ba
北京市公安局西城分局广外派出所红莲北里社区警务工作站,39.891077,116.341241,红莲中里与马连道南街交叉口西北100米,26f26a210ac08a9a471a3212,,1,26f26a210ac08a9a471a3212
北京市公安局西城分局广外派出所车站西街社区警务工作站,39.884519,116.348392,广安门车站西街32号附近,1f5e419863b85737b23c81a7,,1,1f5e419863b85737b23c81a7
北京市公安局西城分局广外派出所朗琴园社区警务工作站,39.891709,116.348466,二巷与手帕口西二巷交叉口东北100米,a6ed55e57a2aa4d3940319e7,,1,a6ed55e57a2aa4d3940319e7
西城交通支队南区执法站,39.882507,116.344469,红莲南里33号,ef30c3a338e4d7bed7851fe7,,1,ef30c3a338e4d7bed7851fe7
天宁寺派出所,39.895785,116.347089,北京市西城区广安门外大街189号,64bb843a8118d67340e19277,"(010)63401010,(010)63268830,(010)63311331",1,64bb843a8118d67340e19277
太平桥街道太平桥西里社区来京人员和出租房屋服务站,39.889259,116.318239,北京市丰台区西三环南路太平桥西里25号楼,62040d4b34c46244d0ff2373,(010)63487918,1,62040d4b34c46244d0ff2373
太平桥街道城市秩序百日整治综合执法办公室,39.891727,116.320444,北京市丰台区六里桥东地铁站D西南口西南100米,3ec9c23372cd9d915e17c3b7,,1,3ec9c23372cd9d915e17c3b7
精图社区-来京人员出租房屋服务站,39.879864,116.321398,丽源路56号院7,7e668b281c79f3e9c9c3dbf1,,1,7e668b281c79f3e9c9c3dbf1
六里桥派出所巡防队,39.888935,116.316361,西三环南路辅路附近,fd50548447ba5dddda2f28f3,,1,fd50548447ba5dddda2f28f3
吴家场铁路5号院社区-治安岗亭,39.896975,116.308816,莲宝路与莲怡园东路交叉口北150米,4bd19a3642077b9eb5f42f67,,1,4bd19a3642077b9eb5f42f67
北京市公安局丰台分局西局派出所巡逻警务站,39.887094,116.316559,北京市丰台区西三环南路辅路,de1ffec67ff3589945e27424,,1,de1ffec67ff3589945e27424
西局派出所,39.876721,116.311774,北京市丰台区西局南街99号,4391cf9e47e2680251e5c533,"(010)83639501,(010)83639391,(010)83639351",1,4391cf9e47e2680251e5c533
羊坊店社区警务工作站,39.907783,116.330809,会城门东路与羊坊店东路交叉口西南100米,3618c06c6bb30e977f29bd86,,1,3618c06c6bb30e977f29bd86
铁路公安局机关派出所,39.912623,116.336524,复兴路6号,,,1,5281d211c70248d4c91b9586
玉南路9号社区居民委员会外来人口管理站,39.916897,116.334819,玉渊潭南路9号晾果厂小区(南一门)附近,0cc8400224ce074ca2d23011,,1,0cc8400224ce074ca2d23011
展览路街道洪茂沟社区来京人员和出租房屋服务站,39.924246,116.348643,北京市西城区月坛北街17号楼平房洪茂沟居委会,49a1134db9f377a7b6f42f25,,1,49a1134db9f377a7b6f42f25
南沙社区警务工作室,39.923641,116.342969,北京市西城区南沙沟小区北门(玉渊潭公园东),ff7c0e2ea1fda29d17948ee9,,1,ff7c0e2ea1fda29d17948ee9
玉渊潭公园-治安亭,39.925053,116.324597,北京市海淀区西三环中路10号玉渊潭公园内,6a644dfe1bc62cb8cc06a49f,,1,6a644dfe1bc62cb8cc06a49f
羊坊店派出所彩电社区警务工作站,39.916676,116.325785,玉渊潭南路8号附近,fca2663a3ab66c24ca09f037,,1,fca2663a3ab66c24ca09f037
月坛街道社会路社区来京人员和出租房屋服务站,39.922013,116.354038,北京市西城区月坛南街小四道口1号楼4单元101号,,(010)68020899,1,91d3d03e7f8b7d02da2f2855
月坛街道公安社区来京人员和出租房屋服务站,39.908,116.346852,北京市西城区木樨地南里1号东小区新楼一层警务工作室,,(010)63268678,1,f758370d0c5dc701f33cba9a
复北社区警务工作室,39.915507,116.360845,南礼士路甲62号附近,9ea9452d2e951fa38e7727e6,,1,9ea9452d2e951fa38e7727e6
社区警务工作室,39.909526,116.340887,北京市海淀区会城门东路2号,b7a4798ae48a9749b05c6a1d,,1,b7a4798ae48a9749b05c6a1d
甘家口社区居委会外来人口管理站,39.931427,116.335165,阜成路167号附近,ad9667b2cdcc738cc5effb06,,1,ad9667b2cdcc738cc5effb06
复兴门外社区警务工作室,39.911861,116.355577,复兴门外大街6号,fddb3cf504e9c026631c6717,,1,fddb3cf504e9c026631c6717
北京市公安局西城分局广内派出所西便门东里警务站,39.905475,116.361617,复兴门南大街与宣武门西大街交叉口西150米,d91d6d03901c06a23913fd20,,1,d91d6d03901c06a23913fd20
北京市公安局西城分局阜外派出所洪茂沟警务工作站,39.92443,116.34804,月坛北街17号楼附近,7bd8fe3af69b59e8471a329f,,1,7bd8fe3af69b59e8471a329f
北京市公安局海淀分局玉渊潭派出所,39.921609,116.335254,北京市海淀区玉渊潭公园内,82b1b6a2f4e64e95260bd0fb,(010)68514850,1,82b1b6a2f4e64e95260bd0fb
北京市规划委员会西办公区,39.918363,116.352357,北京市西城区二七剧场路5号,4e4a6b14100640952bd7abcc,(010)66134716,1,4e4a6b14100640952bd7abcc
军博站派出所,39.912717,116.329952,复兴路12-6号,443fd10444c170567369d37a,(010)68527458,1,443fd10444c170567369d37a
北京市公安局海淀分局甘家口派出所西附北社区警务工作室,39.929594,116.335394,阜成路28号院附近,694199685214c2ca8505bf27,,1,694199685214c2ca8505bf27
西城分局出入境证件月坛受理点,39.919384,116.355534,北京市西城区月坛南街10号,264df41813f47be8eee4a597,(010)68033038,1,264df41813f47be8eee4a597
八宝庄社区居委会-外来人口出租房屋管理站,39.928049,116.299115,中国物业管理协会培训中心附近,f4f8c25a58eead76d5851f60,,1,f4f8c25a58eead76d5851f60
金家村第二社区居民委员会-外来人口管理站,39.902366,116.300102,金家村1号院8号,5c62f6c444bdbbcb5b1093d1,,1,5c62f6c444bdbbcb5b1093d1
阜南社区警务工作室,39.927248,116.318517,西三环中路122号附近,7c1b73040768b9daf4b916cf,,1,7c1b73040768b9daf4b916cf
复兴路61号社区警务工作室,39.915728,116.297578,北京市海淀区复兴路61号恒欣商务大厦A座1层,977c6d4936fd6c8cf4eafcf1,,1,977c6d4936fd6c8cf4eafcf1
万寿路街道万寿路甲15号社区来京人员和出租房屋服务站,39.924646,116.300939,北京市海淀区万寿路甲十五号五区10号楼警务室内,,,1,14b38f816f3214ef88f15dae
海淀交通支队公主坟大队,39.914387,116.312498,北京市海淀区复兴路29翠微广场A座,babe607ae15d2bdd9fec2b1b,(010)68399641,1,81c546d1b3ac062f2fe67bc6
广安门外街道湾子街社区来京人员和出租房屋服务站,39.88644,116.331153,北京市西城区茶源路马连道路15号院3-8号,,(010)52697362,1,c763aec8e4f9bf5f95ec848d
白菜湾社区居民委员会-流动人口管理站,39.892645,116.352477,车站东街甲6,e570340423b2b6334657260a,,1,e570340423b2b6334657260a
菜园街社区警务工作,39.887384,116.361844,崇效胡同18号附近,3484acc54d6e37c8ae045701,,1,3484acc54d6e37c8ae045701
牛街街道菜园北里社区来京人员和出租房屋服务站,39.890594,116.358337,北京市西城区菜园北里21号楼旁边(菜北社区警务站),,(010)83998610,1,0c56eef1e822acc240ab9a45
马连道村综合治理治安岗亭,39.880678,116.334656,北京市丰台区马连道路30附近,,,1,cc86c54577131ac7a9f7298c
广安门外街道红莲南里社区来京人员和出租房屋服务站,39.885638,116.341978,北京市西城区红莲南里6号楼东侧平房,fede8add2bc65d6d15a190f0,(010)63325344,1,fede8add2bc65d6d15a190f0
牛街街道南线阁社区来京人员和出租房屋服务站,39.891705,116.358473,北京市西城区南线里4号楼一层,9563e451f52bddc02b11d198,(010)83998593,1,9563e451f52bddc02b11d198
丰台公安分局暂住办公室,39.889798,116.326737,西客站南路23号,f897d91d54a96fe2616858f8,,1,f897d91d54a96fe2616858f8
三义东里社区居委会-流动人口管理站,39.89305,116.339142,马连道中街18号附近,10f6b99f83d68b087d29bdad,,1,10f6b99f83d68b087d29bdad
公安(北京西站),39.899698,116.328058,北京市丰台区莲花池东路118号北京西站B2,1a6ad050b68aff64a1d230ec,,1,1a6ad050b68aff64a1d230ec
北京市公安局西城分局广外派出所马联道中里社区警务工作站,39.893584,116.338663,北京市西城区马连道北街5-6附近,7f3e37b3f172eb64b6147f26,,1,7f3e37b3f172eb64b6147f26
站南派出所巡逻警务站,39.897214,116.328035,北京市丰台区北京西站南路与莲花池南路交叉口东北100米,25fa774c7852a360a21de9a7,,1,25fa774c7852a360a21de9a7
太平桥街道首威社区来京人员和出租房屋服务站,39.887844,116.324948,北京市丰台区太平桥路华源四里1号楼底商2层026号,3659fa967062121263685896,(010)63380719,1,3659fa967062121263685896
红莲南里-社区警务工作室,39.885631,116.342147,北京市西城区红莲中里与马连道东街交叉口南150米,a4e292468d2aaed0882fb54c,,1,a4e292468d2aaed0882fb54c
北京市公安局北京市西站分局站南派出所,39.900106,116.334763,北京市西城区南蜂窝路13号,292c6d9e0d5ffe6e21022096,,1,292c6d9e0d5ffe6e21022096
北京市公安局西城分局,39.879737,116.351341,北京市西城区菜户营西街,7776f00a2953303c2cb17e19,,1,7776f00a2953303c2cb17e19
太平桥街道太平桥中里社区来京人员和出租房屋服务站,39.893816,116.325675,北京市丰台区西客站南路甲1号平房,10e3a71a34100f83593ac811,(010)63440429,1,10e3a71a34100f83593ac811
广外派出所,39.89368,116.337216,北京市西城区马中里一区1号楼,86ade9584ebbf34303ec0134,(010)63360000,1,86ade9584ebbf34303ec0134
丰台市公安局小井地区直属中心警务站,39.883409,116.297268,广安路548号附近,8f469643a1d5aaccb5147f03,,1,8f469643a1d5aaccb5147f03
十堰市公安局(驻京群众工作专班),39.877034,116.314991,西局南街67号附近,,,1,2e47d41744a563a851e5c5d9
卢沟桥街道八一厂社区来京人员和出租房屋服务站,39.891368,116.314789,北京市丰台区六里桥北里甲1号八一厂社区,,(010)66834569,1,ddf555820880eb022806ce8d
小井村综合治理办公室,39.881363,116.304297,北京市丰台区小井路812号,e17448732c3018005d17c3e6,,1,e17448732c3018005d17c3e6
丰台区小井村治安巡防队,39.878803,116.304355,北京市丰台区小井街,ed5efd3d3ad99ffd3786f456,,1,ed5efd3d3ad99ffd3786f456
卢沟桥街道六里桥南里社区来京人员和出租房屋服务站,39.884765,116.302896,北京市丰台区广安路小井村292号院内,,(010)63768774,1,b2b385ba8523768aab0dd8d4
第二派出所,39.902202,116.299517,金家村一号院12号楼1层,,,1,b966fea8d9da27a8a5da393f
莲花池社区警务工作室,39.893484,116.320731,广安路33号附近,2468f29167c680758c1a8922,,1,2468f29167c680758c1a8922
卢沟桥街道保利益丰社区来京人员和出租房屋服务站,39.881469,116.311248,北京市丰台区西局西路保利百合9号楼,e581f5ba22db05cd774ff128,(010)63770704,1,e581f5ba22db05cd774ff128
中国人民公安大学-21号楼,39.907025,116.343686,卢沟桥南里6号,06f113c4c8770fd925d2bb58,,1,06f113c4c8770fd925d2bb58
月坛派出所受理报案,39.919436,116.35559,月坛南街与月坛西街交叉口西南50米,2c68c9abc11ac9d42bb97cf6,,1,2c68c9abc11ac9d42bb97cf6
中国人民公安大学-4栋,39.905594,116.343226,北京市西城区木樨地南里甲1号院内,f44a37cf7f1b53a4a2046434,,1,f44a37cf7f1b53a4a2046434
中国人民公安大学-2栋,39.906184,116.343232,复兴门外木樨地南里甲1号,efaaad7a0a0a3e6d61685870,,1,efaaad7a0a0a3e6d61685870
中国人民公安大学-1栋,39.906483,116.343206,北京市西城区木樨地莲花池东路中国人民公安大学,52f010b9f3252ba8b5f42fb7,,1,52f010b9f3252ba8b5f42fb7
公安局宿舍-西门,39.922391,116.356084,月坛西街21号院,3f484a362e3cc580d2f49e72,,1,3f484a362e3cc580d2f49e72
羊坊店派出所羊坊店社区警务团队工作室,39.907302,116.330483,北蜂窝101号南楼附近,aa231283656c63ab82a12e5c,,1,aa231283656c63ab82a12e5c
公安大学-司法鉴定中心,39.904496,116.346113,北京市西城区木樨地南里1,7166901d4d19767a42d63ee7,,1,7166901d4d19767a42d63ee7
公安大学住宅小区-停车场,39.90792,116.346777,北京市西城区中国人民公安大学木樨地南里1号楼,52641cb6b33430cafd0eb0e9,,1,52641cb6b33430cafd0eb0e9
中国人民公安大学-学生公寓,39.906804,116.342205,木樨地南里1号31号楼,,,1,edfd989bb5f411481d580009
北京市公安局北京西站分局停车场-出入口,39.902501,116.332538,北京市丰台区莲花池东路110号附近,2b818c3ec2d0837a213bf22d,,1,2b818c3ec2d0837a213bf22d
北京市公安局海淀分局甘家口派出所富北社区警务团队工作室,39.929536,116.335041,北京市海淀区阜成路北8号楼44单元,0649bd121043501dc52ba1f9,,1,0649bd121043501dc52ba1f9
中国人民公安大学(木樨地校区)-8号楼,39.90793,116.34558,木樨地南里1号,81df20ce83d168d684330428,,1,81df20ce83d168d684330428
中国人民公安大学-三部楼,39.905287,116.345523,木樨地南里1号,5ab69a56582eee17a8f729f1,,1,5ab69a56582eee17a8f729f1
中国人民公安大学-13号楼,39.907037,116.345212,卢沟桥南里6号,9cf545a6a09ca5cdca291562,,1,9cf545a6a09ca5cdca291562
中国人民公安大学-8栋,39.905572,116.34553,复兴门外木樨地南里甲1号,11461bc601239bd2c7f025f2,,1,11461bc601239bd2c7f025f2
北京市公安局海淀分局羊坊店派出所铁西社区警务工作室,39.904603,116.331144,北京市海淀区北蜂窝中路8号院-10号楼,b5c37a31e29e18db3b221c4d,,1,b5c37a31e29e18db3b221c4d
公安大学住宅小区西院-29号楼,39.907973,116.343046,北京市西城区木樨地南里1号院内,3f369ef1c6a147ceca09f053,,1,3f369ef1c6a147ceca09f053
中国人民公安大学-3栋,39.905924,116.343234,复兴门外木樨地南里甲1号,8c22fdeb7a7d99af8e77271a,,1,8c22fdeb7a7d99af8e77271a
北京市公安局海淀分局羊坊店派出所-西门,39.909583,116.3358,北蜂窝路12-3号附近,,,1,d0a96f2544baa18f9d9d68b2
中国人民公安大学住宅小区东院-停车场,39.908017,116.346857,木樨地白云路,bcb57282727546f28a36ee3b,,1,bcb57282727546f28a36ee3b
公安大学住宅小区西院乙-29号楼,39.907975,116.343546,北京市西城区木樨地南里乙29号楼,512d4b7fcfe85ab901294fd0,,1,512d4b7fcfe85ab901294fd0
公安部幼儿园-南门,39.908956,116.346383,北京市西城区木樨地北里2号,a29bf23552ab240c2a02e192,,1,a29bf23552ab240c2a02e192
公安大学住宅小区-1号楼,39.907602,116.346445,木樨地南里1号,b0e6c6dd2b3d0672210220a9,,1,b0e6c6dd2b3d0672210220a9
中国公安大学-地面停车场,39.904814,116.343894,北京市西城区木樨地南里1号,,,1,7363c905b218b32ad42ce2e3
中国人民公安大学西小区,39.908089,116.341854,北京市西城区月坛街道木樨地南里28号楼1005中国人民公安大学西小区,,,1,0f1d8208a82cdd56283a9f68
公安部金盾影视文化中心,39.904062,116.346181,莲花池东路甲5号院1,53cebd50ee0e98602a02e1f9,,1,53cebd50ee0e98602a02e1f9
中国人民公安大学(木樨地校区),39.906724,116.343706,北京市西城区木樨地南里1号,1b9803bb255bb245c0364441,(010)83903097,1,1b9803bb255bb245c0364441
北京市公安局海淀分局万寿路派出所-北门,39.90639,116.298413,北京市海淀区太平路丙23号,54ee4ff586c25fe7b21e3601,,1,54ee4ff586c25fe7b21e3601
公安执勤室,39.901781,116.329118,北京市丰台区莲花池东路118号北京西站B2,,,1,d84e6a8659230b24364aae27
六里桥派出所立体巡控大队太平桥村分队,39.87816,116.324458,西局东街73号六里桥派出所,2792cf30d6495d3aeb1e970e,,1,2792cf30d6495d3aeb1e970e
北京火车西站高铁站北广场-公安制证处,39.90187,116.329198,北京市丰台区莲花池东路北京西站一层,c5fc030c5bdc669da8059d30,,1,c5fc030c5bdc669da8059d30
太平桥派出所-外来人口管理站,39.889823,116.326701,北京市丰台区太平桥40号,a339797e9f6a20c1fd0eb0af,,1,a339797e9f6a20c1fd0eb0af
广外派出所网约居住证受理点,39.893619,116.337019,北京市西城区马连道中里一区1号楼,,(010)63328068,1,3dc2ab8152dd5460373a71c3
北京市公安局公安交通管理局西城交通支队广安门大队-西门,39.882458,116.343722,北京市西城区红莲南路33号,,,1,5c50625c75c764ce6240a99b
北京市公安局北京西站分局-停车场,39.902161,116.332628,莲花池东路110号附近,fa41535c02979cbaad080f18,,1,fa41535c02979cbaad080f18
公安制证窗口(北京西站),39.901897,116.329235,北京市丰台区莲花池东路118号北京西站F1,,,1,83204e32e057f67f2ad7ab6c
北京市公安局交通管理分局西城交通支队广安门大队办公楼,39.882447,116.344139,北京市西城区红莲南路33号,e51617ae198bc0ec704b8747,(010)68399411,1,e51617ae198bc0ec704b8747
站北派出所-西北1门,39.902108,116.319062,莲花桥与莲花池东路交叉口西南150米,,,1,cb7431ed3c6b2d0114c8f6b3
西局派出所网约居住证临时受理点,39.876868,116.311767,北京市丰台区西局南街99号,,(010)83639351,1,38ff32e99517b2b42b11d114
中国人民公安大学-7栋,39.905863,116.34553,北京市西城区木樨地南里1号院内,a1b49e7408dd946f21026266,,1,a1b49e7408dd946f21026266
北京铁路公安处消防监督科,39.907195,116.334283,北蜂窝西路3号附近,f216fc4239dd746197031968,,1,f216fc4239dd746197031968
公安大学住宅小区-西门,39.908085,116.343575,木樨地南里1号西院,5e4f37f8d3da109a9ee32116,,1,5e4f37f8d3da109a9ee32116
月坛派出所院内新-22号楼,39.919459,116.355543,二环到三环月坛南街月坛派出所院内新22号楼,,,1,1fcdbe3e4ac0b069fa42b229
北京市公安局海淀分局羊坊店派出所会城门社区警务团队工作室,39.90888,116.338065,会城门东路北100米,e54d4270aeaae726260bd0e3,,1,e54d4270aeaae726260bd0e3
中国人民公安大学-5栋,39.906429,116.345553,木樨地南里1号,43051f84a82f9dfbfda7786f,,1,43051f84a82f9dfbfda7786f
公安大学住宅小区西院-28号楼,39.907891,116.341774,北京市西城区木樨地南里甲28号楼,bfaa36bc36d3d51088b98813,,1,bfaa36bc36d3d51088b98813
中国人民公安大学-东配楼,39.907702,116.344906,北京市西城区木樨地南里1号院内,9230705e3ec1d88396f08c6e,,1,9230705e3ec1d88396f08c6e
中国人民公安大学木樨地校区公安部高级警官学院,39.906702,116.344024,北京市西城区木樨地南里1号中国人民公安大学木樨地校区内,,,1,df15b74b73d7f27916c905b8
中国人民公安大学-办公楼,39.907336,116.344349,北京市西城区木樨地南里1号,0405f95cd367ffc128b97cea,,1,0405f95cd367ffc128b97cea
中国人民公安大学-图书馆,39.906872,116.345218,月坛街道木樨地南里1号,d20e53520559bfa4851541ff,(010)83903222,1,d20e53520559bfa4851541ff
公安部物证鉴定中心-西门,39.904642,116.345788,莲花池东路辅路北200米,,,1,4a86fed182f2d16407026fbc
公安部幼儿园,39.909191,116.346436,木樨地北里2号,41572e00537a08b4b45f1e39,(010)63466421,1,41572e00537a08b4b45f1e39
公安大学住宅小区(东院),39.90753,116.346458,木樨地南里1号,5946adf7371b4880f7b916f3,,1,5946adf7371b4880f7b916f3
中国人民公安大学(木樨地校区)-北门,39.908028,116.344388,北京市西城区木樨地南里1号,7c7b48bd6afb59436d3e1bab,,1,7c7b48bd6afb59436d3e1bab
北京市公安局海淀分局羊坊店派出所莲花小区社区警务工作室,39.902577,116.312786,莲花桥与莲花池西路交叉口西南100米,,,1,a9a44277f62ce8b4631c67c0
北京市公安局海淀分局万寿路派出所翠微路社区警务工作室,39.916837,116.307608,北京市海淀区翠微路2号院-23号附近,78e1ddfbbd6d9cadf82d6137,,1,78e1ddfbbd6d9cadf82d6137
北京市公安局公安交通管理局西城交通支队广安门大队-北门,39.882845,116.344122,红莲南路33号,1fde5e091673aaeb1e5800fc,,1,1fde5e091673aaeb1e5800fc
西城区分局广外派出所外来人口办公室,39.893602,116.34036,马连道北街甲3号附近,15b1ef2fe7ef212426d2bb6b,,1,15b1ef2fe7ef212426d2bb6b
天宁寺派出所治安报警站,39.89847,116.340966,北京市西城区广安门南滨河路61号附近,41ac956e683a1457ab0dd824,(010)63401010,1,41ac956e683a1457ab0dd824
白纸坊派出所建功南里社区警务工作室,39.880557,116.360342,南菜园与南菜园街交叉口西北50米,877daecbfe8dadcdcac3db4c,,1,83c24252b1bf8a9d0bccddef
广外派出所西城区分局消防安全办公室,39.893602,116.34036,马连道北街甲3号附近,6d99d073210253b2a21de932,,1,6d99d073210253b2a21de932
北京市公安局公安交通管理局丰台交通支队西站大队-东门,39.900262,116.335333,南蜂窝路11号,,,1,f48855d8afb9210813293511
北京西站-公安制证入口,39.901919,116.329207,北京市丰台区莲花池东路118号北京西站F1,,,1,4511861b67df2f62b626555c
北京市公安局纪委,39.900188,116.334023,南蜂窝路15号,0648b50337763cc4eee4a5d9,,1,0648b50337763cc4eee4a5d9
北京市公安局公安交通管理局西城交通支队广安门大队,39.882595,116.344279,北京市西城区红莲南路33号,25ec69fc5930547dc26c14f1,(010)68399472,1,25ec69fc5930547dc26c14f1
北京市公安局海淀分局羊坊店派出所吴家场铁路5号院社区警务工作室,39.897046,116.30874,北京市海淀区吴家村路5号院-4号楼附近,715b953cf17b5d1c6c476047,,1,715b953cf17b5d1c6c476047
北京市公安交通调度指挥中心,39.896358,116.311504,北京市丰台区莲花池西里29号公交大厦,0babef589288de47d2f49e79,(010)63960088,1,0babef589288de47d2f49e79
羊坊店派出所有色设计院社区警务工作室,39.912788,116.33082,复兴路12-2号附近,f66c646eabf4baacd72ce260,,1,f66c646eabf4baacd72ce260
公安执勤,39.902507,116.330046,北京市丰台区莲花池东路118-3号东60米,5a0dbcba8d0b1f07a8f72997,,1,5a0dbcba8d0b1f07a8f72997
中国人民公安大学-6栋,39.906171,116.345552,北京市西城区木樨地南里1号内中国人民公安大学,896eff5235fd74928c1a890a,,1,896eff5235fd74928c1a890a
北京市公安局海淀分局羊坊店派出所电信社区警务工作室,39.903405,116.333897,莲花池东路21号附近,b74d53f8d04b68fed1f49e2d,,1,b74d53f8d04b68fed1f49e2d
公安大学住宅小区-9号楼,39.907659,116.345257,北京市西城区木樨地南里1号,e32acf984489145894ec84cc,,1,e32acf984489145894ec84cc
公安局宿舍,39.922303,116.356508,月坛西街21号院,,,1,3f86678ddf5ceb449f9d687e
中国人民公安大学-20号楼,39.907211,116.342334,北京市西城区木樨地南里1号院内,ada297ae1e54df0ac42ba188,,1,ada297ae1e54df0ac42ba188
公安大学住宅小区西院甲-29号楼,39.907944,116.343022,木樨地南里甲29号,d3f0753c8409dd2a1894c6d2,,1,d3f0753c8409dd2a1894c6d2
中国人民公安大学-教学楼,39.90704,116.342925,木樨地南里1号,,,1,a436bd8a24dbeb2894ec847b
中国人民公安大学研究生教育楼,39.905574,116.34636,北京市西城区白云路,,,1,eba7f3d6150a245643024587
停车场(公安大学住宅小区西院西),39.908388,116.343059,白云观街北里附近,4a050ac004b4c43c41d63e71,,1,4a050ac004b4c43c41d63e71
中国人民公安大学-31号楼,39.906799,116.341993,卢沟桥南里6号,9f51fb76bb522a4595ca07a9,,1,9f51fb76bb522a4595ca07a9
中国人民公安大学出版社-读者服务部,39.90809,116.343571,木樨地南里甲1号,42e12629a826b206d618b7c0,(010)83905633,1,42e12629a826b206d618b7c0
月坛街道公安社区综治中心,39.908039,116.343427,北京市西城区月坛街道木樨地南里滨河路木樨地南里29号楼,,,1,1699a32562a65bfebea240ef
北京市公安局海淀分局甘家口派出所甘东社区警务工作室,39.92959,116.338898,阜成路北4号附近,5f6f3fca5ef841889222e0d2,,1,5f6f3fca5ef841889222e0d2
北京市公安局海淀分局甘家口派出所海军总医院社区警务工作室,39.929084,116.330172,北京市海淀区阜成路6号,,(010)68311377,1,f813ad284e61306914b54b40
中国人民公安大学医院,39.907247,116.345736,北京市西城区木樨地南里滨河路木樨地南里1号,56e88cba96b07c7ca5c756fb,(010)83903157,1,56e88cba96b07c7ca5c756fb
公安大学-住宅小区,39.908139,116.346917,北京市西城区木樨地南里1号,4157428c616c93f6990050c3,,1,4157428c616c93f6990050c3
中国工商银行离行式自助服务区(北京分行西客站支行木樨地南里（公安大学）),39.907517,116.343083,木樨地南里(公安大学),9e167cb02253f540afee7a5a,,1,9e167cb02253f540afee7a5a
北京市公安局西城分局月坛派出所汽车局河南社区警务工作室,39.907845,116.347705,复兴门外大街22号楼前平房,6665d631b094980d95f08ce3,,1,6665d631b094980d95f08ce3
北京市公安局海淀分局羊坊店派出所羊坊店社区警务工作室,39.908033,116.328253,羊坊店路6号-519室,3c75fd479f388de51fe99910,,1,3c75fd479f388de51fe99910
公安大学住宅小区东院-北门,39.908062,116.34711,北京市西城区木樨地南里1号东院,56918abca1abcf50d5b74e97,,1,56918abca1abcf50d5b74e97
中国人民公安大学-停车场,39.905589,116.346329,北京市西城区莲花池东路5号,,,1,a2665b00f33bc15ffea7781f
中国人民公安大学出版社,39.907913,116.343544,北京市西城区木樨地南里1号院29号乙楼,844a750e95c3f0b96268583e,(010)83903251,1,844a750e95c3f0b96268583e
公安大学住宅小区-西院,39.907641,116.343542,木樨地南里1号,7d33a62387d32d7e6849f3e5,(010)83905550,1,7d33a62387d32d7e6849f3e5
公安大学-游泳馆,39.907361,116.346788,北京市西城区木樨地南里甲1号,56e88cba94187a7ca4c75613,(010)83903070,1,56e88cba94187a7ca4c75613
公安大学-高级警官培训楼,39.905945,116.341913,复兴门外木樨地南里甲1号,,,1,bdba05369eb5539300294f72
甘家口派出所空军总医院联合治安办公室,39.928127,116.305505,北京市海淀区裕龙国际酒店旁,0c6c71c8bc2c98eb2cb908f9,,1,0c6c71c8bc2c98eb2cb908f9
北京市公安局海淀分局恩济庄派出所304医院社区警务工作室,39.931211,116.312413,北京市海淀区阜成路51号东北70米,204e2a960458b1d221022043,,1,204e2a960458b1d221022043
万寿路派出所-停车场,39.906385,116.29827,北京市海淀区太平路丙23号,,,1,596864048c176a876f3e1b62
北京西站-公安制证出口,39.901919,116.329219,北京市丰台区莲花池东路118号北京西站F1,,,1,4c3740924b27c3adbfa8221b
北京市公安局西城分局天宁寺派出所白菜湾社区警务工作室,39.89264,116.352374,广安门外大街47号附近,25b4e9dfca9b0dd843afe676,,1,25b4e9dfca9b0dd843afe676
天宁寺派出所治安报警站,39.882098,116.355505,广安门南滨河路61号附近,b74a544d9357621214948e3c,"(010)63268830,(010)63401010",1,b74a544d9357621214948e3c
北京市公安局丰台分局太平桥派出所-北门,39.889909,116.326856,太平桥40号,8f37607567685e6440ab9a04,,1,8f37607567685e6440ab9a04
北京火车西站(高铁站)南广场公安制证处,39.899409,116.327327,北京市丰台区莲花池东路北京西站南广场一层,cf7a870a8d878ff45fbe8668,,1,cf7a870a8d878ff45fbe8668
北京市西城区公安司法鉴定中心,39.898889,116.346311,北京市西城区小马厂路1号院6,e874816fa9e84c9e373a7133,,1,e874816fa9e84c9e373a7133
六里桥派出所居住证临时受理点,39.87873,116.320202,北京市丰台区西局东街甲1号,,(010)63449895,1,375ef21d9c9c22108f1a89bb
北京市公安局丰台分局西局派出所莲怡园第一社区警务工作室,39.89255,116.307082,北京市丰台区吴家村路5号院铁路小区4号楼,13736489850ef34149fc8d46,,1,13736489850ef34149fc8d46
站北派出所-西北2门,39.901713,116.319322,莲花桥与莲花池东路交叉口南150米,e3ea0abf201bfdc2c4f025cf,,1,e3ea0abf201bfdc2c4f025cf
六里桥派出所综合室,39.87867,116.320554,西局东街甲1号,212c909300c353e9b64f54cc,,1,212c909300c353e9b64f54cc
万马爱充充电站(西局派出所),39.876567,116.311816,北京市丰台区西局前街99号,1369961afd8b641c1d1d113d,4000850006,1,1369961afd8b641c1d1d113d
西局派出所-东南门,39.875906,116.31163,西局南街99号,e3bcf4e560c2f526ddee8b05,,1,e3bcf4e560c2f526ddee8b05
六里河派出所-西南门,39.878577,116.32032,西局东街甲1号,8d3e4a78fc2c546e2afc4802,,1,8d3e4a78fc2c546e2afc4802
公安大学,39.908847,116.345433,78路;114路;308路;320路,,,0,99b2308591c96312cbfa5f5d
北京市公安局大兴分局观音寺派出所盛嘉华苑社区警务工作室,39.742568,116.362154,北京市大兴区盛嘉华苑(团河路南),9c2b4f3b7fc5367c72210bdf,,1,9c2b4f3b7fc5367c72210bdf
亿兴隆华治安联防办公室,39.740998,116.364547,七条聚鑫隆华治安联防办公室附近,,,1,66cac78188491d24d518b78b
黄村镇盛嘉华苑社区来京人员和出租房屋服务站,39.742389,116.362252,北京市大兴区团河路黄村镇48号院1号楼底商,,(010)61275907,1,00c81a03e6daf9bc86420e2d
观音寺街道首座御园一里社区来京人员和出租房屋服务站,39.753237,116.370911,北京市大兴区首座御园一里,,(010)61275616,1,36700a8727dc6db3d5b74ea2
团河苑社区居委会外来人口管理站,39.747546,116.380365,北京市大兴区兴亦路南50米,5ed3d776aa6be3573a04b1ff,,1,5ed3d776aa6be3573a04b1ff
团河派出所警务工作站,39.745179,116.362391,天湖文化交流中心附近,98dbcdb706288b9f1676431a,,1,98dbcdb706288b9f1676431a
聚鑫隆华治安联防办公室,39.740998,116.364547,七条附近,,,1,b42c236c92cdcf9dae045770
黄村镇刘一村外来人口管理站,39.723424,116.382377,北京市大兴区团结路与留强路交叉口东南100米,fd3cd6d8d7e53b5c28d7abbe,,1,fd3cd6d8d7e53b5c28d7abbe
团河苑-社区警务工作站,39.747598,116.380767,清源东路团河苑社区居委会外来人口管理站附近,887078e6139c4e27e81e973f,,1,887078e6139c4e27e81e973f
北京市交通委员会路政局大兴公路分局路政执法大队,39.726815,116.362384,北京市大兴区黄村海子角兴达中学北侧,c8938e56f437a89a61685879,,1,c8938e56f437a89a61685879
北京市公安局大兴分局事故处理中队,39.727401,116.367178,海北路与黄马路交叉口东150米,d49e497a64bfc690fa0caddf,,1,d49e497a64bfc690fa0caddf
大兴公安分局孙村派出所,39.724342,116.416387,北京市大兴区磁大路南六环磁各庄桥向南200米路东,,"(010)61260110,(010)61267665,(010)61267591",1,6835e3a784f9674ee31103fa
北京市公安局大兴分局交通支队车辆管理站,39.727057,116.367035,北京市大兴区黄马路(孙村段)8号,e2b2c185458d649c21f0179d,,1,e2b2c185458d649c21f0179d
北京市公安局大兴分局团河派出所首座御园社区警务工作室,39.750794,116.375317,北京市大兴区首座御园东门北侧,c66bf04f067d27ddb72655d6,,1,c66bf04f067d27ddb72655d6
北京市公安局警犬基地,39.744005,116.383294,北京市大兴区团桂路,67e5369807e8aa063517dcc3,,1,67e5369807e8aa063517dcc3
北京市公安局大兴分局巡警支队-南门,39.727891,116.366339,海北路与黄马路交叉口东50米,,,1,ae90fb19862944bd3686f460
公安局大兴分局修理厂,39.737444,116.414141,北京市大兴区西红门南中轴路金星牛场对面,8235dc946c1d7d3d95ca07f0,,1,8235dc946c1d7d3d95ca07f0
青云店派出所第一警务区,39.715399,116.486043,京福路与孙垡路交叉口东南150米,,,1,ec0dbe8dbeb3f607ddee8b7d
北京市公安局大兴分局青云店中心警务站,39.715271,116.486141,京福路与孙垡路交叉口东南150米,,,1,d51004acf8e6961785420e88
黄村镇郭上坡来京人员和出租房屋服务站,39.71369,116.43195,北京市大兴区黄村镇郭上坡村三郭路附近,,,1,06f5585225b38546f603b8f0
青云店派出所治安巡逻队,39.715399,116.486043,京福路与孙垡路交叉口东南150米,,,1,05a6305fd7e2fcf3f7eafce3
北京市公安局大兴分局交通支队青云店中队,39.715754,116.487982,北京市大兴区青云店镇垡上村垡上路东工业园,,,1,436e0c22e78f515f22022018
西红门镇新建二村来京人员和出租房屋服务站,39.734544,116.430312,北京市大兴区西红门镇新康路新建二村村委会,,(010)81285950,1,6db9dc46d07fc4c314c8f672
青云店镇垡上村来京人员和出租房屋服务站,39.709754,116.48187,北京市大兴区青云店镇垡泥路垡上村村委会,,,1,da8b686b4278a55a8e1a89a0
垡上社区警务工作站,39.715383,116.486037,京福路与孙垡路交叉口东南150米,,,1,4962e128f63ee2b39c09f7db
大兴区青云店镇东赵村来京人员和出租房屋服务站,39.725927,116.440299,北京市大兴区青云店镇东赵村路东(村委会前院),,,1,9e854bbc6e537f7b21f0176b
北京市公安局大兴分局交通支队青云店中队-北门,39.715987,116.48777,二干路南50米,,,1,5d203f6b1e159a626018095a
青云店派出所第二社区警务工作站,39.713383,116.462916,北京市大兴区东大路,,,1,d39e991162fd63a2adee7a47
青云店镇老观里村来京人员和出租房屋服务站,39.70717,116.521758,北京市大兴区青云店镇劳保厂路老观里村委会,,,1,380716b11fe7b5e6b23c81f2
马驹桥镇温馨家园社区来京人员和出租房屋服务站,39.746717,116.556797,北京市通州区马驹桥镇辛桑路温馨家园西区北门16号楼东侧,9d0fc13c8ccd469416a19086,(010)60500937,1,9d0fc13c8ccd469416a19086
马驹桥镇辛屯社区来京人员和出租房屋服务站,39.758616,116.556254,北京市通州区马驹桥镇政务服务中心,,(010)80865818,1,d9a52ffeaa57ca98e31103c4
瀛海镇治安巡防大队第七分队,39.744946,116.520537,千倾东街与黄马路交叉口西南100米,3555443fa3acefd98b2fb50b,,1,3555443fa3acefd98b2fb50b
马驹桥镇小周易社区来京人员和出租房屋服务站,39.737183,116.588015,北京市通州区通华路马驹桥镇小周易村委会警务室,,(010)60503233,1,a21595ceed71c28e9e95de77
北京市公安局通州分局马驹桥派出所联东U谷警务室,39.737565,116.576347,景盛南二街与马朱路交叉口南150米,0b17a7110f1c1b4db5f42f53,,1,0b17a7110f1c1b4db5f42f53
马驹桥派出所,39.756329,116.566662,北京市通州区马驹桥镇工业东路6号,b292b3aa7927be56be48426a,(010)60509258,1,b292b3aa7927be56be48426a
北京市公安局通州分局马驹桥派出所-东北门,39.7564,116.567213,漷马路旧线与马驹桥3号桥交叉口西50米,,,1,a16df00f6651e29e734b87b7
社区流动人口管理站,39.812827,116.419819,南苑东路北150米,28060baf08024aa951e5c521,,1,28060baf08024aa951e5c521
大兴公安分局金星派出所-户籍办公室,39.772526,116.414624,黄亦路29号附近,e8b5ee9072d43af0c4f025b7,,1,e8b5ee9072d43af0c4f025b7
丰台区南苑村流动人口管理站,39.793184,116.387772,北京市丰台区团河路与西红门路交叉口东南200米,c5e5044e00d5f34c250bd01c,,1,c5e5044e00d5f34c250bd01c
大白楼社区警务工作室,39.77563,116.39362,大白楼南路甲8号,bfc244aa25f0eb832b11d12a,,1,bfc244aa25f0eb832b11d12a
南苑镇派出所,39.814054,116.401193,北京市丰台区大红门南路南苑北里四区9号,59b1497ec0dd1a6cb1077dd3,"(010)67991106,(010)67951618",1,59b1497ec0dd1a6cb1077dd3
志远庄社区警务工作室,39.769689,116.415667,志建路1号附近,8bf45b9592615f3d276e98fd,,1,8bf45b9592615f3d276e98fd
来京人员和出租房屋服务站,39.816833,116.366679,南苑西路320号附近,1832e8a0ad7df1338bb98857,,1,1832e8a0ad7df1338bb98857
三角地第二社区-外来人口管理站,39.815768,116.423071,树桥路西150米反邪教警示教育学校三角地二分校附近,5ac5e3b760e5182a15c90549,,1,5ac5e3b760e5182a15c90549
东高地地区治安联防办公室,39.811789,116.422548,三角地31,59e2041b4af94df4c5effbfe,,1,59e2041b4af94df4c5effbfe
丰台区南苑街道三营门社区流动人口管理站,39.81287,116.407499,龙河路3号附近,ceb85489c4efe815223bf290,,1,ceb85489c4efe815223bf290
大兴公安分局金星派出所大白楼村警务工作站,39.77563,116.39362,大白楼南路甲4号附近,4c765937f5b98476b9df8ff4,,1,4c765937f5b98476b9df8ff4
德茂派出所南街三村社区警务工作站,39.788808,116.406878,友谊路与向阳路交叉口西100米南街第三村村委会附近,,,1,b989a0029b5e9e22cd04ef7c
中国人民公安大学特警队,39.772258,116.370871,创新道与警训路交叉口南100米,,,1,e2f21c51149f057595ca07b7
诚苑社区警务工作室,39.810836,116.380532,南苑西路西200米,2b732cc07b0347fc84154171,,1,2b732cc07b0347fc84154171
南苑镇派出所暂住证办理室,39.813946,116.400992,新华路2号附近,165f6c04511ee3aacd04ef55,,1,165f6c04511ee3aacd04ef55
丰台分局出入境证件南苑受理点,39.813946,116.400992,新华路2号附近,339df159db7737a709a8d4d3,,1,339df159db7737a709a8d4d3
大兴公安分局金星派出所金星庄村警务工作站,39.767703,116.392191,北京市大兴区金大路与金星庄路交叉口西50米(金星庄村村委员旁边),5b1318117d798335ad31e5f4,(010)61281445,1,5b1318117d798335ad31e5f4
三角地二社区警务工作站,39.815345,116.422829,北京市大兴区树桥路西200米,1bd9efdf9bc0c2b288fc0669,,1,1bd9efdf9bc0c2b288fc0669
和义街道城市管理分队,39.817362,116.416568,北京市大兴区酒厂路2号,23234e81c8d34aa57ab55c59,,1,23234e81c8d34aa57ab55c59
北京市公安局丰台分局和义派出所南苑北里二社区警务工作站,39.815694,116.404131,南苑北里3区6号楼旁边平房附近,ba06bb45334fff0d744ff173,,1,ba06bb45334fff0d744ff173
警务工作站(梅源里20西南),39.802497,116.42539,南大红门路17号附近,ba88f3eeb2890b54ede4a5fc,,1,ba88f3eeb2890b54ede4a5fc
大兴综治警务室,39.792665,116.422501,北京市丰台区南小街路13号,afeb8e5122f2627d8715410f,,1,afeb8e5122f2627d8715410f
北京市公安局大兴分局德茂巡逻大队,39.792711,116.415007,南小街路25号附近,c0b507edf424e54803ec012f,,1,c0b507edf424e54803ec012f
北京市公安局大兴分局交通支队旧宫中队,39.775114,116.424702,顺新街与顺新街二条交叉口东南150米,c58a9513a3d3c0d01de999bd,(010)67960692,1,c58a9513a3d3c0d01de999bd
大兴公安分局金星派出所,39.772655,116.414708,北京市大兴区西红门镇建新庄村金大路18号,,"(010)61285666,(010)61286293",1,d1bc583465cce6e175e5b678
西红门镇新三余流动人口管理站,39.778143,116.374078,北京市大兴区双安巷与金西路交叉口东北50米,a9a302e6b40ced26c6effb9b,,1,a9a302e6b40ced26c6effb9b
南苑街道红房子社区来京人员和出租房屋服务站,39.809052,116.383454,北京市丰台区五爱屯西街3号院2号楼2单元102号,,(010)67932278,1,b5accc88d3fbcaafb23c81eb
丰台区南苑乡南苑村治安巡防队,39.801592,116.38554,团河路北口10号北京华军中医医院附近,ec68e5bce1ce9537ae080fb4,,1,ec68e5bce1ce9537ae080fb4
西红门镇寿保庄村来京人员出租房屋服务站,39.784442,116.387329,北京市丰台区西红门镇寿保庄村正北街,04443874813241395cbe8669,(010)61281832,1,04443874813241395cbe8669
西红门镇建新庄村来京人员和出租房屋服务站,39.764589,116.415535,北京市大兴区西红门镇建新庄村村口志建路,,,1,04f48480bcd2b0ba8d772793
中国人民公安大学实验楼-东区,39.770651,116.375775,明德路与求实道交叉口西北50米,f77b2bcaf558ba2df6c59c06,,1,f77b2bcaf558ba2df6c59c06
中国人民公安大学(团河校区)-运动场,39.770832,116.375322,北京市大兴区勤奋道,97c709cb90599e52ede4a593,,1,97c709cb90599e52ede4a593
中国人民公安大学团河校区-礼堂,39.771445,116.376513,亲民路与勤奋道交叉口西北100米,,(010)83906167,1,548089cafc33c38207fef5b1
中国人民公安大学(团河校区)-攀登楼,39.772469,116.370261,黄亦路(中国人民公安大学内),,,1,02cc5eac5c13cf68eb56fab2
中国人民公安大学(团河校区)-学生二食堂,39.770644,116.379082,中国人民公安大学学生公寓七附近,45c7b09e5ce54c3ee812e4d3,,1,45c7b09e5ce54c3ee812e4d3
公安大学游泳馆,39.774693,116.369101,北京市大兴区广平大街,e8feb180a2c654ca3010af66,,1,826a1c062510636a0d3ddaeb
北京市公安局家属院,39.80016,116.368397,西红门路35,4451877b27060609b45f1e02,,1,4451877b27060609b45f1e02
中国人民公安大学(团河校区)-阶梯教室,39.769602,116.373161,忠诚道与警学路交叉口西50米,e6536b2ab841e85cd42ce25e,,1,e6536b2ab841e85cd42ce25e
中国人民公安大学-停车场,39.770191,116.37303,北京市大兴区求实道与警学路交叉口西100米,c93580dd77534b3bae080f16,,1,c93580dd77534b3bae080f16
中国人民公安大学(团河校区)-图书馆,39.770024,116.369918,北京市大兴区中国人民公安大学,e85e2527b6f5615395f08cfa,(010)83903019,1,e85e2527b6f5615395f08cfa
中国人民公安大学团河校区(南2门),39.768731,116.367878,北京市大兴区警思路与黄亦路交叉口北50米,71e6ab3a02a6ba999d9d68e4,,1,71e6ab3a02a6ba999d9d68e4
中国人民公安大学-南门,39.769403,116.375165,北京市大兴区黄亦路中国人民公安大学东配楼附近,6839a9d04403ba5ec42ba168,,1,6839a9d04403ba5ec42ba168
牛王阿秋(公安大学店),39.77872,116.366505,春和路39号院1号楼2单元107一层,67e8d0e639427d023586f430,13301175637,1,67e8d0e639427d023586f430
北京市公安局丰台分局和义派出所南苑北里一社区警务工作室,39.815613,116.404759,南苑北里一区7号楼附近,493f0dbf2fbb27c2455726e5,,1,493f0dbf2fbb27c2455726e5
金星派出所社区警务工作站,39.772501,116.41472,北京市大兴区西红门镇黄亦路21号,253bba67a3f21073dbeced11,(010)61285666,1,253bba67a3f21073dbeced11
金星派出所-北门,39.772687,116.414825,黄亦路12号附近,,,1,e858255c92cb2e587c29bda1
