name,lat,lng,adderss,street_id,telephone,detail,uid
绿缘商城,39.736756,116.143193,北京市房山区西潞南大街1号,bc779c13932b5363c7f02571,(010)69360883,1,bc779c13932b5363c7f02571
李宁(华冠商城店),39.741547,116.145974,北京市房山区良乡秋树街38号华冠购物中心F2,,,1,b43f4c647feaa03297031937
新华商城,39.729013,116.157083,北京市房山区鸿顺园西区(良乡大学城西地铁站西),,,1,e7465297b94a949ac4effbab
淘客多一站式购物商城,39.741426,116.147803,北京市房山区楸树街42号附近,,,1,9439455baf7b5dc40c0a7038
国烟国酒商城,39.734816,116.15428,昊天大街177号,,13796279989,1,b5ac20e64471579397ec844b
沃惠商城,39.760589,116.178372,长阳路与阳光北大街交叉口东北200米,,,1,cd61208480d55d6b17948e73
星城商厦,39.736259,116.34565,北京市大兴区兴丰大街185号,37d60a4657e6ce601e1d11fb,(010)69241984,1,37d60a4657e6ce601e1d11fb
菜百首饰(星城商厦店),39.735751,116.344783,北京市大兴区兴丰南大街15号星城商厦1层,7bfa08fc51583e6625d2bb71,(010)69230488,1,7bfa08fc51583e6625d2bb71
三友电脑商城,39.751578,116.34464,北京市大兴区兴丰大街2段-205,,(010)69296725,1,f3419eeff55aa8c81811d557
北京国美大兴一店(星城商厦店),39.736201,116.345585,大兴区黄村镇兴丰南大街18号,431d763e2729db77dbd8917c,(010)69296344,1,431d763e2729db77dbd8917c
北京金都仓储服务中心网上商城,39.752769,116.351946,北京市大兴区S215,a86299c5c5baaf65a3acc48f,,1,a86299c5c5baaf65a3acc48f
屈臣氏(星城商厦店),39.736472,116.345422,北京市大兴区黄村镇兴丰大街15号星城商厦一层,7b10f33f443eaacfb817e721,(010)69259301,1,7b10f33f443eaacfb817e721
兴糖商城,39.727991,116.342026,黄村镇林校北路20号,3f9337d686af18b3f72310fb,,1,3f9337d686af18b3f72310fb
中复电讯(北京帝园商城店),39.737995,116.346382,北京市大兴区黄村镇兴丰大街62号北京帝园商城1层西区,6810ba4883241d17ed74f84d,(010)69242700,1,6810ba4883241d17ed74f84d
戴尔电脑(星城商厦店),39.736134,116.345711,北京市大兴区兴丰大街15号星城商厦F4,,,1,4474b0b9608f1064d6b74e7f
兴集商厦,39.743563,116.345686,富强西里45,d09e7478436c6004336212ba,,1,d09e7478436c6004336212ba
北京阳光起跑线商城,39.74447,116.338523,北京市大兴区新华街27号楼百联清城购物中心2层,,,1,6171712116e65bb2cafa5f02
黄村东大街帝园商城东区,39.737791,116.347644,北京市大兴区兴丰南大街59号,497c077de8dc19a445e27478,(010)69241658,1,497c077de8dc19a445e27478
星城商厦-一层小百货,39.73567,116.344891,北京市大兴区商场南巷,005b93819eea56674afc8dd5,,1,005b93819eea56674afc8dd5
菜百首饰(星城商厦店),39.735993,116.345529,北京市大兴区兴丰大街15号星城商厦F1,16587d2a32692c7d38221cca,,1,16587d2a32692c7d38221cca
金都建材网上商城-B区,39.752704,116.353088,柳林路与柳林路一巷交叉口东南100米,78f1e9af0d06790cad080f87,,1,78f1e9af0d06790cad080f87
361度(帝园商城店),39.737791,116.351431,北京市大兴区东大街1-8附近,5fa2f1cf9b592510cc06a48c,,1,5fa2f1cf9b592510cc06a48c
博士眼镜(北京帝园商城店),39.737671,116.347587,黄村兴丰大街62号帝园商城(黄村东大街)1层,7d7342dd4a0c0b2dc9c3db00,,1,7d7342dd4a0c0b2dc9c3db00
华福烟酒商城,39.7435,116.332447,富强路171,0f120c18b4764e8ce607389f,(010)69243091,1,0f120c18b4764e8ce607389f
贯强蓄电池商城,39.738616,116.332834,北京市大兴区黄村兴业大街三合南里22号,fb63bd3c8dc4560386420ed8,(010)89295922,1,fb63bd3c8dc4560386420ed8
goldlion(大兴星城商厦店),39.7363,116.345403,兴丰大街三段185号星城商厦F3层,,,1,39de8aec62230ca0d7851f66
雅戈尔(星城商厦店),39.736169,116.345403,北京市大兴区兴丰大街15号星城商厦F3,,,1,14d770a3d44fb96443e1922b
李宁(星城商厦店),39.736826,116.345732,北京市大兴区兴丰大街15号星城商厦F1,c46e609030821f0d4afc8d15,18911264650,1,c46e609030821f0d4afc8d15
流行美(星城商厦店),39.73615,116.345511,北京市大兴区兴丰大街15号星城商厦F2,d512d6fcadfecb8590114cf3,(010)69241984,1,d512d6fcadfecb8590114cf3
阿迪达斯(星城商厦店),39.735836,116.345656,北京市大兴区兴丰大街15号星城商厦B1,8f54973545ac8acfc27da213,4009995999,1,8f54973545ac8acfc27da213
美特斯邦威(星城商厦店),39.735748,116.345478,北京市大兴区兴丰大街15号星城商厦F2,37d2aa2a38d3e4a0eb56fa5b,4008000709,1,37d2aa2a38d3e4a0eb56fa5b
李宁(星城商厦店),39.735899,116.345387,北京市大兴区兴丰大街15号星城商厦B1,dd425d12788042019d9d683a,,1,dd425d12788042019d9d683a
天梭授权专卖店(北京大兴星城商厦店),39.736178,116.345787,北京市大兴区兴丰南大街15号北京大兴星城一层钟表组,,(010)69225827,1,e2f2d7dad55a8810b9df8f9a
AUPRES(星城商厦店),39.736245,116.345716,北京市大兴区兴丰大街15号星城商厦F1,02538b839f4dec4bbda24084,,1,02538b839f4dec4bbda24084
星城烟酒(大兴星城商厦店),39.736095,116.345552,北京市大兴区兴丰大街15号星城商厦F1,7176229bd1879d18aecb6696,,1,7176229bd1879d18aecb6696
小护士(星城商厦店),39.736422,116.345608,北京市大兴区兴丰大街15号星城商厦F3,9b78eeda00a8f4695bf6be93,,1,9b78eeda00a8f4695bf6be93
罗丽丝(星城商厦店),39.736788,116.345732,北京市大兴区兴丰大街15号星城商厦F1,e490fb2951f81e066c476000,,1,e490fb2951f81e066c476000
靓莱莎(星城商厦店),39.736393,116.345698,北京市大兴区兴丰大街15号星城商厦F2,bdb97f7753ad4e8931870a82,,1,bdb97f7753ad4e8931870a82
美的(帝园商城店),39.737654,116.347772,黄村东大街37号大中电器2层,39d73f0224c5b16190114ccb,,1,39d73f0224c5b16190114ccb
森马(星城商厦店),39.736475,116.345489,北京市大兴区兴丰大街15号星城商厦F2,574782def49fabeab75f1e4e,4008877588,1,574782def49fabeab75f1e4e
千佰莉(帝园商城店),39.736066,116.348301,北京市大兴区黄村东大街43号帝园商城2层,deac567accbd54cf4f6d4625,,1,deac567accbd54cf4f6d4625
Avene(星城商厦店),39.736364,116.345671,北京市大兴区兴丰大街15号星城商厦F1,13deba571e152e796cc02cad,,1,13deba571e152e796cc02cad
ONLY(星城商厦店),39.736199,116.345403,北京市大兴区兴丰大街15号星城商厦F2,6e1cb5362f754b2e43afe648,,1,6e1cb5362f754b2e43afe648
烟酒茶超市(清源路店),39.752374,116.321021,北京市大兴区黄村圣和巷8号院5号楼1层,bb0ea7bdd03c56ea8a36ee38,(010)57127266,1,bb0ea7bdd03c56ea8a36ee38
步步高(星城商厦店),39.736425,116.345745,北京市大兴区兴丰大街15号星城商厦1楼,d464d96225ff92184354d737,,1,d464d96225ff92184354d737
Cache Cache(帝园商城店),39.737791,116.347426,大兴区黄村东大街43号帝园商城1楼,a0dde943a88d2df33a13fde3,15911132620,1,a0dde943a88d2df33a13fde3
杉杉(星城商厦店),39.736497,116.345686,北京市大兴区兴丰大街15号星城商厦F3,dfacfe2f21d580b6ef74f82c,,1,dfacfe2f21d580b6ef74f82c
费罗伦沙(星城商厦店),39.736255,116.345662,北京市大兴区兴丰大街15号星城商厦F3,febe952f43284dbe6140a94d,,1,febe952f43284dbe6140a94d
CC&DD(星城商厦店),39.736299,116.345401,北京市大兴区兴丰大街15号星城商厦F2,0ee7c617d5be48f50782c2c2,,1,0ee7c617d5be48f50782c2c2
烟酒茶超市,39.730982,116.300624,北京市大兴区佟前路,a39119f243e22fe688f15dfd,,1,a39119f243e22fe688f15dfd
樊文花(星城商厦店),39.736365,116.345771,北京市大兴区兴丰大街15号星城商厦F1,eba123198668c5011df74dc5,,1,eba123198668c5011df74dc5
pierre cardin(星城商厦店),39.736371,116.345608,北京市大兴区兴丰大街15号星城商厦F3,9741bc1873d35657b54f5481,,1,9741bc1873d35657b54f5481
领秀·梦舒雅(星城商厦店),39.736281,116.345809,北京市大兴区兴丰大街15号星城商厦F2,a71f766e40e329e783a12ec8,,1,a71f766e40e329e783a12ec8
自然堂(星城商厦店),39.736304,116.345642,北京市大兴区兴丰大街15号星城商厦F1,312f835a17e793beb1077dbb,4008882788,1,312f835a17e793beb1077dbb
百思图(星城商厦店),39.735847,116.345605,北京市大兴区兴丰大街15号星城商厦F3,3537c5f2e2ba51a64251c03e,18510918903,1,3537c5f2e2ba51a64251c03e
婷美(星城商厦店),39.736355,116.345519,北京市大兴区兴丰大街15号星城商厦F2,198c47855406ab2fcb1b9519,,1,198c47855406ab2fcb1b9519
猫(星城商厦店),39.736075,116.345687,北京市大兴区兴丰大街15号星城商厦F3,,,1,d3c7ad0970476ad4364aae67
烟酒茶,39.741585,116.350326,北京市大兴区龙河路95号,4efb019cbd31381ded74f88b,13439043666,1,edccd4841924e6840bccdd81
红蜻蜓(星城商厦店),39.735947,116.345422,北京市大兴区兴丰大街15号星城商厦F3,a775056282417f4652e5c566,(010)67998888,1,a775056282417f4652e5c566
骆驼(星城商厦店),39.736031,116.345541,北京市大兴区兴丰大街15号星城商厦F3,,,1,53c2d92a56ff5ab4077ce87a
NIANJEEP(星城商厦店),39.736164,116.34563,兴丰大街185号星城商厦3层,,,1,08b3e0ea89bc50bc31870adf
品牌手机商城(火神庙国际商业中心店),39.737192,116.34561,北京市大兴区黄村西大街2,2c64dbe201982595d7851f34,,1,2c64dbe201982595d7851f34
ANTA SPORTS(帝园商城店),39.73728,116.347781,黄村东大街58号,,,1,a37c0507ae00d48a42d63e3f
美丽衣橱(星城商厦店),39.735979,116.345762,北京市大兴区兴丰大街15号星城商厦F2,a079de983d70f6cd78f79622,,1,a079de983d70f6cd78f79622
卡姿兰(星城商厦店),39.736245,116.34559,北京市大兴区兴丰大街15号星城商厦F1,ef95e4c5d7256baf58109399,,1,ef95e4c5d7256baf58109399
L'ALPINA(星城商厦店),39.736299,116.345657,北京市大兴区兴丰大街15号星城商厦F3,fd859f1b223a0b319122e0df,,1,fd859f1b223a0b319122e0df
Ancient Car(星城商厦店),39.735855,116.345541,北京市大兴区兴丰大街15号星城商厦F3,3a9178c76ea3d19aacee7ac7,,1,3a9178c76ea3d19aacee7ac7
雅诗丽兰(星城商厦店),39.736482,116.345669,北京市大兴区兴丰大街15号星城商厦F2,3ecc50a0acd5519debe58229,,1,3ecc50a0acd5519debe58229
银头马男裤(星城商厦店),39.736202,116.345576,北京市大兴区兴丰大街15号星城商厦F3,3498beb8fcd50dbff119378d,,1,3498beb8fcd50dbff119378d
纽巴伦(星城商厦店),39.736095,116.345526,北京市大兴区兴丰大街15号星城商厦B1,de7f96a71089081714948e19,,1,de7f96a71089081714948e19
来电(呷哺呷哺大兴星城商厦店),39.736634,116.345915,北京市大兴区黄村镇兴丰大街三段185号星城商厦B1层2号,,,1,c115b383829b74733f9a5ea5
goildlion(星城商厦),39.736053,116.345621,兴丰大街三段185号F4层,f665c2f6a926cbbcd618b71b,,1,f665c2f6a926cbbcd618b71b
KAMA(星城商厦),39.735935,116.345549,北京市大兴区兴丰大街三段185号星城商厦F2层,a319e97c579b9161c6f025bf,,1,a319e97c579b9161c6f025bf
烟酒茶商城大兴烟草配送,39.751224,116.344209,兴丰大街路口西100米,b48e848e636875901e1d1188,(010)89294239,1,b48e848e636875901e1d1188
K.S.CAT(大兴星城商厦店),39.736292,116.345985,兴丰大街三段185号大兴星城商厦3层,,,1,44568927a5af1efbb6f42f06
烟酒茶,39.723868,116.360011,北京市大兴区,74f9a09d2684d2c23417dc80,(010)61244243,1,74f9a09d2684d2c23417dc80
沱澜(星城商厦店),39.73615,116.345624,北京市大兴区兴丰大街15号星城商厦F2,,,1,c4aa0fe87a01bd24e3110385
SAT&Date(星城商厦店),39.735745,116.345652,北京市大兴区兴丰大街15号星城商厦F3,1edde4697197f696a8f0cd10,,1,1edde4697197f696a8f0cd10
模卡(星城商厦店),39.735834,116.345537,北京市大兴区兴丰大街15号星城商厦F2,,,1,a9bb8b08605067200582c2ce
JackJones男装店(星城商厦店),39.735888,116.34541,北京市大兴区兴丰大街15号星城商厦F2,e9634a9626a9135cbb17e705,,1,e9634a9626a9135cbb17e705
述忘女装(星城商厦店),39.736355,116.345644,北京市大兴区兴丰大街15号星城商厦F2,9fac42c1d90ab1bd95ca0727,,1,9fac42c1d90ab1bd95ca0727
森达香港鞋业(星城商厦店),39.735905,116.345541,北京市大兴区兴丰大街15号星城商厦F3,,,1,7f16cc0e3d3899d56ca3cc7f
红熙(星城商厦店),39.735896,116.345422,北京市大兴区兴丰大街15号星城商厦F3,,,1,e2f1558d1d0b176240e1925d
洛熙熙(星城商厦店),39.736355,116.345698,北京市大兴区兴丰大街15号星城商厦F2,,,1,9fc7e42fc978df9fc51b75af
威佳丽(星城商厦店),39.736393,116.345713,北京市大兴区兴丰大街15号星城商厦F2,b4135e4ffe11d718a5da3975,,1,b4135e4ffe11d718a5da3975
SIKAILUN(星城商厦店),39.736065,116.34565,北京市大兴区兴丰大街15号星城商厦B1,,,1,fd7697da2885d373081cc7e6
雪莱鑫(星城商厦店),39.736409,116.345799,北京市大兴区兴丰大街15号星城商厦F2,bb903c2af7e80be3f32d8389,,1,bb903c2af7e80be3f32d8389
皇家盛世围巾饰品(星城商厦店),39.736129,116.345419,北京市大兴区兴丰大街15号星城商厦F2,1c824aa9d5a3f2843b221cf3,,1,1c824aa9d5a3f2843b221cf3
烟酒商城,39.737494,116.33316,北京市大兴区黄村西大街103号,a070e506fc14d9bf35b06c1b,,1,a070e506fc14d9bf35b06c1b
M2(星城商厦店),39.736482,116.3456,北京市大兴区兴丰大街15号星城商厦F2,b0181aeeef560d3503ec014f,,1,b0181aeeef560d3503ec014f
meisee(星城商厦店),39.736355,116.345572,北京市大兴区兴丰大街15号星城商厦F2,,,1,999d32bdc048d7324154d74e
青鹏布鞋(星城商厦店),39.73577,116.345359,北京市大兴区兴丰大街15号星城商厦F3,354de1efd03239347ab55c24,,1,354de1efd03239347ab55c24
东洲莉娅(星城商厦店),39.736393,116.345519,北京市大兴区兴丰大街15号星城商厦F2,814e9e51888a874226e0a087,,1,814e9e51888a874226e0a087
J.WON(星城商厦店),39.735748,116.345446,北京市大兴区兴丰大街15号星城商厦F3,,,1,37d2903bdd9c370df33cba8d
AIMASHIDENG(星城商厦店),39.736008,116.34562,北京市大兴区兴丰大街15号星城商厦F2,d8f741f5b2bee9c49e09f77b,,1,d8f741f5b2bee9c49e09f77b
韩束(星城商厦店),39.736257,116.34558,北京市大兴区兴丰大街15号星城商厦F1,a8ab92fec7fa8cc581288a21,,1,a8ab92fec7fa8cc581288a21
纽玛克(星城商厦店),39.736129,116.345419,北京市大兴区兴丰大街15号星城商厦F2,,,1,aaae4818f2ecfd399cf7794a
AISASSA(星城商厦店),39.73616,116.345452,北京市大兴区兴丰大街15号星城商厦B1,e265094d215c87b72efaa7a9,,1,e265094d215c87b72efaa7a9
莎碧昵(星城商厦店),39.736291,116.345644,北京市大兴区兴丰大街185号星城商厦F2,6a6f2157cfa4757ea8f0cd17,,1,6a6f2157cfa4757ea8f0cd17
彼尔唯尊(星城商厦店),39.736299,116.345809,北京市大兴区兴丰大街15号星城商厦F3,,,1,4f93dafc1d1d20ed5fbe8653
阿曼妮(星城商厦店),39.735971,116.345605,北京市大兴区兴丰大街15号星城商厦F3,2832cc623a99f44dfbdc852e,13466551055,1,2832cc623a99f44dfbdc852e
冰蚕(星城商厦店),39.736291,116.345543,北京市大兴区兴丰大街15号星城商厦F2,d338449f98efbc7d220262cd,,1,d338449f98efbc7d220262cd
BB.MIQI(星城商厦店),39.736145,116.345657,北京市大兴区兴丰大街15号星城商厦F3,22a6dbaf3c494cac9ff7798b,,1,22a6dbaf3c494cac9ff7798b
丹迪兰(星城商厦店),39.736292,116.345519,北京市大兴区兴丰大街15号星城商厦F2,b259955e584bfa7ba1d230bd,,1,b259955e584bfa7ba1d230bd
贵人鸟体育(帝园商城店),39.735301,116.34941,北京市大兴区黄村东大街火神庙国际商业中心D座B1层,bc3af4b2f6cc6e3eca09f0e4,,1,bc3af4b2f6cc6e3eca09f0e4
BOREL(星城商厦),39.736134,116.345885,北京市大兴区兴丰大街15号星城商厦1层,3c7e42ed6e1ba16ed92f2887,,1,3c7e42ed6e1ba16ed92f2887
虎都西裤(星城商厦),39.736297,116.345637,兴丰大街三段185号F3层,6c3e3519222a64349022e05c,,1,6c3e3519222a64349022e05c
ortilivi(星城商厦),39.735945,116.345877,兴丰大街三段185号星城商厦F4层,,,1,883b43f4e188d8080aa8d4f6
WEIPENG(星城商厦),39.736362,116.345663,兴丰大街三段185号F2层,8209faaed17d8898f02d8350,,1,8209faaed17d8898f02d8350
LAOYECHE(星城商厦),39.73649,116.345778,兴丰大街三段185号F3层,6c7d2fc42395bb62a2a934e8,,1,6c7d2fc42395bb62a2a934e8
双星(帝园商城店),39.737676,116.34785,黄村东大街43号帝园商城1层,,,1,4124dbcdfc9ebea645572687
MEISTO(大兴星城商厦店),39.736068,116.345458,北京市大兴区兴丰大街三段185号大兴星城商厦3层,,,1,111c8d56a8896e573617dc06
天域久牧羊(星城商厦店),39.736371,116.345686,兴丰大街185号星城商厦3层,,,1,9c4121bb4bcca7d00b69d9de
POLIO(星城商厦),39.736371,116.3456,兴丰大街三段185号F4层,4e929d24b64c6ee9d4851f44,,1,4e929d24b64c6ee9d4851f44
新华商城(圣和巷),39.753126,116.319007,北京市大兴区康乃馨城南门24号楼1单元101,,,1,1641bf533c3f5fb242d63eda
恒源商厦,39.815037,116.161104,北京市丰台区福宫路3号,f446091863c1de73b11e3661,,1,f446091863c1de73b11e3661
匹克(恒源商厦店),39.814988,116.16097,北京市丰台区王佐镇福宫路3号恒源商厦F4,17ba059b6ea52a87ca09f03f,,1,17ba059b6ea52a87ca09f03f
天美意(恒源商厦店),39.815037,116.160967,北京市丰台区王佐镇南宫商业街3号恒源商厦F1,9bed24c0a4bed9239a68b4e1,(010)83310328,1,9bed24c0a4bed9239a68b4e1
老凤祥银楼(恒源商厦店),39.815203,116.161244,北京市丰台区王佐镇福宫路3号恒源商厦F1,57e2ca3f13e5567c88b98849,,1,57e2ca3f13e5567c88b98849
老银匠(恒源商厦店),39.815146,116.161158,北京市丰台区王佐镇福宫路3号恒源商厦F1,5e53af1aa8f2c6464151c063,15313837243,1,5e53af1aa8f2c6464151c063
耐克(恒源商厦店),39.815022,116.160868,北京市丰台区王佐镇福宫路3号恒源商厦F2,de6c63f975ce416c715e809f,4008806453,1,de6c63f975ce416c715e809f
王子密码(恒源商厦店),39.814863,116.161122,北京市丰台区王佐镇福宫路3号恒源商厦F2,90bbf061f667d98ae8e58282,,1,90bbf061f667d98ae8e58282
周大生(恒源商厦店),39.815201,116.161157,北京市丰台区王佐镇福宫路3号恒源商厦F1,,,1,35173eeebb93854f95ca0783
李宁(恒源商厦店),39.815109,116.161098,北京市丰台区王佐镇福宫路3号恒源商厦F4,99e860121c21e174f423107f,18610133988,1,99e860121c21e174f423107f
欧莱雅(恒源商厦店),39.815019,116.161239,北京市丰台区王佐镇福宫路3号恒源商厦F1,606acb213df60a67eaf85350,4008215098,1,606acb213df60a67eaf85350
唐狮(恒源商厦店),39.814862,116.16104,北京市丰台区王佐镇福宫路3号恒源商厦F2,79fbc32f511a06e2d23ce343,,1,79fbc32f511a06e2d23ce343
千佰莉(恒源商厦店),39.814953,116.161099,北京市丰台区王佐镇福宫路3号恒源商厦F1,,,1,f288994f81d2be35a80dd827
鳄鱼恤(恒源商厦店),39.815185,116.160952,北京市丰台区王佐镇福宫路3号恒源商厦F3,4cbffd18d6e1503e8c1a8934,,1,4cbffd18d6e1503e8c1a8934
韩束(恒源商厦店),39.814983,116.161177,北京市丰台区王佐镇福宫路3号恒源商厦F1,,,1,0a4dee3c729fa0df2ce67b2c
金店(恒源商厦店),39.815189,116.161306,北京市丰台区王佐镇福宫路3号恒源商厦F1,451bf7630d48e17288f15df7,,1,451bf7630d48e17288f15df7
金利来(恒源商厦店),39.8152,116.160948,北京市丰台区王佐镇福宫路3号恒源商厦F1,d6f32bd338d2a6b9f6b916b2,,1,a7a3429115299d7f980050af
贵人鸟体育(恒源商厦店),39.814896,116.161287,北京市丰台区王佐镇福宫路3号恒源商厦F4,b9902ef3004459e7d0f49e90,,1,b9902ef3004459e7d0f49e90
雷蒙(恒源商厦店),39.815187,116.161116,北京市丰台区王佐镇福宫路3号恒源商厦F3,7e06dff83284402faecb663a,,1,7e06dff83284402faecb663a
哈咪奇(恒源商厦店),39.814995,116.161284,北京市丰台区王佐镇福宫路3号恒源商厦F3,b9f3b38b2aba8c527402696c,,1,b9f3b38b2aba8c527402696c
Paul Frank(恒源商厦店),39.814988,116.16097,北京市丰台区王佐镇福宫路3号恒源商厦F2,,,1,ca388d9efbca1f06d72ce2af
绅士(恒源商厦店),39.815127,116.16093,北京市丰台区王佐镇福宫路3号恒源商厦F3,,,1,d2aeb19ba4f8f6a6714b8756
好人缘(恒源商厦店),39.815145,116.161083,北京市丰台区王佐镇福宫路3号恒源商厦F1,,,1,8bc9e84e500089b388b9884e
福顺祥(恒源商厦店),39.814852,116.161218,北京市丰台区王佐镇福宫路3号恒源商厦F1,,,1,3057da33a9610ac5fda77866
埃古(恒源商厦店),39.814988,116.161183,北京市丰台区王佐镇福宫路3号恒源商厦F2,88b97590b314fe7df60e7734,,1,88b97590b314fe7df60e7734
桑扶兰(恒源商厦店),39.814867,116.161283,北京市丰台区王佐镇福宫路3号恒源商厦F3,4d82e1dddf6b00af4d776ea1,,1,4d82e1dddf6b00af4d776ea1
新百伦领跑(恒源商厦店),39.815053,116.161184,北京市丰台区王佐镇福宫路3号恒源商厦F4,e2e6256473cc8d23744ff117,,1,e2e6256473cc8d23744ff117
红诗缇(恒源商厦店),39.814909,116.161081,北京市丰台区王佐镇福宫路3号恒源商厦F1,,,1,b201431d44e991523617dcd4
自动售货机(恒源商厦店),39.815143,116.161293,北京市丰台区王佐镇福宫路3号恒源商厦F1,,,1,7ea0487d87985a0233621223
卓尔贝洛妮(恒源商厦店),39.814908,116.160995,北京市丰台区王佐镇福宫路3号恒源商厦F1,,,1,1d36ecf563dff7be8f55ec74
Embry Form(恒源商厦店),39.814932,116.161285,北京市丰台区王佐镇福宫路3号恒源商厦F3,,,1,45032b79fc638d1d33169b30
圣大保罗(恒源商厦店),39.814909,116.161159,北京市丰台区王佐镇福宫路3号恒源商厦F1,e0269359514f20adee74f866,,1,e0269359514f20adee74f866
鸭鸭(恒源商厦店),39.814863,116.161122,北京市丰台区王佐镇福宫路3号恒源商厦F4,,,1,bcb05cfaa8871d63c056ac63
百思图(恒源商厦店),39.814925,116.160869,北京市丰台区王佐镇福宫路3号恒源商厦F1,d06ae11ed4b840edf12d834d,(010)83310308,1,d06ae11ed4b840edf12d834d
金古绮(恒源商厦店),39.814863,116.161122,北京市丰台区王佐镇福宫路3号恒源商厦F3,07f2843be2aaa18df42310e3,,1,07f2843be2aaa18df42310e3
鼎昌珠宝(恒源商厦店),39.815201,116.161157,北京市丰台区王佐镇福宫路3号恒源商厦F1,7fc04b0bfd23869afb221332,,1,7fc04b0bfd23869afb221332
ABC KIDS(恒源商厦店),39.814988,116.161183,北京市丰台区王佐镇福宫路3号恒源商厦F3,9f2e409885450e521d1d11f2,,1,9f2e409885450e521d1d11f2
诺琳兰(恒源商厦店),39.814993,116.160869,北京市丰台区王佐镇福宫路3号恒源商厦F3,,,1,653c3f997053a8969cec2bea
北京同仁堂化妆品(恒源商厦店),39.815089,116.161238,北京市丰台区王佐镇福宫路3号恒源商厦F1,9c4ffdaa650a79923b221c05,,1,9c4ffdaa650a79923b221c05
PLOVER(恒源商厦店),39.815022,116.161043,王佐镇福宫路3号恒源商厦F2(近南宫休闲广场),,,1,7f937a06294fb157e115f9c4
中国电信手机商城,39.788451,116.295292,狼垡商业街29号附近,,,1,12ca4a852baeac919222e0b7
元香烟酒茶商城,39.787486,116.294267,北京市大兴区花乡狼垡东路长丰园二区,23b1b68d66b3bcdbc91b95aa,13269500588,1,23b1b68d66b3bcdbc91b95aa
益智发商城,39.812953,116.346219,北京市丰台区知春路益智发商城B1层,53349ee347f24f77230262ad,13020005317,1,53349ee347f24f77230262ad
厚德茗茶烟酒商城,39.769643,116.354962,北京市大兴区金星路15号,991070b903a63e15bca82213,(010)60297780,1,991070b903a63e15bca82213
小马烟酒商城(西红门旗舰店),39.797606,116.345035,西红门欣旺北大街131号(工商银行隔壁),80e1df8426e5d6e5f2193759,13691291718,1,80e1df8426e5d6e5f2193759
维德烟酒商城,39.796691,116.351234,北京市大兴区鸿坤·新都荟A1座(鸿坤·理想城南),721fdccbf4ad1fb27069d390,,1,721fdccbf4ad1fb27069d390
康庄烟酒商城,39.763233,116.332441,康和园162楼-8,ede17eb3a159637be5e96508,(010)60238482,1,ede17eb3a159637be5e96508
鸿福烟酒商城,39.801819,116.351943,北京市大兴区西红门理想城欣荣北大街18-1,85150713a2a663fe6ec02c8c,,1,85150713a2a663fe6ec02c8c
国宏商城NO.1067,39.772959,116.319838,北京市大兴区乐园路29号院20号楼1层101,9fca0a9a55d23376f7b9160f,,1,9fca0a9a55d23376f7b9160f
哎呦运动商城,39.772119,116.341155,高米店南绿地兴贸中心,72dbcfecd70561ae21026265,,1,72dbcfecd70561ae21026265
新天家商城,39.853308,116.21658,周口店路与园博大道交叉口东150米,,,1,3225e89a8d9836423b221c2c
文玩珠宝商城,39.83783,116.294303,北京市丰台区航丰路1号(富丰桥南)时代财富天地,,,1,c3c947cfb9ad5d0e36b06c11
淘宝商城,39.845233,116.283725,看丹路甲2号附近,,,1,30b91e4839ea3ac08b2fb54d
居家百货商城,39.846386,116.289623,丰台街道看丹桥看丹路29号,,,1,7efbca6efdde3f2bddee8b66
赋霖商厦,39.857571,116.33813,北京市丰台区南三环西路91号,73db0038e0ea08f3e115f930,(010)83509766,1,bb620919191dde4a96ca075a
新时特商城,39.854453,116.326547,北京市丰台区育芳园19号,3f4e2f68face6644bd4842bc,,1,3f4e2f68face6644bd4842bc
今日草桥商城,39.852243,116.357396,北京市丰台区镇国寺北街,,18510899812,1,ddb19fcc78cd463688f15dfc
山西农产品商城,39.823524,116.349527,新发地蔬菜市场,,,1,9eecde40d8527439c9e33ca6
汽车之家车商城,39.834946,116.355312,北京市丰台区京开路辅路,,,1,fcb70cec4656cd5190114c39
新华商城,39.856833,116.33956,北京市丰台区宝隆大厦底商110,6aa247bda3d7a632cac3dbae,,1,6aa247bda3d7a632cac3dbae
烟酒茶超市(三环新城店),39.856918,116.316078,北京市丰台区丰桥路6号院2号楼甲3-67,39d43f82786bcd86a8059d29,13552035980,1,39d43f82786bcd86a8059d29
永兴嘉园商城,39.919436,116.119769,北京市门头沟区永兴小区15号楼,cd9d05ddfbc8feb685420e09,,1,cd9d05ddfbc8feb685420e09
永兴商城电脑店,39.919436,116.119767,门头沟区永定镇永兴嘉园商城一层内,,,1,3731be33351e676f2cb96dc8
大中电器(华联商厦店),39.912314,116.227078,北京市石景山区石景山路22号华联商厦F1,033061b8ea3551c922026254,"(010)88849555,(010)56084780",1,033061b8ea3551c922026254
德义兴商城,39.916699,116.195939,北京市石景山区古城南路48号,4a63fc64bf77f894102935c7,(010)68878044,1,4a63fc64bf77f894102935c7
ao2(华联商厦石景山店),39.912066,116.226849,北京市石景山区石景山路22号华联商厦F2,588349c8040e47eab2077d05,,1,588349c8040e47eab2077d05
名创优品(当代商城店),39.931255,116.202895,北京市石景山区阜石路165号当代商城(鼎城店)B1,,,1,6672c0b6d991014d6d20b9dd
北京稻香村(当代商城店),39.931415,116.202814,北京市石景山区阜石路165号当代商城(鼎城店)B1,,,1,061d1f603b748212bb17e7fc
广联惠民超市(京城商厦店),39.926011,116.21452,北京市石景山区八角东路12号,,,1,b9d7bcb2655afd8a6cc02cc1
屈臣氏(当代商城店),39.931238,116.202735,北京市石景山区阜石路165号当代商场地下一层,cc1b2d4318dc2363364aaed1,(010)88939174,1,cc1b2d4318dc2363364aaed1
费雪玩具(当代商城店),39.931403,116.202598,北京市石景山区阜石路165号当代商城(鼎城店)F3,,,1,78550c57a22f71415e0d02ce
NIKE(当代商城店),39.931412,116.203203,北京市石景山区阜石路165号当代商城(鼎城店)F5,,,1,650b2e46f4cf2aa26ec02c9a
特百惠(当代商城店),39.931317,116.202823,北京市石景山区阜石路165号当代商城(鼎城店)B1,2e371d632a8c94af230220a4,,1,2e371d632a8c94af230220a4
明亮视明眼镜(京城商厦店),39.926112,116.214144,八角东街12号建西苑中里1号楼负1广联惠民超市,,13520150538,1,100d46d826c87531276e984d
老凤祥银楼(当代商城店),39.93147,116.2028,北京市石景山区阜石路165号当代商城(鼎城店)F1,6bd58017e276be75b72655fe,,1,6bd58017e276be75b72655fe
天王表(当代商城店),39.931219,116.202824,北京市石景山区阜石路165号当代商城F1,35ff621fecff274b41d63eae,,1,35ff621fecff274b41d63eae
金利来(当代商城鼎城店),39.931329,116.202757,阜石路165号F2层,7858eabedc6c58e897ec8473,,1,7858eabedc6c58e897ec8473
小冰熊(华联商厦),39.912218,116.226102,北京市石景山区石景山路22号华联商厦F4层,94a3e044d0c610949fec2bb8,,1,94a3e044d0c610949fec2bb8
步瀛斋(当代商城鼎城店),39.931291,116.202268,阜石路165号F1层,14a74889999398cdf5c59c1b,(010)88939283,1,14a74889999398cdf5c59c1b
crocs(当代商城店),39.931403,116.202411,北京市石景山区阜石路165号当代商城(鼎城店)F1,1ac828eff4b70f241b94c6b6,,1,1ac828eff4b70f241b94c6b6
烟酒糖茶店(当代商城店),39.931371,116.203269,北京市石景山区阜石路165号当代商城B1,,,1,7ed0856169594153a3acc430
雷朋(华联商厦),39.912561,116.226895,石景山路22号长城大厦1层底商北(华联商厦东),,(010)68661774,1,ce06cf7cbf4f0e8279dbd289
红双喜(当代商城鼎城店),39.931235,116.202716,阜石路165号F5层,fc92d06dd5f802ad7f29bdf0,,1,fc92d06dd5f802ad7f29bdf0
雅戈尔(当代商城店),39.931176,116.202972,北京市石景山区阜石路165号当代商城(鼎城店)F4,63b7379cdc98eb38704b8737,,1,63b7379cdc98eb38704b8737
哈森(华联商厦店),39.911932,116.226352,北京市石景山区石景山路22号华联商厦F1,5a4833a72dc8e99eadb22a2c,,1,5a4833a72dc8e99eadb22a2c
启华(华联商厦石景山店),39.912055,116.226711,北京市石景山区石景山路22-6华联商厦(华联商厦东)4层,d4dd303eb5ee9320f50e7754,,1,d4dd303eb5ee9320f50e7754
AUPRES(华联商厦石景山店),39.912178,116.226439,北京市石景山区石景山路22号华联商厦F1,,(010)57712060,1,1abcecf6411eb1684007c15a
巴布豆(华联商厦),39.912126,116.226279,北京市石景山区石景山路22号华联商厦F4,,,1,1953fd032ccac3fcd1ff2306
小天才(当代商城店),39.931425,116.202837,北京市石景山区阜石路165号当代商城F5,,,1,291582bbd2d40a477c29bd31
ESPRIT(当代商城店),39.931434,116.203198,北京市石景山区阜石路165号当代商城(鼎城店)F3,70ac683ba4ab7823ca09f0dc,(010)88939265,1,af07122890ecbc249cf779b6
gb(当代商城店),39.931329,116.202609,北京市石景山区阜石路165号当代商城(鼎城店)F3,f3bc16382c67734f6e20b9b1,,1,f3bc16382c67734f6e20b9b1
Clarks(当代商城店),39.931284,116.20267,北京市石景山区阜石路165号当代商城(鼎城店)F1,ffdd449c78ea5a3dd0ff234a,(010)80231825,1,ffdd449c78ea5a3dd0ff234a
goldlion(当代商城店),39.931283,116.202762,北京市石景山区阜石路165号当代商城(鼎城店)F1,256c25b039451e2ce6e9656c,,1,256c25b039451e2ce6e9656c
皮尔卡丹(当代商城店),39.931316,116.202809,北京市石景山区阜石路165号当代商城(鼎城店)F3,591d0cdfcf6785a6c91b95db,,1,591d0cdfcf6785a6c91b95db
hakgten(华联商厦华联商厦东),39.912028,116.226334,石景山路22号F1层,1efce1ec83fff1cf58f6bed9,,1,1efce1ec83fff1cf58f6bed9
孕之彩(当代商城店),39.931244,116.202609,北京市石景山区阜石路165号当代商城(鼎城店)F3,3a9cda353eebf14f79b55c6c,,1,3a9cda353eebf14f79b55c6c
JOHNSON(当代商城店),39.931258,116.202723,北京市石景山区阜石路165号当代商城(鼎城店)F4,870ca232bc973ae8ea1e9773,,1,870ca232bc973ae8ea1e9773
外贸运动(京城商厦店),39.926112,116.214144,北京市石景山区田村路街道石景山区城区八角街道京成商厦b一层外贸运动店,,,1,d4c570d71583c09a932ca3a5
鄂尔多斯(当代商城店),39.931198,116.202688,北京市石景山区阜石路165号当代商城(鼎城店)F2,de38a7d065a70d082efaa754,4006605599,1,de38a7d065a70d082efaa754
美膳媛(华联商厦),39.912112,116.226467,北京市石景山区石景山路22号华联商厦F1,0ad5fccf0fd85f96f82d6174,,1,0ad5fccf0fd85f96f82d6174
团惠优品(当代商城店),39.931413,116.202979,北京石景山区阜石路165号当代商城B1,,,1,71888c2f133573fd82288a23
eee(当代商城店),39.931322,116.202749,北京市石景山区阜石路165号当代商城F4,2fe3922aa38f55944bcc4a06,,1,2fe3922aa38f55944bcc4a06
爱有梅有(当代商城店),39.931407,116.202213,北京市石景山区阜石路165号当代商城(鼎城店)B1,,,1,1c5293610bd0cd76c17da27d
千佰莉(当代商城鼎城店),39.931447,116.202284,石景山区阜石路165号金鼎商贸区(杨庄路口西北角)当代商城(鼎城店)1层,1fc3f11160bb897b2b201af3,,1,1fc3f11160bb897b2b201af3
虚拟现实体验店(当代商城店),39.931197,116.2029,北京市石景山区阜石路165号当代商城B1,228cf79d07f31ed39d95dee7,,1,228cf79d07f31ed39d95dee7
PLAYBOY(华联商厦),39.912102,116.226649,北京市石景山区石景山路22号华联商厦F1,,(010)58407439,1,3d845b67e395000e631c678d
Hush Puppies(当代商城店),39.931456,116.202949,北京市石景山区阜石路165号当代商城(鼎城店)F3,,,1,d98e04926991768617948e6c
晨曦花艺(当代商城店),39.931325,116.202384,北京市石景山区阜石路165,,,1,3c96b8a9910ae9fc5cbe86ae
虎牌(当代商城店),39.931329,116.202822,北京市石景山区阜石路165号当代商城F5,282b601dd86d4d74fea77848,,1,282b601dd86d4d74fea77848
赛诺(华联商厦),39.911968,116.226579,北京市石景山区石景山路22-6华联商厦(华联商厦东)4层,bd35c5b33098ef2e17c8f60c,,1,bd35c5b33098ef2e17c8f60c
本色人家(华联商厦),39.912072,116.226754,北京市石景山区石景山路22号华联商厦F4,d88b5f994413e16306fef5f2,,1,d88b5f994413e16306fef5f2
浩沙服饰(当代商城鼎城店),39.931264,116.202957,北京市石景山区阜石路165号当代商城(鼎城店)F3,e3a7fd135122544b28b97c2b,,1,e3a7fd135122544b28b97c2b
丽婴房(华联商厦华联商厦东),39.912164,116.226104,北京市石景山区石景山路22华联商厦石景山店4层,4e0f35309bf82827d813189c,4008217600,1,4e0f35309bf82827d813189c
皇室(当代商城店),39.931454,116.202505,北京市石景山区阜石路165号当代商城(鼎城店)F3,,,1,9647b7f1f6a46cf4c0364480
kisscat(当代商城店),39.931334,116.202435,北京市石景山区阜石路165号当代商城(鼎城店)F1,6409f470f408be8476e5b646,15311879735,1,6409f470f408be8476e5b646
Qin&beale(当代商城店),39.931401,116.202763,北京市石景山区阜石路165号当代商城(鼎城店)F1,eee9ece4426cef2a5e17c31d,,1,eee9ece4426cef2a5e17c31d
jigglestudio(当代商城店),39.931196,116.202787,北京市石景山区阜石路165号当代商城(鼎城店)F2,1bd062b8274f32c46e20b9f8,,1,1bd062b8274f32c46e20b9f8
特卖区(当代商城店),39.93141,116.202358,北京市石景山区阜石路165号当代商城B1,,,1,655b64ff12afd9f9b75f1e32
自动售卖机(当代商城店),39.931237,116.203182,北京市石景山区阜石路165号当代商城(鼎城店)B1,,,1,f44a8b9531f803581df74d8b
ILLATION(当代商城店),39.931454,116.203052,北京市石景山区阜石路165号当代商城(鼎城店)F3,,,1,e9f707e287715eb1c61e51bf
GNC(当代商城店),39.931452,116.202588,北京市石景山区阜石路165号当代商城(鼎城店)F1,7436f8399bf8da6088fc069c,,1,7436f8399bf8da6088fc069c
依娜(当代商城店),39.931263,116.202704,北京市石景山区阜石路165号当代商城F3,,,1,6f5c91680b0e88067bf7966b
星期六(当代商城店),39.931405,116.202588,北京市石景山区阜石路165号当代商城F1,6cd3c99303475a9deddfca95,,1,6cd3c99303475a9deddfca95
Embry Form(华联商厦石景山店),39.911942,116.226558,北京市石景山区石景山路22号华联商厦F4,,,1,07440df74c010b433586f4ba
欧迪芬(当代商城店),39.931163,116.202758,北京市石景山区阜石路165号当代商城(鼎城店)F3,47fed8e426b0b61da20464e8,,1,47fed8e426b0b61da20464e8
meacheal(当代商城店),39.931195,116.202891,北京市石景山区阜石路165号当代商城(鼎城店)F2,6ad52bcbf759a76243e19209,,1,6ad52bcbf759a76243e19209
蕾沃尔(当代商城店),39.931251,116.202746,北京石景山区阜石路165号当代商城F3,f78ba464c34bc8e61f1d11a2,,1,f78ba464c34bc8e61f1d11a2
MASFER.SU(当代商城店),39.931305,116.202998,北京市石景山区阜石路165号当代商城(鼎城店)F2,a7214413b74c060ad518b760,,1,a7214413b74c060ad518b760
camori(当代商城鼎城店),39.931483,116.201623,阜石路165号当代商城f1层,,,1,8fb44d67d53c37ef95f08c10
sunlamail(华联商厦华联商厦东),39.911962,116.226612,石景山路22号F1层,ea23890c174012a7128824e7,,1,ea23890c174012a7128824e7
kasier(当代商城鼎城店),39.931394,116.202103,阜石路165号F2层,f7841d004bf5f20b8c1a8948,,1,f7841d004bf5f20b8c1a8948
TRIBECA(当代商城店),39.931373,116.202264,石景山区阜石路165号金鼎商贸区(杨庄路口西北角)当代商城(鼎城店)1层,5863e19d82e5cced07026f7f,15101030531,1,5863e19d82e5cced07026f7f
st&sat(当代商城店),39.931419,116.202572,阜石路165当代商城F1层,2c58e8143689046f82a12ecd,,1,2c58e8143689046f82a12ecd
zomily(华联商厦华联商厦东),39.912166,116.22627,北京市石景山区石景山路22号华联商厦F2层,dc8355291771e6e2c9e33c4b,,1,dc8355291771e6e2c9e33c4b
sab(当代商城鼎城店),39.931266,116.201954,北京市石景山区阜石路165号当代商城f1层,,,1,f0a64340cdb3e93f081cc7e7
COMOMI(当代商城),39.931468,116.202493,北京市石景山区阜石路165当代商城F1层,,,1,32898f6b3f4d4e1f41d63ed7
viva(华联商厦华联商厦东),39.912261,116.226486,石景山路22号F2层,cfecb14c4017d9554251c015,,1,cfecb14c4017d9554251c015
自动售货机(当代商城店),39.931483,116.202843,北京市石景山区阜石路165号当代商城(鼎城店)F2,,,1,db256081dfe564f2373a71c8
tomhuncn(当代商城鼎城店),39.93146,116.202567,阜石路165号F4层,edbdb511cdbeae2e7ec8767e,,1,edbdb511cdbeae2e7ec8767e
古今(华联商厦),39.912033,116.226387,北京市石景山区石景山路22号华联商厦F2,,,1,4b763ccf8109634a2ffaa7a5
goldlion shoes(当代商城店),39.931322,116.202749,北京市石景山区阜石路165号当代商城(鼎城店)F4,2b5faf384943d56a8bdb7343,,1,2b5faf384943d56a8bdb7343
赛维利奥利蒙(当代商城店),39.9314,116.203068,北京市石景山区阜石路165号当代商城(鼎城店)F4,,,1,5df4e9057a5cf2af7adbd2e3
Paw in Paw(当代商城店),39.931475,116.202374,北京市石景山区阜石路165号当代商城(鼎城店)F3,7234aba8b8524563fbf0cbc0,,1,7234aba8b8524563fbf0cbc0
皮皮狗(当代商城店),39.931317,116.202746,北京市石景山区阜石路165号当代商城(鼎城店)F3,e9dd6ed68f3fa20dede4a5cf,,1,9d7df7c7f7e46bc5223bf259
salimbeni(当代商城鼎城店),39.931439,116.202696,阜石路165号F4层,b5b3e6ca78eb965158f6be23,,1,b5b3e6ca78eb965158f6be23
简兮(当代商城店),39.931315,116.202744,北京市石景山区阜石路165号当代商城(鼎城店)F2,938aa6e0bf90885375e5b6ff,,1,938aa6e0bf90885375e5b6ff
赛诺(当代商城店),39.93124,116.202765,北京市石景山区阜石路165号当代商城F5,bb3eb79c8d910ec6adcb661b,,1,bb3eb79c8d910ec6adcb661b
茜央娜迪(华联商厦华联商厦东),39.912231,116.22646,北京市石景山区石景山路22号华联商厦F2,,,1,cd129611214310756f4760a2
ucla(当代商城店),39.931401,116.202551,北京市石景山区阜石路165号当代商城(鼎城店)F4,695799e403e2aeedd7851f94,(010)88939277,1,695799e403e2aeedd7851f94
ESPORT(当代商城鼎城店),39.931399,116.201851,阜石路165号F5层,1fd7a2e2714003da29fc4864,,1,1fd7a2e2714003da29fc4864
兆君(当代商城),39.93125,116.202809,阜石路165当代商城F3层,,,1,e36dbabfd8e244eeda2f28ee
PARKER(当代商城),39.93142,116.202472,北京市石景山区阜石路165当代商城F3层,,,1,cc4d647fb8c8f74117c8f618
梦丽卡丹(当代商城店),39.931447,116.202284,阜石路165号当代商城1层,a7d14dcd7a396faa90114cbc,,1,a7d14dcd7a396faa90114cbc
安奈儿(当代商城店),39.931331,116.202535,北京市石景山区阜石路165号当代商城(鼎城店)F3,76e5e02298a970bbc5effbf8,,1,76e5e02298a970bbc5effbf8
BOSSSUNWEN(当代商城店),39.931255,116.202882,北京市石景山区阜石路165号当代商城F4,f16226a3e27a0970b6f42f42,,1,f16226a3e27a0970b6f42f42
罗威妮(华联商厦),39.912176,116.226359,北京市石景山区石景山路22号华联商厦F1,4b07448b7ea9739194ec84f0,,1,4b07448b7ea9739194ec84f0
satchi2(当代商城店),39.931256,116.202829,北京市石景山区阜石路165号当代商城F4,a7b7dd8e57bd1a13afcb6682,,1,a7b7dd8e57bd1a13afcb6682
欣姿芳(当代商城店),39.931162,116.202807,北京市石景山区阜石路165号当代商城(鼎城店)F3,aaad613247f39c01e111035f,,1,aaad613247f39c01e111035f
LTXU(当代商城店),39.931281,116.202815,北京市石景山区阜石路165号当代商城(鼎城店)F1,,,1,d634dd296d7faacc79dbd24a
派克兰帝(华联商厦华联商厦东),39.912248,116.22639,北京市石景山区石景山路22号华联商厦F4,97a633ba5081812d3486f4be,,1,97a633ba5081812d3486f4be
M2(华联商厦华联商厦东),39.912017,116.226002,北京市石景山区石景山路22号华联商厦F2,77aa3980a684abd6ab175a26,,1,77aa3980a684abd6ab175a26
欧炫尔(当代商城店),39.931398,116.203052,北京市石景山区阜石路165号当代商城(鼎城店)F3,,,1,500a99035bfb7640d8131825
JackJones男装店(当代商城店),39.931227,116.202506,北京市石景山区阜石路165号当代商城(鼎城店)F4,,(010)88939338,1,31ec983aa12e079a9d82ea51
保日达(华联商厦华联商厦东),39.912032,116.226361,北京市石景山区石景山路22号华联商厦F3,959265b203ae573ea4c756d4,,1,959265b203ae573ea4c756d4
DUNLOP(当代商城店),39.931407,116.202705,北京市石景山区阜石路165号当代商城(鼎城店)F2,eb48d33af7826a7157bfffce,,1,eb48d33af7826a7157bfffce
椿上椿(当代商城店),39.931326,116.20299,北京市石景山区阜石路165号当代商城F1,c8385de2cc3caa0c7ec87672,,1,c8385de2cc3caa0c7ec87672
宝缦家纺(当代商城店),39.931163,116.202772,北京市石景山区阜石路165号当代商城F5,41cfa5d660a841c1fda77894,,1,41cfa5d660a841c1fda77894
斯琴(当代商城店),39.931459,116.20297,北京市石景山区阜石路165号当代商城(鼎城店)F2,2f78561c0e9de0ed04026fac,,1,2f78561c0e9de0ed04026fac
BAITUSHI(当代商城店),39.931257,116.202749,北京市石景山区阜石路165号当代商城F4,97d8550526e21331fb221303,,1,97d8550526e21331fb221303
Actionfox(当代商城店),39.931332,116.202535,北京市石景山区阜石路165号当代商城F5,d5464cf823ed0f4efda77814,,1,d5464cf823ed0f4efda77814
POLO SPORT(当代商城店),39.931423,116.203095,北京市石景山区阜石路165号当代商城(鼎城店)B1,,,1,1eec86c9a67bb508c03644a8
caissa(华联商厦),39.912133,116.226743,北京市石景山区石景山路22号华联商厦F1层,,,1,22d17fde9c849ca7902ca351
接吻猫(当代商城鼎城店),39.931327,116.201414,阜石路165号F1层,b3946e9e0f6710062b3a9fcb,,1,b3946e9e0f6710062b3a9fcb
yoney(当代商城鼎城店),39.931335,116.202659,阜石路165号F5层,bc96fc65ae9a25a517c8f660,,1,bc96fc65ae9a25a517c8f660
缦狄雅菲(当代商城鼎城店),39.931467,116.202331,北京市石景山区八角街道阜石路165号当代鼎城五层,,,1,3a7ffc43547a4a7300ec01f3
PVROVFEI(华联商厦),39.911967,116.226636,石景山路22号华联商厦F2层,,,1,6c3ea95e590fb6e903ff2d31
dga(当代商城鼎城店),39.931381,116.201299,阜石路165号F1层,,,1,cd75520db52dd23ca7c75684
naersi(当代商城鼎城店),39.931241,116.202521,阜石路165号F2层,af956008db3621a8e8e582ce,,1,af956008db3621a8e8e582ce
Jovana(当代商城店),39.931472,116.202712,北京市石景山区阜石路165号当代商城1层,,,1,34469bbb5162d272db131847
MIRALISA(当代商城),39.931341,116.202973,北京市石景山区阜石路165当代商城F1层,,,1,628e62bd4739ddb975e5b6a8
摄苑网摄影器材商城(五棵松店),39.927039,116.283585,北京市海淀区西四环中路6号,47b37b1ca3320f9149fd3f5c,"(010)88119728,(010)88119723",1,47b37b1ca3320f9149fd3f5c
金泰商厦,39.92443,116.265869,北京市海淀区金沟河路21号,dd365b1e4463e73415c905b3,,1,dd365b1e4463e73415c905b3
天大商城,39.89566,116.238221,北京市丰台区鲁谷大街53号,3dc9befd093af60fbea24013,"13718980133,13681196396",1,3dc9befd093af60fbea24013
以纯(天大商城店),39.895564,116.238303,丰台区鲁谷大街53号天大商城二层,d1a4694173e82a53c26c148d,13522080877,1,d1a4694173e82a53c26c148d
天意美(天大商城),39.895699,116.238141,鲁谷大街53号天大商城f2层235,623350693b12b49caa059d67,,1,623350693b12b49caa059d67
天天鞋城(天大商城),39.895707,116.238021,鲁谷大街53号F2层219,0c74c8678d0488e86c3e1b97,,1,b1f1eac32cd0fec2fd0eb037
天地人烟酒茶超市,39.895277,116.254387,北京市丰台区吴家村甲1号,0bff6520cf3107d1128824cb,(010)68216803,1,0bff6520cf3107d1128824cb
多点商城,39.909091,116.258351,玉泉路59号院1号楼物美3层,e5910a1c1436e521364aae03,,1,e5910a1c1436e521364aae03
阳光宝贝童装(天大商城),39.895649,116.238248,北京市丰台区鲁谷大街五十三号天大商城二楼,,,1,f773d9e811a94017adb22af4
大红鹰(天大商城),39.895763,116.238019,鲁谷大街53号F3层,ac5f6f3e446d9a89a1046415,,1,ac5f6f3e446d9a89a1046415
烟酒茶超市(梁公庵路),39.921376,116.259065,北京市石景山区玉泉路15号,4c5acacb94b0b742306212b0,,1,4c5acacb94b0b742306212b0
红豆(天大商城),39.89591,116.23801,鲁谷大街53号F2层2-B018,412ae42cb8cab1be00ff2da9,,1,412ae42cb8cab1be00ff2da9
茶世界商城,39.89454,116.264549,西四环大成南里21号楼2层茶世界(长安新城一区21号楼),,(010)63808076,1,02061727a9e2478c230220b5
魅力永恒化妆品(天大商城),39.895628,116.238167,北京市丰台区鲁谷大街53号天大商城1层,9c7a29b8e747fa56bb17e708,,1,9c7a29b8e747fa56bb17e708
康菲个人护理(天大商城),39.896217,116.237827,鲁谷大街53号天大商城f1层120,e1ca3fa023e3728b40afe6e8,,1,e1ca3fa023e3728b40afe6e8
许大福珠宝(天大商城),39.896077,116.238039,鲁谷大街53号F1层121,d98422253b557d8a46e274bf,,1,d98422253b557d8a46e274bf
沃步(天大商城店),39.895572,116.238012,鲁谷大街53号天大商城二楼,152004a19c5277b19868b4d5,,1,152004a19c5277b19868b4d5
九品珠宝(天大商城),39.896217,116.237827,北京市丰台区鲁谷大街53号天大商城1层,fde0266d0b00b33596031954,,1,fde0266d0b00b33596031954
北京鲁富兴达商贸中心烟酒茶超市,39.90622,116.273128,北京市海淀区太平路44号院北门,887f3d907e02a83349fc8d4c,(010)68168653,1,887f3d907e02a83349fc8d4c
女装(天大商城),39.896049,116.237854,鲁谷大街53号天大商城三层,6b60a851dc77abd4f4e73bac,,1,6b60a851dc77abd4f4e73bac
天琪贝贝(天大商城),39.895643,116.238245,鲁谷大街53号楼天大商城2楼,1c0ceaafdaa89070bda24071,,1,1c0ceaafdaa89070bda24071
草晟轩(天大商城),39.896129,116.238072,鲁谷大街53号天大商城f2层227,847c8cc522bd42cac909f0cd,,1,847c8cc522bd42cac909f0cd
银座商城,39.88861,116.30368,北京市丰台区万丰路68号院,d52f78d6c9907ed73904b137,(010)63268686,1,c8b5cdef6f195a03130daadf
城乡华懋商厦,39.915325,116.314612,北京市海淀区复兴路甲23号,4edf9fbf5f9ce68dcc06a44e,(010)68298060,1,4edf9fbf5f9ce68dcc06a44e
华联商厦(阜成门店),39.929886,116.360827,北京市西城区阜成门外大街1号,a1b10f94ef66f70a09b93aa0,(010)88371188,1,a1b10f94ef66f70a09b93aa0
华光商厦,39.930662,116.308408,北京市海淀区阜成路61号,96b672aa5392476cce04ef7b,(010)68421923,1,96b672aa5392476cce04ef7b
新隆商城,39.903671,116.329045,北京市海淀区莲花池东路31号,cc788fde7651d89388fc061f,(010)63990012,1,cc788fde7651d89388fc061f
万家上品商城,39.888663,116.33409,北京市西城区马连道路10号,28960e9b9c3d05ef4d2fdf01,,1,28960e9b9c3d05ef4d2fdf01
万寿商厦,39.922986,116.30096,万寿路甲15号北院7号楼,a37391e830ae91a95d17c35c,,1,a37391e830ae91a95d17c35c
康照商城,39.895798,116.360281,北京市西城区广安门内大街319-3号附近,fa202d03acc17bf09868b4c4,,1,fa202d03acc17bf09868b4c4
花川花店(华联商厦店),39.929826,116.361541,北京市西城区阜成门外大街1号华联商厦F1,09185c56d3ae7f44f1193740,,1,09185c56d3ae7f44f1193740
BHGmarketplace阜成门店(华联商厦店),39.930001,116.360892,阜成门外大街1号华联商厦B1层,,,1,8381607071c83e9f31f71d8d
kidsland(华联商厦店),39.930441,116.361381,北京市西城区阜成门外大街1号华联商厦F2,,,1,da989235bd952d9c5a3ac8a0
瑞海商城,39.90369,116.326832,北京市海淀区羊坊店路21号,07118b4d80dfa234047ce85d,,1,07118b4d80dfa234047ce85d
ASICS(华联商厦店),39.929878,116.361206,北京市西城区阜成门外大街1号华联商厦F3,14191c675c7361622efaa7ec,(010)68335740,1,14191c675c7361622efaa7ec
PRICH(华联商厦店),39.929952,116.360301,北京市西城区阜成门外大街1号华联商厦F3,db5e743716c6e8a51ce99945,,1,db5e743716c6e8a51ce99945
樊文花(华联商厦店),39.929753,116.360514,北京市西城区阜成门外大街1号华联商厦F1,,,1,b4c65422212d0d38cae33c39
新马商城,39.90736,116.316199,西三环中路甲21-7号,f11a9e03f488477641d63ed2,18611680998,1,f11a9e03f488477641d63ed2
邻里商城国烟国酒,39.883838,116.309822,西局西路58-31,41c7873dbb708f9326e0a03b,(010)63770644,1,21369bb665e8d57bf4e73bd0
张张丽摄影器材商城,39.889391,116.332179,北京市西城区马连道路11号北京马连道茶城4层南区202,48e454c804c5841688f15d12,4006100611,1,48e454c804c5841688f15d12
暇步士(华联商厦店),39.930156,116.360784,北京市西城区阜外大街1号华联商厦F3,deacf84456a5aae525e0a009,,1,deacf84456a5aae525e0a009
华光商厦-邻里购物中心,39.930718,116.308437,海淀区阜成路61号,9d2bcac73c4107da5abbbcb3,(010)68421923,1,9d2bcac73c4107da5abbbcb3
北京一商广安商城,39.895021,116.342978,北京市西城区广安门外大街182号,,,1,7eeb5b504997fa3e3c9a5e6a
LEGO(华联商厦店),39.930489,116.361317,北京市西城区阜成门外大街1号华联商厦F2儿童区,,,1,86f70b7e6d227fb1e8e5822b
361度(华光商厦店),39.930613,116.308144,北京市海淀区阜成路61号华光商厦3层,50f17f4e132ce23d138824aa,4008855361,1,50f17f4e132ce23d138824aa
伊丝艾拉(华联商厦店),39.930161,116.360912,北京市西城区阜成门外大街1号华联商厦F3,9baedd8bf12c219ff6eafc86,,1,9baedd8bf12c219ff6eafc86
德国奇勒拉杆箱(华联商厦店),39.929863,116.361442,北京市西城区阜成门外大街1号华联商厦F3,,,1,5ceb774a27ce97e452e5c5b3
VR PARK(银座商城北京店),39.888066,116.303569,万丰路68号银座商城4楼(北京店),52e4d41a179f3814f32d832b,,1,52e4d41a179f3814f32d832b
复兴商城奥卡索,39.912596,116.357152,北京市西城区复兴门外大街4号北京市复兴商业城B1,7834061fdad0eef48a36eea1,(010)68565038,1,7834061fdad0eef48a36eea1
烟酒茶平价超市,39.898764,116.333115,西客站南广场丽水莲花小区1号院1号楼1层底商,faa27e4fa5de3e3c3010afc3,,1,faa27e4fa5de3e3c3010afc3
YOUNGOR(北京城乡华懋商厦店),39.915392,116.314365,北京市海淀区复兴路33号北京城乡购物中心F4,486e4338026c5c1f93114c4d,(010)68298085,1,486e4338026c5c1f93114c4d
烟酒超市,39.89427,116.322879,北京市丰台区太平桥8-5,f675272c227f0059adcb66d5,(010)63274484,1,3298e1716b158d917369d334
中国黄金(华联商厦店),39.92975,116.360343,北京市西城区阜成门外大街1号华联商厦F1,,(010)88366058,1,f0432d7cc4e4add7f7e73b45
十月妈咪(华联商厦店),39.930036,116.361462,北京市西城区阜成门外大街1号华联商厦F2,90f4cca0d3619c8b01294f32,,1,90f4cca0d3619c8b01294f32
景明摄影器材商城(金牌店),39.889437,116.332523,马连道路11号马连道摄影器材城4楼北区1、7、10和33号,,(010)63344486,1,5e0d5755c172d55f1f3894e1
TATA女鞋店(华联商厦店),39.929915,116.361387,北京市西城区阜成门外大街1号华联商厦F1,,18601317278,1,b7c91a42f18dad9840afe6e8
Jeep(华联商厦阜成门店),39.929932,116.360342,阜成门外大街1号华联商厦1F层(阜成门店),,,1,ca190d6d4bc874f42e47337a
雅戈尔(华联商厦店),39.929924,116.360889,北京市西城区阜成门外大街1号华联商厦F4,f5ec210874515e5188db7385,,1,f5ec210874515e5188db7385
KOSE(华联商厦阜成门店),39.929768,116.360959,阜外大街1号BHG百货1层,ce3b406315ac8f3cbca822ac,,1,ce3b406315ac8f3cbca822ac
LANDI(华联商厦店),39.929849,116.360164,北京市西城区阜成门外大街1号华联商厦F2,,,1,6bfbaeb1824c7cfa7ec8765f
Clarks(华联商厦店),39.929992,116.361288,北京市西城区阜成门外大街1号华联商厦F1,85588ea3da67f4576fa3cca3,,1,85588ea3da67f4576fa3cca3
古井贡酒·年份原浆(烟酒茶超市),39.876721,116.300282,万丰路300号,c23ec3ae9a23e79a0a5cb364,,1,c23ec3ae9a23e79a0a5cb364
栗满秋香(阜成路辅路店),39.930502,116.308429,北京市海淀区华光商厦东门,,,1,f712c9ff7ceeb85d3913fd61
巴柯拉(华联商厦店),39.930464,116.361236,北京市西城区阜成门外大街1号华联商厦F2,,,1,24ee5097a17c1898d22dd627
MASFER.SU(华联商厦阜成门店),39.92977,116.361085,北京市西城区阜成门外大街1号华联商厦F2,da1ba9b2375d47756849f38c,,1,da1ba9b2375d47756849f38c
SCHIESSER(华联商厦店),39.930047,116.360947,北京市西城区阜成门外大街1号华联商厦F3,fa5cc8747bbfa29c3310af0f,,1,fa5cc8747bbfa29c3310af0f
尼赛龙展卖(华联商厦店),39.929956,116.361455,北京市西城区阜成门外大街1号华联商厦F4,,,1,1e5585338a3ac053902ca360
LAVINIA(华联商厦店),39.929979,116.360983,北京市西城区阜成门外大街1号华联商厦F2,d7fd2ad37ea6814d0bccdd57,(010)68368876,1,d7fd2ad37ea6814d0bccdd57
陶艺郡工艺品店(天虹商厦店),39.894205,116.347618,北京市西城区广安门外大街168号天虹商场F1,,,1,85a209093e437b3a0869d90d
法兰尼澳(华联商厦店),39.929929,116.36102,北京市西城区阜成门外大街1号华联商厦F4,,,1,b8403ffc28dd942e3586f4c9
UGIZ(华联商厦店),39.929854,116.360719,北京市西城区阜成门外大街1号华联商厦F3,9cf001808cf08f0341d63e9d,,1,9cf001808cf08f0341d63e9d
八珍茗苑烟酒专卖商城,39.919316,116.304138,翠微南里35号,8848df63356e9585e6e965c9,(010)68251854,1,8848df63356e9585e6e965c9
旺乐高(北京城乡华懋商厦),39.915123,116.315099,北京市海淀区复兴路甲23号北京城乡购物中心6层,897117a544aecd6b45e27455,,1,897117a544aecd6b45e27455
butnon(北京城乡华懋商厦),39.915337,116.314706,复兴路甲23号城乡贸易中心5楼,dadab2f1167857effb22134d,,1,dadab2f1167857effb22134d
FULWIN(华联商厦阜成门店),39.929775,116.3613,北京市西城区阜成门外大街1号华联商厦(阜成门店)2F层,,,1,1578907df3d736b2077ce8f5
首玉珠宝(华联商厦店),39.929879,116.360315,北京市西城区阜成门外大街1号华联商厦F1,,,1,3ca1ef59fbf2c7d7adee7a70
MAYBELLINE(华联商厦店),39.929896,116.360569,北京市西城区阜成门外大街1号华联商厦F1,4440b27c3ea3f07eeee4a5fc,4008215878,1,4440b27c3ea3f07eeee4a5fc
LANCY FROM25(华联商厦店),39.929969,116.360397,北京市西城区阜成门外大街1号华联商厦F2,,,1,49fe46f948469efc9ff77952
助听器商城,39.919403,116.309294,北京市玉渊潭南路翠微路甲10号院中国银行楼上218室,fc2586a90fd167a324e0a05d,"(010)68215931,15210880115",1,fc2586a90fd167a324e0a05d
本色人家(华联商厦店),39.930157,116.360811,阜成门外大街1号华联商厦3层,,,1,9ae3b7492e4994310482c2be
Etam WEENEND(北京城乡华懋商厦),39.915116,116.314632,复兴路甲23-1号北京城乡华懋商厦(正门)3层,75c32e405f22c335b05c6a4f,,1,75c32e405f22c335b05c6a4f
DIAINA(华联商厦店),39.929903,116.360852,北京市西城区阜成门外大街1号华联商厦F2,f608aaaddfdb2f9d32f71d71,,1,f608aaaddfdb2f9d32f71d71
奥卡索(华联商厦店),39.929969,116.361169,北京市西城区阜成门外大街1号华联商厦F1,1225c8c44b56681a5cd4fed2,,1,1225c8c44b56681a5cd4fed2
FINITY(华联商厦店),39.929753,116.360219,北京市西城区阜成门外大街1号华联商厦F2,39d70f7bf5904cc95fd4fe7c,,1,39d70f7bf5904cc95fd4fe7c
雅诗蒂美(华联商厦店),39.930054,116.360678,北京市西城区阜成门外大街1号华联商厦F3,,,1,94fbdd8e7f5350a74f3a5935
柏诺森(华联商厦店),39.929869,116.361287,北京市西城区阜成门外大街1号华联商厦F1,,,1,aa3a91c9c899f5c99d9d6817
简兮(华联商厦店),39.929902,116.360715,北京市西城区阜成门外大街1号华联商厦F2,,,1,8e3a80f07d5b2b48b54f54d5
自动售货机(华联商厦店),39.929821,116.360946,北京市西城区阜成门外大街1号华联商厦F3,4cdd5acb55d35cacfa0cad4f,,1,4cdd5acb55d35cacfa0cad4f
DUNLOP(华联商厦店),39.92986,116.361238,北京市西城区阜成门外大街1号华联商厦F2,,,1,3cd59d3371b69ef9b5f42f85
RTW(华联商厦店),39.92984,116.360344,北京市西城区阜成门外大街1号华联商厦F3,,,1,aa91d3fb583abab16ea3cc9d
珍贝(华联商厦店),39.930054,116.360678,北京市西城区阜成门外大街1号华联商厦F3,1187e697dbf8e57b17b54b27,,1,1187e697dbf8e57b17b54b27
RED HOUSE(华联商厦店),39.929857,116.360302,北京市西城区阜成门外大街1号华联商厦F2,1f3b6f97dada4a1bcae33cfd,,1,1f3b6f97dada4a1bcae33cfd
RENE FURTERER PARIS(华联商厦店),39.929905,116.360853,北京市西城区阜成门外大街1号华联商厦F1,,,1,0f6e3b6cf07348e76e20b99f
迈凯路(华联商厦店),39.929906,116.360495,北京市西城区阜成门外大街1号华联商厦F2,,,1,1b47051ed8d81f3078f796a3
SATURDAYMODE(华联商厦店),39.929997,116.360665,北京市西城区阜成门外大街1号华联商厦F1,,,1,dd2550a7eb3382de00ec016a
U.Scen(华联商厦店),39.929854,116.361183,北京市西城区阜成门外大街1号华联商厦F1,a443d255c1274b28eaf853a9,,1,a443d255c1274b28eaf853a9
piere cardin(华联商厦店),39.929888,116.361338,北京市西城区阜成门外大街1号华联商厦F2,,13811511123,1,f3a2830f83a4c59b250bd020
Disney KIDS(华联商厦店),39.930281,116.361451,北京市西城区阜成门外大街1号华联商厦F2,,,1,2a92ef18145069e40bccdd86
法罗内衣(华联商厦店),39.930199,116.36093,北京市西城区阜成门外大街1号华联商厦F3,f70ad1563db0ed84bfa8223a,,1,f70ad1563db0ed84bfa8223a
会员团购部(华联商厦阜成门店),39.930169,116.360842,阜成门外大街1号华联商厦(阜成门店)2F层,,,1,80b8205fad19a92e3ce2316d
La Chapelle(华联商厦阜成门店),39.92979,116.361064,阜成门外大街1号华联商厦(阜成门店)3F层,,,1,77a9894ef99f61b497ec84d5
VITORUFOLO(华联商厦店),39.930019,116.360828,北京市西城区阜成门外大街1号四川大厦(正门)4层,5a98c31681c77f3a3010afe2,,1,5a98c31681c77f3a3010afe2
DAIYI(华联商厦店),39.929735,116.360931,阜成门外大街1号四川大厦(正门)2层,,,1,7e3d72c3f5a0648932870a54
纯牌自选沙拉PURE FOODS(华联商厦店),39.930001,116.360892,阜成门外大街1号华联商厦B1层,,,1,7e1bf7ea2f048761fd0eb036
玛米玛卡(北京城乡华懋商厦),39.915341,116.314616,北京市海淀区复兴路甲23号北京城乡购物中心F6,90b94e39192969c27602697b,(010)68298071,1,90b94e39192969c27602697b
中国通和商城体验店,39.907359,116.30481,北京市海淀区太平东路北50米,ad0318a24f2880193913fd22,,1,ad0318a24f2880193913fd22
A-Fontane(银座商城北京店),39.888521,116.303194,北京市丰台区万丰路68号银座和谐广场F5,e61dca555c317a3897ec8446,,1,e61dca555c317a3897ec8446
珍身(华联商厦店),39.929904,116.36105,北京市西城区阜成门外大街1号华联商厦F2,,,1,2be388e2bb5a180f4afd3fe8
真美诗(华联商厦店),39.929787,116.361368,北京市西城区阜成门外大街1号华联商厦F1,bd5046e804a5e458d72ce240,18601313202,1,bd5046e804a5e458d72ce240
IVY HOUSE(华联商厦店),39.930432,116.36147,北京市西城区阜成门外大街1号华联商厦F2,,,1,9081847a28c8d443cd04ef30
KOSE(华联商厦店),39.929908,116.360943,北京市西城区阜成门外大街1号华联商厦F1,6afe29f627c7efd02fb90862,,1,6afe29f627c7efd02fb90862
椿上椿(华联商厦店),39.929856,116.360718,北京市西城区阜成门外大街1号华联商厦F2,,,1,ba3df0b2c18f631abb17e77e
e矿原素(华联商厦店),39.929845,116.360443,北京市西城区阜成门外大街1号华联商厦F1,,,1,7fde824859b46ace471a3207
CARDKAI(华联商厦店),39.929778,116.360812,北京市西城区阜成门外大街1号华联商厦F4,35ad71338322dbadcf06a409,,1,35ad71338322dbadcf06a409
菲亚非(华联商厦店),39.929858,116.361052,北京市西城区阜成门外大街1号华联商厦F2,d2fe94d8b908f234c336447f,,1,d2fe94d8b908f234c336447f
E-Lorri(华联商厦店),39.929854,116.360602,北京市西城区阜成门外大街1号华联商厦F2,,,1,36f4b5a9c5f3a1c916c90545
芭迪(华联商厦店),39.929917,116.361281,北京市西城区阜成门外大街1号华联商厦F1,,,1,46cc9d5f2fb47957e5073818
依瑶(华联商厦店),39.929866,116.360422,北京市西城区阜成门外大街1号华联商厦F2,6aa11a7f9f4e1ce3c27da2e0,,1,6aa11a7f9f4e1ce3c27da2e0
时尚珠宝(华联商厦店),39.929845,116.360444,阜外大街1号四川大厦负一层,,(010)68364670,1,42670f6b206239ab6018099a
RainRing(华联商厦店),39.929836,116.360962,阜成门外大街1号华联商厦1层,9277076d8b96db5ae507386b,,1,9277076d8b96db5ae507386b
万盟早教前总经销(万通商城),39.928526,116.360145,阜成门外大街2号万通商城4F层,,,1,7637a94371f6657c51e5c53e
和玉缘·和田玉(华联商厦阜成门店),39.92986,116.360207,阜成门外大街1号华联商厦(阜成门店)1F层,,,1,0eac7705d0436370c9c3dba6
malimarihome(华联商厦阜成门店),39.93045,116.361176,北京市西城区阜成门外大街1号华联商厦(阜成门店)2F层,,,1,aa566b2b006453c39de32155
COMONI(华联商厦阜成门店),39.929904,116.361386,阜成门外大街1号华联商厦(阜成门店)1F层,,,1,70d5f43b9f505d3fdcee8b4d
F.NY(北京城乡华懋商厦),39.915322,116.314584,北京市海淀区复兴路甲23号北京城乡购物中心F3,52ddd77531c662484d554736,,1,52ddd77531c662484d554736
特诺里奥(北京城乡华懋商厦),39.915447,116.314756,北京市海淀区复兴路甲23号北京城乡华懋商厦F4,c230e10907b17f9ca1acc45e,,1,c230e10907b17f9ca1acc45e
AOKEN(城乡华懋商厦),39.915316,116.314388,北京市海淀区复兴路甲23号北京城乡购物中心F4,66a7a5b33a94938581a12e22,,1,66a7a5b33a94938581a12e22
ANTCITY(北京城乡华懋商厦),39.91515,116.314381,北京市海淀区复兴路甲23号北京城乡购物中心F2,ad35757988c767b8a20464d6,(010)68165503,1,ad35757988c767b8a20464d6
烟酒茶商城老酒坊,39.909935,116.308791,北京市海淀区翠微路38号附近,,,1,ddf739f6a6a23d71a2046479
优序(华联商厦店),39.929908,116.361042,北京市西城区阜成门外大街1号华联商厦F3,5e9c87b26b574f415cd4fe8b,,1,5e9c87b26b574f415cd4fe8b
兰丝秀(华联商厦店),39.930206,116.360664,北京市西城区阜成门外大街1号华联商厦F3,,,1,525d1d0cf7975c85100daa12
Phidias(华联商厦店),39.929856,116.360854,北京市西城区阜成门外大街1号华联商厦F2,,,1,c2cbb5a4a480620b744ff18c
BUOUBUOU(华联商厦店),39.929799,116.361414,北京市西城区阜成门外大街1号华联商厦F2,,,1,d0f13a6f2286ff66c8213d58
Best Travel(华联商厦店),39.929842,116.360459,北京市西城区阜成门外大街1号华联商厦F4,,,1,4cd5b60906518e985cbe8645
LIME FLARE(华联商厦店),39.929985,116.361221,北京市西城区阜成门外大街1号华联商厦F2,,,1,4df86b681c94fc3221f017b1
e趣商城(光耀东方广场店),39.904708,116.328817,北京市海淀区羊坊店路18号光耀东方广场F3,fe0e6e49c1cd59c7b1077d23,,1,fe0e6e49c1cd59c7b1077d23
COLOURS(华联商厦店),39.929814,116.360713,北京市西城区阜成门外大街1号华联商厦F2,,,1,8ec5edf01d47d9cd704b87f5
水孩儿(华联商厦店),39.930556,116.361368,北京市西城区阜成门外大街1号华联商厦F2,,,1,d36179d0792b6772c9e33cb4
VESAS COLLECTION(华联商厦店),39.929973,116.360661,北京市西城区阜成门外大街1号华联商厦F2,2630a9f2f56b63ff6240a9f3,(010)68360255,1,2630a9f2f56b63ff6240a9f3
Glitter Pan(华联商厦店),39.929755,116.36047,北京市西城区阜成门外大街1号华联商厦F2,,,1,cc67bb78c891d5bb8e77276b
CANTOMOTTO(华联商厦店),39.930001,116.360892,阜成门外大街1号华联商厦2层,8975eb63f225187359bbbc62,,1,8975eb63f225187359bbbc62
拉·贝缇(华联商厦阜成门店),39.929791,116.361194,北京市西城区阜成门外大街1号华联商厦(阜成门店)3F层,,,1,ea973f951ec1550d7adbd2c0
Avene(华联商厦阜成门店),39.929798,116.360693,北京市西城区阜成门外大街1号华联商厦(阜成门店)1F层,,,1,3d3cc50e363bdae7f8f0cbfd
HANFENG(华联商厦店),39.929948,116.360426,阜成门外大街1号华联商厦3层,,,1,c3f981a6141f73847369d36a
goldlion金利来(华光商厦店),39.930371,116.308333,北京市海淀区阜成路61号华光商厦3层,054dee8b5dd53ddeafee7a95,(010)68421923,1,054dee8b5dd53ddeafee7a95
正亚(华光商厦店),39.930376,116.308333,北京市海淀区阜成路61号华光商厦3层,fa1b95a3ca9193c204fef564,,1,fa1b95a3ca9193c204fef564
跨世纪手机商城,39.711322,116.388304,大兴区团桂路邢各庄南站公交站西50米,,13522986066,1,aa79161fdcc34258901fc994
成成烟酒茶商城,39.726405,116.388541,团桂路30号附近,,15930502570,1,2c3bd940d58158a3eddfcac4
金典国际百货商城,39.760136,116.551717,马驹桥潼关三区4号楼,5fb8ea77bdeaf2662b3a9f6a,18810770784,1,5fb8ea77bdeaf2662b3a9f6a
牛栏山烟酒茶商城,39.758161,116.549158,马驹桥镇辛屯村69号枫叶广告旁,ccc54530d1dfffb3a1046469,,1,ccc54530d1dfffb3a1046469
梅源商厦,39.80426,116.425966,北京市丰台区首航超市(南大红门店),92b806d2ab3aeeff79b55cd8,(010)68750881,1,92b806d2ab3aeeff79b55cd8
烟酒茶超市,39.809617,116.408887,北京市丰台区警备东路17号,40258755b79994d4b33c81e1,,1,40258755b79994d4b33c81e1
瀚品汇居家潮品商城,39.77901,116.362535,北京市春和路星光视界中心3号楼B座1003,,4008050105,1,ff74c9d06a4b7f2b1c3894d0
小护士内衣店(梅源商厦店),39.804253,116.425952,六营门梅源商厦一层,,,1,345a4fd17cc472d42b06ce67
中航烟酒商城,39.801337,116.425497,北京市丰台区南大红门路乙19-7号附近,,,1,2263c08703da941d2afc4827
手机商城,39.81394,116.373267,北京市丰台区槐房西路316号,,,1,2b0bc09483564d2a2911d155
烟酒茶超市,39.770417,116.391021,金大路4号附近,2fd2beabeca481517adbd252,,1,2fd2beabeca481517adbd252
旧宫商厦,39.811256,116.449643,北京市大兴区旧宫西路1-3号,cddc8ced936f4f302b11d1a7,,1,cddc8ced936f4f302b11d1a7
物美超市(旧宫商厦店),39.811297,116.449572,北京市大兴区旧宫西路1-3号旧宫商厦1层,8cba4bb097926a9dac0457ac,"(010)87917350,(010)87961551,(010)87964833",1,8cba4bb097926a9dac0457ac
ABC(旧宫商厦店),39.811261,116.449057,北京市大兴区旧宫西路1-3号旧宫商厦F3,a9c109079df1ac83132935bb,,1,a9c109079df1ac83132935bb
梅源商厦10号楼,39.804935,116.427094,梅源里10,b5999b0050533287593ac855,,1,b5999b0050533287593ac855
大中电器(旧宫商厦店),39.811347,116.449939,北京市大兴区旧宫西路1-3号旧宫商厦F4,,,1,0c93623ab34e6e606849f389
耐克(旧宫商厦店),39.81126,116.450189,北京市大兴区旧宫西路1-3号旧宫商厦F3,107b496ae1842bdd704b877a,4008806453,1,107b496ae1842bdd704b877a
梅源商厦12号楼,39.803174,116.427426,梅源里12,17f3c4e2e90c20bce3110324,,1,17f3c4e2e90c20bce3110324
恒源祥(旧宫商厦店),39.811407,116.449514,北京市大兴区旧宫西路1-3号旧宫商厦F4,,,1,266ae1a4615283bac26c14ba
中国移动手机专卖店(旧宫商厦店),39.811495,116.450173,北京市大兴区旧宫西路1-3号旧宫商厦F1,ad9f0b774d529e721df74d5a,,1,ad9f0b774d529e721df74d5a
绿叶(旧宫商厦店),39.811158,116.449407,北京市大兴区旧宫西路1-3号旧宫商厦F4,,,1,fc93c80f2b48614a2a02e1a9
东方伊古生活馆(旧宫商厦店),39.811306,116.449175,北京市大兴区旧宫西路1-3号旧宫商厦F4,,(010)57420327,1,ba0805e325b19ecfc2f1cf0f
城市骆驼(旧宫商厦店),39.811393,116.450067,北京市大兴区旧宫西路1-3号旧宫商厦F3,,,1,eefd780a5897b933a1a9346f
利郎(旧宫商厦店),39.811135,116.44935,北京市大兴区旧宫西路1-3号旧宫商厦F3,afc6b7b42072d79ce812e41c,,1,afc6b7b42072d79ce812e41c
李宁(旧宫商厦店),39.811446,116.449883,北京市大兴区旧宫西路1-3号旧宫商厦F3,,13911758923,1,d975ecab9e54b980e311035b
精选速购商城,39.8014,116.487739,北京市大兴区贵园南路,e5a0af072fd874331f3894f4,,1,e5a0af072fd874331f3894f4
专业音响EVD(旧宫商厦店),39.811193,116.449679,北京市大兴区旧宫西路1-3号旧宫商厦F4,9da218c385c3a08c04fef526,,1,9da218c385c3a08c04fef526
黄鹤楼烟酒商城,39.816299,116.462093,北京市大兴区旧宫宣颐家园小红门路底商97号1层,f80a64815bd7baf39ff779f7,,1,f80a64815bd7baf39ff779f7
男装特卖(旧宫商厦店),39.811232,116.450032,北京市大兴区旧宫西路1-3号旧宫商厦F3,,,1,f0090e5f3039ce5214948e12
服装店(旧宫商厦店),39.811191,116.449673,北京市大兴区旧宫西路1-3号旧宫商厦F3,,,1,0035411910705673276e987e
艾码诗登(旧宫商厦店),39.811171,116.449526,北京市大兴区旧宫西路1-3号旧宫商厦F3,,,1,c07d8d29b247409bcb213d4d
都市女人(旧宫商厦店),39.811294,116.449533,北京市大兴区旧宫西路1-3号旧宫商厦F4,,,1,198328c9daffc791a4c7562a
才子(旧宫商厦店),39.811214,116.449302,北京市大兴区旧宫西路1-3号旧宫商厦F3,d110918dc824f7c7eb12e474,,1,d110918dc824f7c7eb12e474
六六福珠宝(旧宫商厦店),39.811106,116.449196,北京市大兴区旧宫西路1-3号旧宫商厦F1,bfebe477f05e049b2dfaa745,,1,bfebe477f05e049b2dfaa745
精品烟酒(旧宫商厦店),39.811174,116.449607,北京市大兴区旧宫西路1-3号旧宫商厦F1,,,1,8d133a87801c1e5754bfff9d
世王(旧宫商厦店),39.81133,116.449569,北京市大兴区旧宫西路1-3号旧宫商厦F3,,,1,581c3884ca32cbe72806ceff
服饰鞋帽店(旧宫商厦店),39.811218,116.449926,北京市大兴区旧宫西路1-3号旧宫商厦F3,,,1,5e5b86276cbdb171a8059db3
芬妮丝(旧宫商厦店),39.811341,116.449757,北京市大兴区旧宫西路1-3号旧宫商厦F3,210775569af812d09e95de00,,1,210775569af812d09e95de00
女装店(旧宫商厦店),39.811364,116.449309,北京市大兴区旧宫西路1-3号旧宫商厦F3,,,1,4f3d15e3ccf8b6babe4842ad
金盾(旧宫商厦店),39.811227,116.449393,北京市大兴区旧宫西路1-3号旧宫商厦F3,,,1,b69a9f1341eed4362e4733df
发利(旧宫商厦店),39.811146,116.449427,北京市大兴区旧宫西路1-3号旧宫商厦F3,,,1,c45397ace94f29c128201af6
红豆内衣(旧宫商厦店),39.811334,116.449075,北京市大兴区旧宫西路1-3号旧宫商厦F3,85031d2e86fffdb271455b08,,1,85031d2e86fffdb271455b08
Newbunren(旧宫商厦店),39.811427,116.449652,北京市大兴区旧宫西路1-3号旧宫商厦F3,,,1,614da8f39951dbe658f6bee4
威马堡罗(旧宫商厦店),39.811183,116.449616,北京市大兴区旧宫西路1-3号旧宫商厦F3,,,1,a36ec2d1d41c169da3acc4f6
天乙珠宝(旧宫商厦店),39.811135,116.449317,北京市大兴区旧宫西路1-3号旧宫商厦F1,bcc6633b23d87b96d4851fe9,,1,bcc6633b23d87b96d4851fe9
劲牌(旧宫商厦店),39.811279,116.449325,北京市大兴区旧宫西路1-3号旧宫商厦F3,,,1,fbfce4f505040bc1ad080f0a
菲莱威尔(旧宫商厦店),39.811238,116.449477,北京市大兴区旧宫西路1-3号旧宫商厦F3,5f760819dec6038befe4a548,,1,5f760819dec6038befe4a548
好景国际烟酒茶超市,39.778289,116.506747,北京市大兴区亦庄大兴区亦庄北京市大兴区亦庄经济开发区凉水河一街好景国际2号楼,f9aaf085de7e831e16a19019,15117954328,1,f9aaf085de7e831e16a19019
牛栏山专卖烟酒商城,39.762616,116.550433,中心一路与兴华中街交叉口北200米,,,1,9fce2e7c98c660d478f7963c
dga(当代商城鼎城店),39.808818,116.5391,北京市大兴区科创五街38号北京城乡世纪广场内,01f31247d3c5e966430245a9,,1,86ed6fadd67b907495ca0704
至尊烟酒商城,39.767559,116.55267,北京市通州区新海东路2号院-9号楼-3号,6dace85b8ab47442c7f50dc6,,1,6dace85b8ab47442c7f50dc6
文具(中发百旺商城),39.785851,116.530345,宏达南路,,,1,2491c88fb5174fa8b9df8f8b
新城商厦,39.804976,116.572414,北京市通州区定海园二里15号,,(010)80849428,1,2f4906cd65e67f07f32d83f1
三利花卉(新城商厦店),39.804974,116.572117,北京市通州区科创九街亦庄新城便民市场内,,,1,1b36f3525206fff51fe99910
秀衣阁(新城商厦店),39.804754,116.572253,定海园二里15号新城商厦1层,,,1,611ca0e438278f04593ac84b
国烟国酒商城,39.802047,116.577355,排干渠西路与科创十街交叉口西南150米,,,1,189da1e69db70535b320a87b
烟酒商城(牛栏山专卖),39.764907,116.564335,北京市通州区马驹桥美月神(兴华中街北),2957f2f9836315645d0d0200,,1,2957f2f9836315645d0d0200
烟酒茶超市,39.804208,116.571305,北京市通州区台湖镇次渠定海园一里11号楼低商烟酒茶,,,1,7307027490e74e902dfaa719
宝玉世家(新城商厦店),39.804934,116.572434,次渠科创九街定海园物美超市二楼,,,1,2b303075459fdf9528b97cb5
力行健老人鞋专业品牌(新城商厦店),39.804531,116.572314,定海园二里15号新城商厦1层,,,1,7e33f9848eaca819f5c59c2b
全网手机商城,39.767955,116.559955,北京市通州区马驹桥漷马路旧线百分百购物中心南,e01ff2c86a853884bd48426b,,1,e01ff2c86a853884bd48426b
百荣世贸商城,39.867238,116.404782,北京市东城区永定门外大街101号,d5f93c0ef4aa5d45eddfca49,"(010)87803388,(010)67279068",1,0d6a5f32c1200ef81f3894fb
百荣世贸商城-A座,39.86613,116.40527,北京市东城区永定门外大街101-3号,9fbfeef2cbd7f445ede4a5e6,(010)87802323,1,9fbfeef2cbd7f445ede4a5e6
手拉手尾货批发城商城,39.864716,116.415786,南三环中路67号(赵公口长途汽车站对面),a7c56ee0405032aaa3acc448,(010)87812005,1,a7c56ee0405032aaa3acc448
北京万朋文化办公用品商城,39.871395,116.407422,北京市东城区永定门外大街128号,f1f5cac5196e328137b06ce3,,1,f1f5cac5196e328137b06ce3
明日东方商厦,39.851638,116.372559,马家堡嘉园路,90dd17495cc5028a970319b9,,1,90dd17495cc5028a970319b9
百荣世贸商城-B座,39.867203,116.405209,北京市东城区永定门外大街101号,704c711cdc2f831d6d20b93a,(010)87802323,1,4edf9fbff10d1094cc06a4e6
百荣二期商城(北区),39.867506,116.402998,北京市东城区永外101号,ab2de6d2b5271e42c9e33cef,,1,ab2de6d2b5271e42c9e33cef
海澜之家(北京东城区百荣世贸商城二店),39.867642,116.405086,北京市东城区永定门外大街101号F1层B区D006-D010号,06bd526889d99f577702696a,(010)87298733,1,06bd526889d99f577702696a
海澜之家(百荣世贸商城三店),39.866134,116.405266,北京市东城区永定门外大街101-3号百荣世贸商城Ａ座1层,b0533a8fa0837b3ce6e96549,4008922001,1,b0533a8fa0837b3ce6e96549
百荣世贸商城1期,39.867271,116.404789,北京市东城区永定门外大街101号,6cb5efbf9d9623fc1f3894f8,,1,6cb5efbf9d9623fc1f3894f8
帝豪商厦,39.859004,116.408883,北京市丰台区大红门路7号,090d3108df3d398a38e4a62b,,1,090d3108df3d398a38e4a62b
原单外贸童装批发(百荣世贸商城店),39.866134,116.405266,北京市东城区永定门外大街101-3号百荣世贸商城Ａ座B1层,d991e116375a864c1e3894ee,(010)87804959,1,d991e116375a864c1e3894ee
百荣世贸商城-C座,39.868584,116.405148,北京市东城区永定门外大街101-1号,cdef4edfbf402b4e28d7abe6,,1,cdef4edfbf402b4e28d7abe6
新永外文化用品商城,39.871272,116.4037,北京市东城区永定门外革新南路58号,eb4fc1f92389066dc51e5100,,1,eb4fc1f92389066dc51e5100
耐克(百荣世贸商城店),39.868584,116.405148,北京市东城区永定门外大街101-1号百荣世贸商城C座6层,6aaa8f478094c59d3ce2311b,4008806453,1,6aaa8f478094c59d3ce2311b
ANTA(百荣世贸商城店),39.868556,116.405085,北京市东城区永定门外大街101-1号百荣世贸商城Ｃ座6层,6ee0102056606df652e5c549,4008582020,1,6ee0102056606df652e5c549
Semir(百荣世贸商城店),39.86607,116.405259,北京市东城区永定门外大街101-3号(百荣世贸商城Ａ座4层),dfc496b62c2969b68936ee75,4008877588,1,dfc496b62c2969b68936ee75
阿迪达斯(百荣世贸商城店),39.866844,116.405277,东城区永定门外大街101号百荣世贸商城6楼,,13681268913,1,b330f54da4186639f50e77d8
宝岛眼镜(华联商厦马家堡店),39.840122,116.376047,北京市丰台区南四环中路城南嘉园14号北京华联1层,04bdf4a38ac63456354aae49,(010)59017927,1,04bdf4a38ac63456354aae49
李宁(百荣世贸商城店),39.868575,116.405156,北京市东城区永外大街101百荣世贸商城C区6层668B,f696f3c25753c4f21b11d549,(010)87865001,1,f696f3c25753c4f21b11d549
以纯(百荣世贸商城店),39.86598,116.405218,永定门外大街101号百荣世贸商城一期A区4层,f1c3ea45df6d44f802ff2d46,(010)87802337,1,f1c3ea45df6d44f802ff2d46
地利生鲜(天美互联网商城店),39.851655,116.373215,北京市丰台区角门路16号院附近,,13869508600,1,fa08189c53299d1d00ff2d1f
劲霸男装(百荣世贸商城店),39.868584,116.405148,北京市东城区永外大街101号百荣世贸商城6A609号,49d4757923a5533d45572655,,1,49d4757923a5533d45572655
天津卓尔电商城,39.871443,116.403546,沙子口东革新里42号永外城礼品大楼附近,,,1,6d170461ac873158b21e3676
恒源祥(百荣世贸商城店),39.867668,116.404509,北京市东城区永定门外大街101-1号百荣世贸商城Ｃ座4层,d44d67e0fd02a7b1b020a850,15801313159,1,d44d67e0fd02a7b1b020a850
361度(百荣世贸商城店),39.868584,116.405148,北京市东城区永定门外大街101-1号百荣世贸商城Ｃ座6层,9023e75c8342105ddeee8b0d,4008855361,1,9023e75c8342105ddeee8b0d
米祖(百荣世贸商城店),39.867284,116.404817,永定门外大街101号百荣世贸商城,5d87c3f676d40858cc06a465,,1,5d87c3f676d40858cc06a465
外贸仓外贸出口成衣工厂店(天美互联网商城店),39.851598,116.372095,北京市丰台区嘉园三里3,04b0719fcd6235eb2dfaa734,(010)52450960,1,04b0719fcd6235eb2dfaa734
公益西桥地铁商城,39.841054,116.377796,花乡公益西桥地铁C口,40b0fba58bca97a30a1cc713,(010)58310722,1,40b0fba58bca97a30a1cc713
水星家纺(百荣世贸商城B座西),39.867566,116.40302,永定门外大街甲101百荣国际小商品城5层北区12-14号、61-63号,732a54f129030d5e0782c2f5,,1,732a54f129030d5e0782c2f5
巴布豆(百荣世贸商城店),39.867274,116.405208,东城区永定门外大街101-2号,8495397bc1a0100a8e7727bb,,1,8495397bc1a0100a8e7727bb
金森生鲜(天美互联网商城店),39.850998,116.371832,北京市丰台区嘉园三里3号楼1层110,,13911813833,1,394a8f772cca1ae14307c1bb
哥伦布(百荣世贸商城店),39.867284,116.404817,北京市东城区永定门外大街101-3号百荣世贸商城Ａ座1层,b03528c5f54ec7d176e5b6e7,,1,b03528c5f54ec7d176e5b6e7
容胜(百荣世贸商城店),39.867284,116.404817,永定门外大街101-2号百荣世贸商城B座4层,f3088a70e75c4b15210220cd,,1,f3088a70e75c4b15210220cd
小时代(百荣世贸商城店),39.867274,116.405208,永定门外大街101号百荣世贸商城B区B1层,6c9f592130aa1dffa8f729b2,,1,6c9f592130aa1dffa8f729b2
介入(百荣世贸商城店),39.8673,116.404829,北京市东城区永定门外大街101-3号百荣世贸商城Ａ座2层,49e81fd5b25f4a66bb17e7be,,1,49e81fd5b25f4a66bb17e7be
秀黛(北京百荣世贸商城店),39.867253,116.405222,永定门外大街101号,2db2431f164eddf038221c00,,1,2db2431f164eddf038221c00
大头鱼(百荣世贸商城店),39.866134,116.405266,北京市东城区永定门外大街101-3号百荣世贸商城Ａ座B1层,fa835ce237aea6afe812e425,,1,fa835ce237aea6afe812e425
鹿人(百荣世贸商城店),39.8673,116.404829,永定门外大街101号百荣世贸商城C区5层,0391b04d85cac8322b3a9f79,,1,0391b04d85cac8322b3a9f79
外贸家居布艺(天美互联网商城店),39.850281,116.372064,嘉园三里3号楼天美互联网商城B1-010,,,1,794bc7f6b74397f8e9f8532b
亚瑟大帝(百荣世贸商城店),39.867284,116.404817,北京市东城区永定门外大街101-2号百荣世贸商城Ｂ座1层,5c4c1b2505af6ac7a4c756dc,,1,5c4c1b2505af6ac7a4c756dc
骆驼鞋(天美互联网商城店),39.851616,116.373363,北京市丰台区嘉和路6号,,,1,59dba9886a0da3125fd4fe6f
CRASHFOCUS(百荣世贸商城店),39.867284,116.404817,北京市东城区永定门外大街101-3号百荣世贸商城Ａ座1层,6a0b0d703921d0359de32113,,1,6a0b0d703921d0359de32113
洁良内衣系列(百荣世贸商城店),39.86727,116.402973,永定门外大街甲101百荣国际小商品城3层南111-112,322acc173a6e28aec1f1cf9c,"(010)87448709,(010)68332947",1,322acc173a6e28aec1f1cf9c
凯旋(百荣世贸商城店),39.867284,116.404817,北京市东城区永定门外大街101-3号百荣世贸商城Ａ座2层,cfff24a26601f29a0f0e6ba4,,1,cfff24a26601f29a0f0e6ba4
黑蚂蚁(百荣世贸商城店),39.867285,116.40482,北京市东城区永定门外大街101-3号百荣世贸商城Ａ座4层,f46a862ae0a5d803047ce802,,1,f46a862ae0a5d803047ce802
千佰莉(百荣世贸商城店),39.866134,116.405267,北京市东城区永定门外大街101-3号百荣世贸商城Ａ座5层,be3e5efcd6c4807d9d95defa,,1,be3e5efcd6c4807d9d95defa
拉素(百荣世贸商城店),39.867284,116.404817,北京市东城区永定门外大街101-3号百荣世贸商城Ａ座3层,6f07eeb0f19390fa8bdb7343,,1,6f07eeb0f19390fa8bdb7343
胖太太(百荣世贸商城店),39.867284,116.404817,北京市东城区永定门外大街101-3号百荣世贸商城Ａ座3层,51914a5c8b9b6f96276e9868,,1,51914a5c8b9b6f96276e9868
烟酒茶超市,39.871428,116.394469,西罗园北路2-8,c34cae2307b90bd3ae080f6d,,1,c34cae2307b90bd3ae080f6d
MUM IN CHIEF HOME好妈妈家居(百荣世贸商城店),39.867165,116.404974,北京市东城区永定门外大街101号百荣世贸商城一期B区5层5B051,,(010)63705660,1,c0e85f8479d3abbc8e55ec28
鄂尔多斯(百荣世贸商城B座西),39.867415,116.403822,永定门外大街101号百荣世贸商城2C226-227,9b25ee474bb76f9ac8213da0,4006605599,1,9b25ee474bb76f9ac8213da0
海波依尔(百荣世贸商城店),39.867284,116.404817,北京市东城区永定门外大街101-2号百荣世贸商城Ｂ座2层,7bb54981fe8474db1b11d5f1,,1,7bb54981fe8474db1b11d5f1
好好儿嘟嘟鱼(百荣世贸商城店),39.868584,116.405148,永定门外大街101-1号百荣世贸商城C座B1层,,,1,898d404acc4edeb53686f469
SHEWAY(百荣世贸商城店),39.867274,116.405208,北京市东城区永定门外大街101-2号百荣世贸商城Ｂ座3层,0c115695f8467adace04ef12,,1,0c115695f8467adace04ef12
七彩布衣秋雪衣人(百荣世贸商城店),39.8673,116.404829,北京市东城区永定门外大街101-1号百荣世贸商城Ｃ座1层,f531490ef9f9d51735b06c0f,,1,f531490ef9f9d51735b06c0f
YINGHUA(百荣世贸商城店),39.867274,116.405208,北京市东城区永定门外大街101-2号百荣世贸商城Ｂ座1层,f5956653483a04358bfc0628,,1,f5956653483a04358bfc0628
kashou(百荣世贸商城店),39.868584,116.405148,北京市东城区永定门外大街101-1号百荣世贸商城C座2层,,,1,d17850082194d8d24557264f
怪依居(百荣世贸商城店),39.867284,116.404817,北京市东城区永定门外大街101-3号百荣世贸商城Ａ座2层,4a38c0af7cf4ad562fb96d9d,,1,4a38c0af7cf4ad562fb96d9d
m·l·z(百荣世贸商城店),39.86738,116.40474,永定门外大街101-2号百荣世贸商城B座2层,6212bb72c3c90b68c61e51bd,,1,6212bb72c3c90b68c61e51bd
植觉(百荣世贸商城店),39.866134,116.405266,永定门外大街101-3号百荣世贸商城A座2层,2d29c76a0cfc99fbb320a82a,,1,2d29c76a0cfc99fbb320a82a
LUOLONG(百荣世贸商城店),39.867274,116.405197,北京市东城区永定门外大街101-2号百荣世贸商城Ｂ座1层,4d8b8894262fbf134d55472e,,1,4d8b8894262fbf134d55472e
品真珠宝(天美互联网商城店),39.850281,116.372064,北京市丰台区嘉园三里3号楼天美互联网商城地下一层品真珠宝,,,1,393abec960f4042607026f5b
邻里商城,39.866492,116.396355,北京市丰台区西罗园路,,,1,379fef85f3ddc5738605bf00
3COLOUR(百荣世贸商城店),39.867284,116.404817,永定门外大街101-3号百荣世贸商城A座3层,16715f4eb1871c163904b160,,1,16715f4eb1871c163904b160
萨弗蒂&庄泰精品内衣(百荣世贸商城店),39.867274,116.402974,永定门外大街甲101百荣国际小商品城3层南区032-033号,4c2f9cb6df0056336f3e1bc4,"(010)87865758,(010)87871092",1,4c2f9cb6df0056336f3e1bc4
莉露娅(百荣世贸商城店),39.867425,116.404502,北京市东城区永定门外大街101-2号百荣世贸商城Ｂ座2层,a09910f02e449cacb75f1ea0,,1,a09910f02e449cacb75f1ea0
海之蓝(百荣世贸商城店),39.8673,116.404829,北京市东城区永定门外大街101号百荣世贸商城C区3层,,,1,3ad26f27afc77b38725e8085
cyx(百荣世贸商城店),39.866134,116.405267,北京市东城区永定门外大街101-3号百荣世贸商城Ａ座3层,38f0ace9f09dfba71ff74da3,,1,38f0ace9f09dfba71ff74da3
NOBEIER(百荣世贸商城店),39.865993,116.404697,永定门外大街101号百荣世贸商城A区1层,,,1,9bd14d1eab010dec3ce231f2
贝邦尼(百荣世贸商城店),39.867284,116.404817,北京市东城区永定门外大街101-1号百荣世贸商城C座1层,e4f4ff4377f95db8f7b916db,,1,e4f4ff4377f95db8f7b916db
简爱(百荣世贸商城店),39.866692,116.405307,北京市东城区永定门外大街101-1号百荣世贸商城Ｃ座2层,fe6c188dfee1f88221f01795,,1,fe6c188dfee1f88221f01795
NAMU(百荣世贸商城店),39.866844,116.405277,北京市东城区永定门外大街101号百荣世贸商城一期A区3层,,,1,e98084d579089a671676433b
C.B.DIARY(百荣世贸商城店),39.865857,116.404525,永定门外大街101号百荣世贸商城A区B1层,,,1,1c608ddcebf125e2a0d23008
缘梦(百荣世贸商城店),39.867267,116.405204,北京市东城区永定门外大街101-2号百荣世贸商城Ｂ座2层,e4198f9862d3080b9ff7791e,,1,e4198f9862d3080b9ff7791e
坦博尔(百荣世贸商城店),39.867558,116.404599,北京市东城区永定门外大街101-1号百荣世贸商城Ｃ座2层,6c2fecdd7a114bdfc26c148f,,1,6c2fecdd7a114bdfc26c148f
新派羽峰(百荣世贸商城店),39.868584,116.405148,北京市东城区永定门外大街101-1号百荣世贸商城Ｃ座1层,8f1da04fda096b5735b06c38,,1,8f1da04fda096b5735b06c38
卡莲奈(百荣世贸商城店),39.867284,116.404817,永定门外大街101-3号百荣世贸商城A座3层,854d824e97c14697d518b784,,1,854d824e97c14697d518b784
台北秀巧(百荣世贸商城店),39.867284,116.404817,北京市东城区永定门外大街101-3号百荣世贸商城Ａ座2层,bd7f0fec713677f37adbd288,,1,bd7f0fec713677f37adbd288
例薇儿(百荣世贸商城店),39.867284,116.404817,北京市东城区永定门外大街101-2号百荣世贸商城Ｂ座2层,cf81fa934a96da0657bfffdf,,1,cf81fa934a96da0657bfffdf
韩香阁(百荣世贸商城店),39.867274,116.405208,北京市东城区永定门外大街101-2号百荣世贸商城Ｂ座2层,10fe0d780314ee9a75e5b63d,,1,10fe0d780314ee9a75e5b63d
康姗(百荣世贸商城店),39.867092,116.404595,永定门外大街101号百荣世贸商城A座5层,9b1d604c400f5345d6b74e2a,,1,9b1d604c400f5345d6b74e2a
HZH(百荣世贸商城店),39.867284,116.404817,北京市东城区永定门外大街101号百荣世贸商城A区3层,,,1,6ce0ed5d36869c1014c8f6f5
爱莎曼琳(百荣世贸商城店),39.8673,116.404829,北京市东城区永定门外大街101-2号百荣世贸商城Ｂ座2层,7e443c461f57c66c85420eb9,,1,7e443c461f57c66c85420eb9
贝嘉芭蕾(百荣世贸商城店),39.8673,116.404829,永定门外大街101号百荣世贸商城B区3层,3b02f0dcba34384248cc4a20,15001065025,1,3b02f0dcba34384248cc4a20
艾立卡(百荣世贸商城店),39.866461,116.402194,北京市丰台区永定门外大街101号百荣世贸商城A区B1层,ca92223e123a8e1bd5b74ec8,,1,ca92223e123a8e1bd5b74ec8
新发现(百荣世贸商城店),39.8673,116.404829,东城区永定门外大街101号百荣世贸商城B区B1层,,,1,43ac2293f250e160e31103fe
princess(百荣世贸商城店),39.8673,116.404829,北京市东城区永定门外大街101号百荣世贸商城C座4层,,,1,77442fa36addb8a763180925
浪莎(华联商厦城南嘉园益星园南),39.840235,116.376093,西环中路南嘉园益城园14号楼F2层,6d3e1902644feda5b05c6a61,,1,6d3e1902644feda5b05c6a61
MOMO(百荣世贸商城店),39.8673,116.404829,北京市东城区永定门外大街101-2号百荣世贸商城Ｂ座2层,b4b9ea91d763629990114c84,,1,b4b9ea91d763629990114c84
上和服饰(百荣世贸商城店),39.867266,116.405197,北京市东城区永定门外大街101-2号百荣世贸商城Ｂ座1层,dd3aca86be3797d200ec0157,,1,dd3aca86be3797d200ec0157
喜登博(百荣世贸商城店),39.867284,116.404817,北京市东城区永定门外大街101-3号百荣世贸商城Ａ座1层,962b50643df4694a8a36ee24,,1,962b50643df4694a8a36ee24
私人衣橱(百荣世贸商城店),39.8673,116.404829,永定门外大街101-3号百荣世贸商城A座3层,8e357bc1a0d348f345e274b9,,1,8e357bc1a0d348f345e274b9
NEREHEREN(百荣世贸商城店),39.867045,116.404716,北京市东城区永定门外大街101号百荣世贸商城A座6层,,,1,bad25faad5358200bea24098
唐竹(百荣世贸商城店),39.867284,116.404817,北京市东城区永定门外大街101-2号百荣世贸商城Ｂ座3层,e80ae407674f48fad72ce2be,,1,e80ae407674f48fad72ce2be
KIDS STATION好孩子星站(百荣世贸商城店),39.8673,116.404829,永定门外大街101号百荣世贸商城A区5层,,,1,584dc4fac4d879a6a01de986
蒙田伊雄(百荣世贸商城店),39.86743,116.404512,北京市东城区永定门外大街101号百荣世贸商城,e1338780d28eacd4b11e36b5,,1,e1338780d28eacd4b11e36b5
迪伊白领(百荣世贸商城店),39.862705,116.404259,果园8号欣雅汇生活广场4层4098号铺,f4059f0e362de9b4b9df8fa4,,1,f4059f0e362de9b4b9df8fa4
EJOY韩国童装童品(百荣世贸商城店),39.865306,116.404381,永定门外大街101号百荣世贸商城A区3层,,,1,b020ee6952778c84da131869
华人寝饰(百荣世贸商城店),39.8673,116.404829,永定门外大街101号百荣世贸商城A区5层,b36e9af2a8713a30aeee7ac1,,1,b36e9af2a8713a30aeee7ac1
亿福夫人(百荣世贸商城店),39.867284,116.404817,北京市东城区永定门外大街101-3号百荣世贸商城Ａ座2层,ad34e24a6b4a9b2d32870a43,,1,ad34e24a6b4a9b2d32870a43
鑫耀阁(百荣世贸商城店),39.867102,116.404037,永定门外大街101号百荣世贸商城B区2层,6bf109ed981f996ea8175aed,,1,6bf109ed981f996ea8175aed
动力宝(百荣世贸商城店),39.8673,116.404829,永定门外大街101号百荣世贸商城C座B1层,,,1,ccd498755e25a50432870a6e
雪冰鸿(百荣世贸商城店),39.868228,116.404665,永定门外大街101号百荣世贸商城一期C区1层,fa79a69559414b7e76e5b6aa,,1,fa79a69559414b7e76e5b6aa
达目丝绸(百荣世贸商城店),39.867274,116.405208,北京市东城区永定门外大街101-2号百荣世贸商城Ｂ座2层,f5e8e6ab32fff9bab21e362a,,1,f5e8e6ab32fff9bab21e362a
爱琴鸟(百荣世贸商城店),39.867284,116.404817,北京市东城区永定门外大街101-2号百荣世贸商城Ｂ座4层,7ea1e90ec8bdeddc82a12e04,,1,7ea1e90ec8bdeddc82a12e04
REDU(百荣世贸商城店),39.867284,116.404817,北京市东城区永定门外大街101-2号百荣世贸商城Ｂ座1层,5089ec28187176b726e0a09c,,1,5089ec28187176b726e0a09c
休斯·傅顿(百荣世贸商城店),39.867284,116.404817,永定门外大街101-2号百荣世贸商城B座1层,5938883807a2436b40e1920e,,1,5938883807a2436b40e1920e
多依美(百荣世贸商城店),39.8673,116.404829,永定门外大街101号百荣世贸商城B座2层,,,1,dd270703f33216c29ff779fc
情人草家纺旗舰店(百荣世贸商城店),39.8673,116.404829,永定门外大街101号百荣世贸商城B区5层,,,1,2b038a16d91dc6a938e4a69a
L5V6(百荣世贸商城店),39.867558,116.404603,永定门外大街101号百荣世贸商城C座B1层,,,1,86a4e28389ffed6ecc06a456
路艺卡奴(百荣世贸商城店),39.867284,116.404817,北京市东城区永定门外大街101-3号百荣世贸商城Ａ座1层,d3f2b88668ca360dc8213d64,,1,d3f2b88668ca360dc8213d64
THESHOESBAR(百荣世贸商城店),39.867428,116.404365,永定门外大街101号百荣世贸商城C区6层,5f82b4228ce926768f55eca9,,1,5f82b4228ce926768f55eca9
红凯撒(百荣世贸商城店),39.867284,116.404817,北京市东城区永定门外大街101-2号百荣世贸商城Ｂ座2层,be211bfbcfa04698a4c75600,,1,be211bfbcfa04698a4c75600
ISI(百荣世贸商城店),39.8673,116.404829,永定门外大街101号百荣世贸商城B座3层,,,1,b3177961599ea039f5c59c99
兴潮汇(百荣世贸商城店),39.867284,116.404817,北京市东城区永定门外大街101号百荣世贸商城C区1层,,,1,af42f79a3a5d344821f0177b
红贝琳(百荣世贸商城店),39.866128,116.40454,永定门外大街101号百荣世贸商城B座3层,a36b050557bfad123617dcb0,,1,a36b050557bfad123617dcb0
伦道夫(百荣世贸商城店),39.867284,116.404817,北京市东城区永定门外大街101-3号百荣世贸商城Ａ座1层,5a0a4fa387ebc89e9fe32185,,1,5a0a4fa387ebc89e9fe32185
彼此(百荣世贸商城店),39.8673,116.404829,北京市东城区永定门外大街101-2号百荣世贸商城Ｂ座3层,4cce13540f783d0b4151c0b5,,1,4cce13540f783d0b4151c0b5
户外休闲(百荣世贸商城店),39.8673,116.404829,北京市东城区永外大街101号百荣世贸商城6c652,d4ab55e6ae59a3d9bea240e0,,1,d4ab55e6ae59a3d9bea240e0
魅影霓裳(百荣世贸商城店),39.8673,116.404829,北京市东城区永定门外大街101-2号百荣世贸商城Ｂ座2层,49ff05579251800cb2077dc1,,1,49ff05579251800cb2077dc1
春雪儿(百荣世贸商城店),39.867284,116.404817,北京市东城区永定门外大街101-2号百荣世贸商城Ｂ座2层,a380aee566d766c01d5800b4,,1,a380aee566d766c01d5800b4
DANCINGWOLVES(百荣世贸商城店),39.8673,116.404829,永定门外大街101号百荣世贸商城A区6层,,,1,43984be72e24753ec8213db7
HUQIYING(百荣世贸商城店),39.866134,116.405266,永定门外大街101-3号百荣世贸商城Ａ座1层,efd5630cc0e55905a3acc491,,1,efd5630cc0e55905a3acc491
MOOOST(百荣世贸商城店),39.866134,116.405267,北京市东城区永定门外大街101-3号百荣世贸商城Ａ座3层,553114567a19ef3804fef579,,1,553114567a19ef3804fef579
迷恋雪妮(百荣世贸商城店),39.867284,116.404817,北京市东城区永定门外大街101-1号百荣世贸商城Ｃ座1层,8c9df45910281339aecb66b4,,1,8c9df45910281339aecb66b4
艾菲莎尔(百荣世贸商城店),39.867284,116.404817,北京市东城区永定门外大街101-2号百荣世贸商城Ｂ座3层,c240ac0e639cdfe987330456,,1,c240ac0e639cdfe987330456
行霸天下(百荣世贸商城店),39.867284,116.404817,北京市东城区永定门外大街101-2号百荣世贸商城Ｂ座1层,e75128ab302cd85395ca073f,,1,e75128ab302cd85395ca073f
优粮天下绿色商城,39.84532,116.391738,北京市丰台区马家堡东路121号附近,3b3baef81ad8bf205abbbccc,,1,3b3baef81ad8bf205abbbccc
家和家美家居商城家居大件店,39.868972,116.468647,北京市朝阳区大羊坊路十里河桥东,3bb777f6810a881dc056ac94,(010)67359006,1,a3f21eeed2de7f5d2fb17e60
扑满山商城,39.851501,116.433574,北京市丰台区宋庄路71号院3号,a57303327b4539e2c5effbbb,(010)57026003,1,a57303327b4539e2c5effbbb
亚博五金机电商城,39.834882,116.45306,北京市朝阳区三台山路3号院附近,b78a895320e236591b11d5c7,"(010)52851872,4001515185",1,b78a895320e236591b11d5c7
星海钢琴商城,39.848297,116.429422,北京市丰台区石榴庄东街甲125号附近,,18501935007,1,0bc2b8307ff1cab79d9d6895
烟酒茶超市(祥瑞利源店),39.872716,116.460578,十里河村860,2cc3c8e8841747a84c2fdfbb,13611121908,1,2cc3c8e8841747a84c2fdfbb
国烟国酒商城,39.825076,116.437142,南场东街与庑殿西路交叉口西南150米,,,1,0de15d631538ec726f3e1bc1
英正缝纫商城,39.866097,116.450953,紫芳园六区2-4-108,3f826ed387341e5fd0f49eee,(010)51653121,1,3f826ed387341e5fd0f49eee
烟酒商城,39.865717,116.442829,东铁匠营街道方庄南路68号亚胜铂第公馆一层底商,cc5e033576b6e1d0bd4842cf,,1,cc5e033576b6e1d0bd4842cf
星时商城,39.845071,116.477166,北京市朝阳区吕营大街801号楼,,(010)53677120,1,b8b0d5f9d94a2e6f354aaeba
星美影商城社区店,39.850811,116.453965,丰台街道成寿寺路中海城紫鑫阁3号楼134号院3-120,0f3eb1ec95750afd55bfff08,,1,0f3eb1ec95750afd55bfff08
EDS会员商城(北京市朝阳城外城家居建材城华阳君辉灯饰店),39.841754,116.4592,四环城外城家居广场内,811de1214b106eb48c55ec09,(010)87364155,1,811de1214b106eb48c55ec09
烟酒茶超市,39.848573,116.47546,吕营大街44号,660b0242570428bf081cc754,,1,660b0242570428bf081cc754
京东商城站点,39.873691,116.450178,十八里店镇十里河饮马井一号院新坐标楼下底商,,,1,e0f9c01a24ef4ae1d618b7c1
国烟国酒商城,39.849087,116.475469,北京市朝阳区吕营大街56号附近,,,1,856dc7e1af3b2a15aecb66fe
烟酒茶超市(吉百利路),39.821211,116.448579,庑殿路52号,c0337a6f35aac512c9c3dbd0,,1,c0337a6f35aac512c9c3dbd0
顺和商城,39.859814,116.434408,北京市丰台区宋庄路顺四条11号,79362c717056eb389d09f7c8,,1,79362c717056eb389d09f7c8
中衫聚财商城,39.852287,116.437559,北京市丰台区宋家庄麒麟金阁商务写字楼7层,5ad7f24ecb4e2eee1e5800e1,,1,5ad7f24ecb4e2eee1e5800e1
烟酒茶超市,39.847733,116.470522,吕营大街44号,d5c4c2958031698388b98802,,1,d5c4c2958031698388b98802
新东郊商城东区,39.874699,116.542841,G1京哈高速与G1京哈高速入口交叉口南150米,,,1,c419b7ca25167a39f7231073
金菊厨房用品批发(新东郊商城店),39.873108,116.543132,北京市朝阳区新东郊商城东区1层咖啡用品区B-007号,25ad7100fa9f6fc1e5e965c1,"13161098670,13611335343",1,25ad7100fa9f6fc1e5e965c1
全网手机连锁商城,39.829354,116.51394,北京市朝阳区十八里店横街子商业街海户屯203号,f51a093535dd7676a8059dbd,,1,f51a093535dd7676a8059dbd
三信恒远对讲机批发专卖(新东郊商城店),39.874569,116.54122,北京市朝阳区王四营桥东新东郊商城西区三层D027号,e8487fc6375b780c3913fd57,,1,e8487fc6375b780c3913fd57
卓雅文具办公用品(新东郊商城店),39.874653,116.541468,京哈高速新东郊商城2层,4aafe776148cfd014557260f,,1,4aafe776148cfd014557260f
东方国饮(新东郊商城店),39.874768,116.540595,京哈高速新东郊商城1层,285a6e7a51633c287369d347,(010)87700810,1,285a6e7a51633c287369d347
恒润华泰自贸区进口食品批发超市(新东郊商城店),39.872536,116.540384,新东郊商城南区D037,77f511b808e63aaabca8223d,13611003539,1,77f511b808e63aaabca8223d
烟酒茶超市,39.863468,116.516302,北京市朝阳区垡头街道垡头翠城馨园125楼一层,85e6c3eaee80499b78f79626,,1,85e6c3eaee80499b78f79626
福建绿祥茶业(新东郊商城店),39.874529,116.542983,王四营桥东新东郊商城西区一层1W-D019,a34f7f828b383eb749fc8dc9,15201159737,1,a34f7f828b383eb749fc8dc9
新东郊商城C区,39.874316,116.541661,G1京哈高速与G1京哈高速入口交叉口西南200米,,,1,450c39436d94d2ebd12dd64b
烟酒茶超市(东渠路店),39.830324,116.543641,亦庄小羊坊路京南物流交易中心中国石油加油站东侧,073ae14b1843a79eb34c4937,,1,4938394a1e2ae92a33169bc9
全网通手机商城(大羊坊路),39.834135,116.512408,北京市朝阳区横街子152号,53d654e3fe6ea65daecb6634,,1,53d654e3fe6ea65daecb6634
鑫荣酒水商贸(新东郊商城店),39.873278,116.540763,京哈高速新东郊商城1层,32232c1ed828021541d63e08,"13121736676,13521910923",1,32232c1ed828021541d63e08
汉唐元玺(新东郊商城店),39.87329,116.541248,北京市朝阳区王四营新东郊商城东区1层1E-B019,,"(010)87797236,13439211585",1,d5cfc0168747a83d2b3a9f60
烟酒茶超市(小康家园店),39.828224,116.527005,小康家园1,07f3c8b5efe78b636340a999,(010)87396389,1,07f3c8b5efe78b636340a999
思索音响(新东郊商城店),39.874568,116.540951,北京市朝阳区京哈高速辅路新东郊商城3层079,0aea88f7ad5fc0f8210220a3,18600102084,1,0aea88f7ad5fc0f8210220a3
金号毛巾(新东郊商城店),39.87458,116.541156,京哈高速王四营桥东南角新东郊市场西区2W-D139,2dc90673dd91deeed1f49ef6,,1,2dc90673dd91deeed1f49ef6
顺诚名酒商城,39.873086,116.540415,北京市朝阳区,81d14072b919c2e7b5147fa2,"13263483156,13811807989",1,81d14072b919c2e7b5147fa2
金敏烟酒商城,39.873342,116.540417,新东郊商城D区010-011-012号,,"(010)87920920,13718497991",1,6bc7a2ebeeb0df83f7e73b69
金振辉煌(新东郊商城店),39.874339,116.54231,北京市朝阳区马房寺路靠近新东郊商城一层C-009,,,1,0c5003be91e2e5182fb9084e
奥峰百货(新东郊商城店),39.873187,116.543591,京哈高速新东郊商城2层,dcbd0e5b67f8d3cf4f3a5915,"(010)87705877,13718765148,13641334226",1,dcbd0e5b67f8d3cf4f3a5915
烟酒茶超市,39.818524,116.575294,北京市通州区潞西路,62aee98d990cd176102935d6,,1,62aee98d990cd176102935d6
西单新一代商城,39.917622,116.381816,北京市西城区堂子胡同9号,a7c56ee0d0bfc2b3a3acc401,,1,a7c56ee0d0bfc2b3a3acc401
西单明珠商城,39.916487,116.382447,北京市西城区横二条59号,64bdaf148599e6828e77278f,(010)66069605,1,34e485088e91dcfbd8d89148
天桥百货商城,39.886834,116.404417,北京市西城区永定门内大街1号,d6df91c120e00473f7b91645,,1,d6df91c120e00473f7b91645
富卓商厦,39.899492,116.381587,北京市西城区宣武门外大街32号,b0e9a065caa5b055bb17e781,(010)63026666,1,b0e9a065caa5b055bb17e781
北京利生体育商厦,39.92293,116.416932,北京市东城区王府井大街201号,f2f15ffbf6666091631c674b,,1,f2f15ffbf6666091631c674b
森马(西单新一代商城店),39.916078,116.382351,北京市西城区西单横二条59号高登大厦1层,67de20d5141c28ea85420e32,"(010)51815220,(010)66032966",1,9436442c0ef20a46a7c7560a
亦购特惠商城(西单店),39.917458,116.381789,西城区堂子胡同9号西单新一代商城服装市场5层,b4badc486864e01522f01700,,1,b4badc486864e01522f01700
北京利生体育商厦专营店,39.922975,116.417048,北京市东城区王府井大街201号利生体育用品商店,,,1,fd874d83d47d7bfce5073811
大栅栏商城,39.902445,116.402708,北京市西城区大栅栏街18号大栅栏购物中心1层,dfc496b604c511b68936ee49,,1,dfc496b604c511b68936ee49
王府商厦,39.916615,116.417276,王府井大街301号,5dda49700d5010a358f6bead,(010)65252205,1,5dda49700d5010a358f6bead
西单新一代商城-服装市场,39.917361,116.381442,西城区西单北大街130号新一代商城1楼日本彩妆店048-8号(近明珠),55c0af29e7559a2b28201a18,,1,55c0af29e7559a2b28201a18
星海钢琴商城(菜市口店),39.894868,116.375636,北京市西城区广安门内大街104号,850815e16d836c8243e192df,(010)63558280,1,850815e16d836c8243e192df
西西友谊商城,39.92029,116.378347,北京市西城区西单北大街109号,d0424bc9c58934268605bfba,,1,d0424bc9c58934268605bfba
星海钢琴商城(王府井店),39.921371,116.41517,北京市东城区王府井西街1-2号,803708f10a85f9600189724b,(010)65135229,1,803708f10a85f9600189724b
匹克(西单新一代商城店),39.917423,116.381759,北京市西城区堂子胡同9号西单新一代商城F5,e116be5440eba462c81b95fa,,1,e116be5440eba462c81b95fa
手机(西单新一代商城店),39.917337,116.381807,北京市西城区堂子胡同9号西单新一代商城F1,81ab53c72fead4350f0a7021,,1,81ab53c72fead4350f0a7021
Nike服饰鞋帽店(西单新一代商城店),39.917442,116.382001,北京市西城区堂子胡同9号西单新一代商城F5,,(010)66563012,1,430eecef30f1ee953a221c7e
新龙门刺青(西单新一代商城店),39.917266,116.381658,北京市西城区堂子胡同9号西单新一代商城F4,,13911661084,1,17fdd3ac39358874d13ce3aa
安踏(天元利生体育商厦店),39.922934,116.416818,北京市东城区王府井大街201号天元利生体育商厦2层,d6c0a0052d19812fb45f1ed4,4008582020,1,d6c0a0052d19812fb45f1ed4
361度(西单新一代商城店),39.917743,116.381772,北京市西城区堂子胡同9号西单新一代商城F5,50f87a98995b04f5a6da3963,(010)66014282,1,50f87a98995b04f5a6da3963
OPPO官方体验店(新一代商城二楼店),39.917708,116.381923,北京市西城区堂子胡同9号西单新一代商城F2,,18612653888,1,d01234e14ccd17e0a5da3920
米高轮滑(天元利生体育商厦),39.923001,116.416837,北京市东城区王府井大街201号天元利生体育商厦3层,21fbc0cc74a685d87adbd244,,1,21fbc0cc74a685d87adbd244
胜道体育(天元利生体育商厦),39.923088,116.417277,王府井大街201号天元利生体育商厦B1层,,(010)65270923,1,5855dbc528d50c57e315f944
甜点冷饮店(西单新一代商城店),39.917642,116.381808,北京市西城区堂子胡同9号西单新一代商城F4,365bd4bdc0309e86c929154d,,1,365bd4bdc0309e86c929154d
美丽衣橱(西单新一代商城店),39.917588,116.381604,西城区西单北大街堂子胡同9号新一代商城5层,a652b1f72396902e6c4760a6,,1,a652b1f72396902e6c4760a6
淘宝折扣店(西单新一代商城店),39.917617,116.381723,北京市西城区堂子胡同9号西单新一代商城F3,35a1cf9225ec5b8a3a04b122,(010)59716621,1,35a1cf9225ec5b8a3a04b122
外贸精品(西单新一代商城店),39.917637,116.38166,北京市西城区堂子胡同9号西单新一代商城F3,d299061cd3ca1c2756bfffda,,1,d299061cd3ca1c2756bfffda
超越剪刀商城,39.897173,116.407701,珠市口东大街20号美博汇5楼538,,,1,44b0d72d3908ba6d9c09f705
足泰拖鞋(西单新一代商城店),39.917694,116.381879,北京市西城区堂子胡同9号西单新一代商城F2,b11da10b7af98607efe4a536,,1,b11da10b7af98607efe4a536
AOHO眼镜(西单新一代商城店),39.917433,116.381845,北京市西城区堂子胡同9号西单新一代商城F1,a8d821dba4e8922a01294f05,13520523077,1,a8d821dba4e8922a01294f05
NIKE(天元利生体育商厦),39.923088,116.417277,王府井大街201号利生体育商厦一层,91017d9a770159c0f60e7720,(010)65286576,1,91017d9a770159c0f60e7720
YONEX(天元利生体育商厦),39.922816,116.416891,王府井大街201号北京利生体育商厦B1层,1c8dc16a1a5b2f2b157643f0,,1,1c8dc16a1a5b2f2b157643f0
APP故宫商城线下体验店,39.916924,116.403537,北京市东城区,,,1,fd65fad950ba50090f0a7061
睡衣专卖(西单新一代商城店),39.917287,116.381845,北京市西城区堂子胡同9号西单新一代商城F3,d3ded6dbd3e5f6bbee74f891,,1,d3ded6dbd3e5f6bbee74f891
户外组合店(天元利生体育商厦),39.922863,116.417157,王府井大街201号天元利生体育商厦F3层,d951da2955caab9f2811d1d5,,1,d951da2955caab9f2811d1d5
INSIST(西单新一代商城店),39.917989,116.381807,北京市西城区堂子胡同9号西单新一代商城F4,,,1,d61247703e5cac1a7dc876f0
自油自画店铺(西单新一代商城店),39.917751,116.381779,北京市西城区堂子胡同9号西单新一代商城F1,748ee0c5c7a3bc6f7c29bd76,,1,748ee0c5c7a3bc6f7c29bd76
中国老龄商城万民同乐绿色产品超市,39.899785,116.423537,珠市口东大街1-7号,c9575786bb483b760aa8d4d7,,1,c9575786bb483b760aa8d4d7
烟酒茶超市,39.918429,116.386972,西单北大街176号汉光百货8层,32dcc9a58be1ad8d17c8f612,,1,32dcc9a58be1ad8d17c8f612
贵人鸟体育(西单新一代商城店),39.917579,116.381733,北京市西城区堂子胡同9号西单新一代商城F5,28b8a5c8b213ae6ff6c59c4f,,1,28b8a5c8b213ae6ff6c59c4f
PUMA(天元利生体育商厦),39.922916,116.416807,北京市东城区内环到三环里王府井大街201号利生体育商厦一层彪马专柜,,,1,b8dd6e14d9567f263b13fdb8
唯品包(西单新一代商城店),39.917808,116.38173,北京市西城区堂子胡同9号西单新一代商城F2,82eef94d433c07be7dc8768d,,1,82eef94d433c07be7dc8768d
益淘饰品(西单新一代商城店),39.917515,116.381989,北京市西城区堂子胡同9号西单新一代商城F2,e4457b4d2b0b38d877026927,,1,e4457b4d2b0b38d877026927
时尚表行(西单新一代商城店),39.91747,116.38182,北京市西城区堂子胡同9号西单新一代商城F3,318e7de412c554c532f71d7e,,1,318e7de412c554c532f71d7e
玉石林(西单新一代商城店),39.917569,116.381816,北京市西城区堂子胡同9号西单新一代商城F1,a0fcf2d64186b3318d7727ee,,1,a0fcf2d64186b3318d7727ee
摩摩哒(西单新一代商城店),39.917575,116.381771,北京市西城区堂子胡同9号西单新一代商城F7,,,1,9c1ae71c4c5a03ae4354d7ff
Do-Win(天元利生体育商厦),39.922932,116.416819,北京市东城区王府井大街201号天元利生体育商厦2层,27bcdf0f5b489a4a30169bc9,,1,27bcdf0f5b489a4a30169bc9
蒙芭专柜(西单新一代商城店),39.917649,116.381718,北京市西城区堂子胡同9号西单新一代商城F1,,,1,eb66ff4e791d731b09a8d42e
安琪儿(西单新一代商城店),39.917415,116.381661,北京市西城区堂子胡同9号西单新一代商城F3,,,1,34d99642aed0a87f471a3260
桃子小铺(西单新一代商城店),39.917603,116.381832,北京市西城区堂子胡同9号西单新一代商城F1,,,1,373536597c035b3b441a32b5
金贝妮(西单新一代商城),39.917739,116.381874,北京市西城区堂子胡同9号西单新一代商城F1层123,,,1,3439c67e8fa14c3c8b2fb586
HOW.R.U(西单新一代商城店),39.917513,116.381726,北京市西城区堂子胡同9号西单新一代商城F2,637ee21e61b842bd8a36ee7e,,1,637ee21e61b842bd8a36ee7e
鑫怡饰品坊(西单新一代商城),39.91763,116.381717,堂子胡同9号西单新一代商城F1层057,b4223b13ff6d865335b06c1c,,1,b4223b13ff6d865335b06c1c
靓鞋一族(西单新一代商城店),39.917552,116.381726,北京市西城区堂子胡同9号西单新一代商城F2,c54848b45de9cc00b13c813d,,1,c54848b45de9cc00b13c813d
美丽百分百(西单新一代商城店),39.917654,116.381656,北京市西城区堂子胡同9号西单新一代商城F1,fe11c05a278b01fd3913fd09,,1,fe11c05a278b01fd3913fd09
G.J(西单新一代商城店),39.917694,116.381636,北京市西城区堂子胡同9号西单新一代商城F3,02941e1f59457dfa3c9a5e96,,1,02941e1f59457dfa3c9a5e96
Me You(西单新一代商城店),39.917988,116.381763,北京市西城区堂子胡同9号西单新一代商城F4,,,1,59159c65068edce88b2fb5c9
纽巴伦(西单新一代商城店),39.917412,116.381667,北京市西城区堂子胡同9号西单新一代商城F5,43b4496dc4673baf99005031,,1,43b4496dc4673baf99005031
花姑娘(西单新一代商城店),39.91748,116.382011,北京市西城区堂子胡同9号西单新一代商城F2,9d244d3ab723b961ce04efa6,,1,9d244d3ab723b961ce04efa6
韩衣控(西单新一代商城店),39.91771,116.38194,北京市西城区堂子胡同9号西单新一代商城F3,,,1,ae5f955b610b3fe1c5f50d45
宇晨科技(西单新一代商城店),39.917707,116.381727,北京市西城区堂子胡同9号西单新一代商城F1,,,1,0828eebfe0e2faa8bbbd6304
世贸商城,39.916669,116.417061,新燕莎金街购物广场北京市东城区王府井大街301号F1,856251a159734fa20ab93a5c,,1,856251a159734fa20ab93a5c
锋尚(天元利生体育商厦),39.923001,116.416837,北京市东城区王府井大街201号天元利生体育商厦3层,b693a4e64f6b0210ca1b95cc,,1,b693a4e64f6b0210ca1b95cc
艾雯儿(西单新一代商城店),39.917733,116.381879,北京市西城区堂子胡同9号西单新一代商城F2,b9cba1c3bb3deaa6a2acc4a4,,1,b9cba1c3bb3deaa6a2acc4a4
千禧之星(北京西单商厦店),39.918385,116.381143,北京市西城区西单北大街120号西单商场F1,f844634bc9d887f979f796b2,,1,f844634bc9d887f979f796b2
Money Boy(西单新一代商城店),39.917336,116.381648,北京市西城区堂子胡同9号西单新一代商城F4,a9f9f0284c9e48802fb96d79,,1,a9f9f0284c9e48802fb96d79
曦睿宝贝(西单新一代商城店),39.917774,116.381858,北京市西城区堂子胡同9号西单新一代商城F1,c4c6f4ed405a4503aeee7ac1,,1,c4c6f4ed405a4503aeee7ac1
怦然心动(西单新一代商城店),39.917837,116.381861,北京市西城区堂子胡同9号西单新一代商城F2,6ddbee613f978d7c40024513,,1,6ddbee613f978d7c40024513
欧洲栈(西单新一代商城店),39.917891,116.381654,北京市西城区堂子胡同9号西单新一代商城F3,521993376d1ed226d518b782,,1,521993376d1ed226d518b782
浩沙(天元利生体育商厦),39.922946,116.416746,王府井大街201号北京利生体育商厦F2层,d724e4351429875595f08c23,,1,d724e4351429875595f08c23
雅兰阁(西单新一代商城店),39.917648,116.381662,北京市西城区堂子胡同9号西单新一代商城F2,,,1,5cd4878838068d8b8bdb7339
UCAN(利生体育商厦店),39.922932,116.416819,北京市东城区王府井大街201号天元利生体育商厦2层,f58a2fad5e54eab4b817e763,,1,f58a2fad5e54eab4b817e763
罗勒布雷德(天元利生体育商厦),39.923001,116.416837,北京市东城区王府井大街201号天元利生体育商厦3层,ac1b67d0cb29e2d1b64f5492,,1,ac1b67d0cb29e2d1b64f5492
亮点内衣(西单新一代商城店),39.917452,116.381736,北京市西城区堂子胡同9号西单新一代商城F3,dbe875c9b77f06dfaecb668f,,1,dbe875c9b77f06dfaecb668f
女主角欧货(西单新一代商城店),39.91794,116.382002,北京市西城区堂子胡同9号西单新一代商城F4,,,1,3d7193da320e70b95fbe8674
名鞋汇(西单新一代商城店),39.917578,116.381928,北京市西城区堂子胡同9号西单新一代商城F2,c1b790975fc7b5db1b94c6d8,,1,c1b790975fc7b5db1b94c6d8
辉扬数码(西单新一代商城店),39.917557,116.381656,北京市西城区堂子胡同9号西单新一代商城F1,2a357d964cfd44b1cb213d21,,1,2a357d964cfd44b1cb213d21
时尚衣坊(西单新一代商城店),39.917814,116.381861,北京市西城区堂子胡同9号西单新一代商城F3,fad178412e1d3a477702693a,,1,fad178412e1d3a477702693a
步瑶坊(西单新一代商城店),39.917933,116.381685,北京市西城区堂子胡同9号西单新一代商城F2,2c7bd598fe6ecd448a36ee57,,1,2c7bd598fe6ecd448a36ee57
衣之尚(西单新一代商城店),39.917762,116.381782,堂子胡同9号F3层,b3b566ee6ab8ce034351c0d2,,1,b3b566ee6ab8ce034351c0d2
SKY HOMME(西单新一代商城店),39.917854,116.382003,北京市西城区堂子胡同9号西单新一代商城F4,,,1,0baf095eacdde64ebd484205
阿基拉(西单新一代商城店),39.917736,116.381876,北京市西城区堂子胡同9号西单新一代商城F3,,,1,83d00b4207da6b6c25d2bbc0
玉阁阁(西单新一代商城店),39.917743,116.381919,北京市西城区堂子胡同9号西单新一代商城F1,,,1,9f282315791681ac4657262c
韩妹儿(西单新一代商城店),39.91771,116.38192,北京市西城区堂子胡同9号西单新一代商城F3,,17710729980,1,ce5ea3017a903891e6e9654f
景园(西单新一代商城店),39.917711,116.381783,北京市西城区堂子胡同9号西单新一代商城F2,1e38583b35ee4ea22811d101,,1,1e38583b35ee4ea22811d101
韩伊饰品(西单新一代商城店),39.917837,116.381858,北京市西城区堂子胡同9号西单新一代商城F1,8ee0cbf2fd42c759c61b7531,,1,8ee0cbf2fd42c759c61b7531
艺绳缘(西单新一代商城店),39.917583,116.381656,北京市西城区堂子胡同9号西单新一代商城F1,6b94c9c258bbf149744ff1ca,,1,6b94c9c258bbf149744ff1ca
美婷内衣(西单新一代商城店),39.917285,116.381728,北京市西城区堂子胡同9号西单新一代商城F3,,,1,0d97985f793dc3f51ef74dd6
TANG MEI REN(西单新一代商城店),39.917339,116.381642,北京市西城区堂子胡同9号西单新一代商城F3,,,1,33c578e29baad90149fc8d6f
万事龙(西单新一代商城店),39.917506,116.381826,北京市西城区堂子胡同9号西单新一代商城F5,9787c422df5e11cb1e5800e1,,1,9787c422df5e11cb1e5800e1
Jf(西单新一代商城店),39.917626,116.381927,北京市西城区堂子胡同9号西单新一代商城F4,,,1,a0b6aa8ed87acbab9222e057
迷你服饰(西单新一代商城店),39.91747,116.381787,北京市西城区堂子胡同9号西单新一代商城F3,ab88dff82d6037208605bfc0,,1,ab88dff82d6037208605bfc0
小雨点(西单新一代商城店),39.917473,116.381665,北京市西城区堂子胡同9号西单新一代商城F4,ac52d19bccb58dfe3ce2317b,,1,ac52d19bccb58dfe3ce2317b
女士时装系(西单新一代商城店),39.918014,116.381817,北京市西城区堂子胡同9号西单新一代商城F3,,,1,c7e9daed6e8a3a5b2bb97c27
Queen Home(西单新一代商城店),39.917902,116.381928,北京市西城区堂子胡同9号西单新一代商城F4,,,1,bee58a9ac93426d9c26c1429
盈瑞(西单新一代商城店),39.917612,116.381662,北京市西城区堂子胡同9号西单新一代商城F2,a67823b0422650e8da2f280e,,1,a67823b0422650e8da2f280e
韩国制造(西单新一代商城店),39.917469,116.382015,北京市西城区堂子胡同9号西单新一代商城F4,,,1,d251340428e97485e0110326
古斓格(西单新一代商城店),39.917686,116.381814,北京市西城区堂子胡同9号西单新一代商城F2,3e90e6ebc63dca8c15a19057,,1,3e90e6ebc63dca8c15a19057
广州名品(西单新一代商城店),39.917779,116.381863,北京市西城区堂子胡同9号西单新一代商城F2,,,1,69fcfeb44c34afa55cbe8623
媛柔(西单新一代商城店),39.917654,116.381804,北京市西城区堂子胡同9号西单新一代商城F5,e6eae39b906c40120b1cc7c3,,1,e6eae39b906c40120b1cc7c3
依人时尚(西单新一代商城),39.917417,116.381917,堂子胡同9号F4层,9669d5a60abdaadd2b11d161,,1,9669d5a60abdaadd2b11d161
艾百饰(西单新一代商城),39.917519,116.381588,堂子胡同9号西单新一代商城F2层101,3c0a5b6bb1cca02b94ec846d,(010)57748444,1,3c0a5b6bb1cca02b94ec846d
4FU(西单新一代商城),39.917993,116.381789,堂子胡同9号F3层,007ad521b2e6bcb317b54bf8,,1,007ad521b2e6bcb317b54bf8
私人show(西单新一代商城),39.917787,116.381648,北京市西城区堂子胡同9号西单新一代商城F4层117,,,1,cb2527785077915a96ca0716
easics(天元利生体育商厦),39.922884,116.416903,北京市东城区王府井大街201号北京利生体育商厦F2层,361456b4f8cd79adb34c49be,(010)51244083,1,361456b4f8cd79adb34c49be
哥伦比亚(天元利生体育商厦),39.923039,116.416771,王府井大街201号天元利生体育商厦F1层,,,1,68200a19d242a0b0be4842bc
THE NORTH FACE(天元利生体育商厦),39.922962,116.416777,王府井大街201号天元利生体育商厦F1层,,,1,8d41ec189b99b6bd9ee3210c
春之恋(西单新一代商城),39.917443,116.381732,堂子胡同9号F3层,e4439397d5b9b0e5260bd01a,,1,e4439397d5b9b0e5260bd01a
脚板族(西单新一代商城店),39.917889,116.38192,北京市西城区堂子胡同9号西单新一代商城F2,,,1,60096f9450f298b9c72ba162
经典时尚(西单新一代商城店),39.917759,116.381642,北京市西城区堂子胡同9号西单新一代商城F4,4bc220290d523a1c6e20b9e0,,1,4bc220290d523a1c6e20b9e0
亿嘉服(西单新一代商城店),39.917538,116.381932,北京市西城区堂子胡同9号西单新一代商城F3,25c918e183b5adaa0bf5eb99,,1,25c918e183b5adaa0bf5eb99
JWI秀(西单新一代商城店),39.917479,116.381746,堂子胡同9号F4层,7f3eb016204f4c500f0a706d,,1,7f3eb016204f4c500f0a706d
give(西单新一代商城店),39.917774,116.381752,北京市西城区堂子胡同9号西单新一代商城F4,,,1,145a1abeafbee740d6b74e50
DD House(西单新一代商城店),39.917608,116.381718,北京市西城区堂子胡同9号西单新一代商城F1,21e27fa7d10064a1c51e5169,,1,21e27fa7d10064a1c51e5169
雅风(西单新一代商城店),39.917733,116.381706,北京市西城区堂子胡同9号西单新一代商城F3,bfd32a6ecb11cd44591093a9,,1,bfd32a6ecb11cd44591093a9
aisashi(西单新一代商城店),39.917612,116.381924,北京市西城区堂子胡同9号西单新一代商城F5,,,1,bd67174688561abc09b93a87
男爵馆(西单新一代商城店),39.917835,116.381706,北京市西城区堂子胡同9号西单新一代商城F3,,,1,9d76fe3ac5719be7c61e510b
金鑫缘(西单新一代商城店),39.917576,116.381723,北京市西城区堂子胡同9号西单新一代商城F3,d39b3784c5f8e52dc9e33ca1,,1,d39b3784c5f8e52dc9e33ca1
爱纱妮姿专业调整型内衣(西单新一代商城店),39.917445,116.381906,北京市西城区堂子胡同9号西单新一代商城F3,,,1,ab8f10413a24e8f73310af70
绅度(西单新一代商城店),39.917686,116.381987,北京市西城区堂子胡同9号西单新一代商城F4,cf2edfc45a3b280ebb17e7fc,,1,cf2edfc45a3b280ebb17e7fc
贵族公主|内衣(西单新一代商城店),39.917407,116.381906,北京市西城区堂子胡同9号西单新一代商城F3,,,1,8a3eda42cf2dd09d14c8f687
韩国馆(西单新一代商城店),39.917809,116.381728,北京市西城区堂子胡同9号西单新一代商城F3,,,1,9a5e8cd9626e8173c42ba182
麦德豪(西单新一代商城店),39.917944,116.381933,北京市西城区堂子胡同9号西单新一代商城F3,967cbce17957ac72b04c494c,,1,967cbce17957ac72b04c494c
梦伊美(西单新一代商城店),39.91752,116.381613,西城区西单北大街堂子胡同9号新一代商城4层,fdb34695146915dd4107c1fb,,1,fdb34695146915dd4107c1fb
施可嘉(西单新一代商城店),39.91774,116.3817,北京市西城区堂子胡同9号西单新一代商城F1,85e8cc3474f8d2a830621205,,1,85e8cc3474f8d2a830621205
D&H(西单新一代商城店),39.917449,116.3819,北京市西城区堂子胡同9号西单新一代商城F4,ae638a1eefeeb17b077ce822,,1,ae638a1eefeeb17b077ce822
角度(西单新一代商城店),39.917717,116.381637,北京市西城区堂子胡同9号西单新一代商城F2,b9e57184386e04682902e161,,1,b9e57184386e04682902e161
时尚前线(西单新一代商城店),39.917704,116.381841,北京市西城区堂子胡同9号西单新一代商城F4,4af5f7e320ca40a4abf0cd65,,1,4af5f7e320ca40a4abf0cd65
简的珍品店(西单新一代商城店),39.917839,116.381808,北京市西城区堂子胡同9号西单新一代商城F1,95e3fe09596c5621c6effb69,,1,95e3fe09596c5621c6effb69
Z&M(西单新一代商城店),39.917701,116.381814,北京市西城区堂子胡同9号西单新一代商城F3,8e1a22cc9270221b16a1902a,,1,8e1a22cc9270221b16a1902a
衣酷(西单新一代商城店),39.917891,116.382007,北京市西城区堂子胡同9号西单新一代商城F3,9e49f30758882558250bd008,,1,9e49f30758882558250bd008
北京小伙儿(西单新一代商城店),39.91741,116.38174,北京市西城区堂子胡同9号西单新一代商城F1,,,1,7fb9a9a3b557640f28201afc
色的宝贝(西单新一代商城),39.917768,116.381747,堂子胡同9号F3层,b5f74f9b6173af02c6effb51,,1,b5f74f9b6173af02c6effb51
美一步(西单新一代商城),39.917264,116.381737,北京市西城区堂子胡同９号西单新一代商城2层,ec9da2d2409ef41abda822a7,,1,ec9da2d2409ef41abda822a7
新风(西单新一代商城),39.917438,116.381622,堂子胡同9号西单新一代商城F3层,b89e364de45ee7216cc02c04,,1,b89e364de45ee7216cc02c04
karrimor(天元利生体育商厦),39.922883,116.416767,王府井大街201号北京利生体育商厦1层,5e4cd427ab91fdfedbeced06,,1,5e4cd427ab91fdfedbeced06
paya(天元利生体育商厦),39.922932,116.416819,王府井大街201号北京利生体育商厦F2层,5f4d6eeb45832722c9fa5fdb,,1,5f4d6eeb45832722c9fa5fdb
瑞丽(西单新一代商城店),39.917746,116.382006,北京市西城区堂子胡同9号西单新一代商城F4,a38e4ac97570bf4f84420ec1,,1,a38e4ac97570bf4f84420ec1
XIAO HEI GE服装店(西单新一代商城店),39.91799,116.38185,北京市西城区堂子胡同9号西单新一代商城F4,171baca8174cc01c8e772782,,1,171baca8174cc01c8e772782
御绳阁(西单新一代商城店),39.917701,116.381875,北京市西城区堂子胡同9号西单新一代商城F1,d5820bf53545d954250bd0da,13691303628,1,d5820bf53545d954250bd0da
Mr.潮品名店(西单新一代商城店),39.917853,116.381912,北京市西城区堂子胡同9号西单新一代商城F4,,,1,053666275df4945559bbbc0a
服饰鞋帽店(西单新一代商城店),39.917653,116.381987,北京市西城区堂子胡同9号西单新一代商城F4,,,1,28b9c227a43fc4a207fef5b1
衣家欧韩女装(西单新一代商城店),39.91729,116.381644,北京市西城区堂子胡同9号西单新一代商城F3,f58ca48194a8a1a838e4a671,,1,f58ca48194a8a1a838e4a671
再回首(西单新一代商城店),39.917757,116.381728,北京市西城区堂子胡同9号西单新一代商城F3,,,1,ef75da058049dfa4c1f1cfbd
快乐衣站(西单新一代商城店),39.917895,116.38194,北京市西城区堂子胡同9号西单新一代商城F3,2da0c1d6ca1ec3a8581093e4,,1,2da0c1d6ca1ec3a8581093e4
花车饰品店(西单新一代商城店),39.917509,116.381826,北京市西城区堂子胡同9号西单新一代商城F2,4039824021ab341617b54b2c,,1,4039824021ab341617b54b2c
五千里(西单新一代商城店),39.917846,116.381813,北京市西城区堂子胡同9号西单新一代商城F2,c494f0c1ccf538244c6d4614,,1,c494f0c1ccf538244c6d4614
欧韩主题馆(西单新一代商城店),39.91773,116.381642,北京市西城区堂子胡同9号西单新一代商城F4,ef04dbe69f2023b1f72310b3,,1,ef04dbe69f2023b1f72310b3
SAY NO(西单新一代商城店),39.917719,116.381991,北京市西城区堂子胡同9号西单新一代商城F1,,,1,e6e05820ef436e3bf90cad77
欧M站(西单新一代商城店),39.917853,116.38194,北京市西城区堂子胡同9号西单新一代商城F3,8f25dab30e8dad7d118824bd,,1,8f25dab30e8dad7d118824bd
新潮靓酷(西单新一代商城店),39.917578,116.381989,北京市西城区堂子胡同9号西单新一代商城F4,,,1,dfe76933a19e344e9a0050c3
wangjiao.88服装店(西单新一代商城店),39.91764,116.381723,北京市西城区堂子胡同9号西单新一代商城F3,b99b4f426b090e417c29bdb1,,1,b99b4f426b090e417c29bdb1
酷牛仔(西单新一代商城店),39.917555,116.381989,北京市西城区堂子胡同9号西单新一代商城F4,8c97f4934698dd490bf5eb76,,1,8c97f4934698dd490bf5eb76
雯外贸内衣阁(西单新一代商城店),39.917388,116.381788,北京市西城区堂子胡同9号西单新一代商城F3,,18511765528,1,933d0240e473989fd92f2858
美琪(西单新一代商城店),39.917524,116.381665,北京市西城区堂子胡同9号西单新一代商城F4,f50fc8bc63ef6b61d72ce2df,,1,f50fc8bc63ef6b61d72ce2df
EVANY(西单新一代商城店),39.917765,116.381913,北京市西城区堂子胡同9号西单新一代商城F4,,,1,320337db49c678238d77274f
罗绮芳菲(西单新一代商城店),39.917812,116.381782,北京市西城区堂子胡同9号西单新一代商城F3,,,1,7693297d8ebfb543ed74f8f2
百合鞋店(西单新一代商城店),39.917788,116.381783,北京市西城区堂子胡同9号西单新一代商城F2,,,1,0323469de3945617bca82248
香衣百合(西单新一代商城店),39.917582,116.38166,北京市西城区堂子胡同9号西单新一代商城F3,,,1,47f02c0bd409cfa38505bf0f
宫S(西单新一代商城店),39.917861,116.382007,北京市西城区堂子胡同9号西单新一代商城F3,aaa7ede34345fa4cbbbd63b5,,1,aaa7ede34345fa4cbbbd63b5
一六(西单新一代商城),39.917234,116.381846,西城区堂子胡同9号西单新一代商城f3层,7c42e1e4c8182ae5102935e0,,1,7c42e1e4c8182ae5102935e0
情思晓(西单新一代商城),39.91732,116.381856,堂子胡同9号F3层,7dcaa03accd28663e115f9ef,,1,7dcaa03accd28663e115f9ef
Matural Story(西单新一代商城),39.917424,116.381925,堂子胡同9号西单新一代商城F4层015,,,1,df3c1f8f6e75495b8f1a89cb
爱依坊(西单新一代商城),39.917708,116.381844,北京市西城区堂子胡同9号F4层,,,1,bcb03b85a1defc5372210b2d
纯调(西单新一代商城),39.917884,116.381741,堂子胡同9号F4层,00f17e6bde5fdce53c9a5e6a,,1,00f17e6bde5fdce53c9a5e6a
三元梅国(西单新一代商城),39.9179,116.381611,堂子胡同9号F1层,1a8c7cced95ce4c32fb96d5a,,1,1a8c7cced95ce4c32fb96d5a
魅力风尚(西单新一代商城),39.917914,116.382006,堂子胡同9号西单新一代商城F3层039A,,,1,16d2478697ec37c7ae080f14
美纤尚(西单新一代商城),39.917687,116.381791,堂子胡同9号F3层,801cbd4d489747dd1e1d112d,,1,801cbd4d489747dd1e1d112d
国贸商城,39.91567,116.46588,北京市朝阳区建国门外大街1号,8eda4683e8253f3c28201aa3,(010)65357586,1,8eda4683e8253f3c28201aa3
沃尔玛(昆泰商城店),39.928711,116.451237,北京市朝阳区朝阳门外大街12号,550fd5f90a43f660921fc9af,(010)85612050,1,550fd5f90a43f660921fc9af
朝外MEN雅宝商城,39.928011,116.448413,北京市朝阳区朝阳门外大街26号,c8e8f63304058475ab0dd849,,1,c8e8f63304058475ab0dd849
国贸商城-一期,39.915264,116.465415,北京市朝阳区建国门外大街1号,8bac8d16a1e304c151e5c55f,,1,8bac8d16a1e304c151e5c55f
LV路易威登(北京国贸商城店),39.915156,116.46405,北京市朝阳区建外大街1号国贸商城西楼L128商铺,a24d0c8d2b7785cc3913fdf9,(010)65056213,1,a24d0c8d2b7785cc3913fdf9
昆泰商城,39.928594,116.451633,北京市朝阳区朝阳门外大街12号,4eb3b5335d3f716c43024546,,1,4eb3b5335d3f716c43024546
屈臣氏(国贸商城3期B座店),39.917302,116.466899,北京市朝阳区建国门外大街1号院国贸三期地下一层,2e0c5801c769f51435b06c53,(010)65360271,1,2e0c5801c769f51435b06c53
国贸商城-二期,39.916749,116.464791,北京市朝阳区建国门外大街1号,a49cacc68e025b4cf90cad34,,1,a49cacc68e025b4cf90cad34
蒂芙尼官方专卖店(北京国贸商城),39.918163,116.466693,北京市朝阳区建国门外大街1号商户3L101,,,1,672a6944ad2a759825e0a05c
爱马仕官方专卖店(国贸商城一期店),39.915256,116.465624,北京市朝阳区建外街道建国门外大街1号国贸商城1期1楼,15ed53ced033754d9222e055,(010)65051580,1,15ed53ced033754d9222e055
恒基商城(建国门内大街店),39.91261,116.434724,北京市东城区建国门内大街18号,7524cb4f0aeffd2d04026f12,(010)57630001,1,7524cb4f0aeffd2d04026f12
国贸商城北区东段,39.91788,116.467454,北京市朝阳区建国门外大街1号,,,1,26d66f04a6c7f0a34151c0cd
卡地亚(国贸商城精品店),39.915171,116.466609,北京市朝阳区建国门外大街1号国贸商城南区一层SL1031号商铺,edd64ce130826f883fe23154,(010)65056660,1,edd64ce130826f883fe23154
古驰(国贸商城店),39.915251,116.465614,北京市朝阳区建国门外大街1号国贸写字楼1座一层,6b823e016b4dd4811576433e,(010)65059821,1,6b823e016b4dd4811576433e
Dior(北京国贸商城女装店),39.915208,116.465157,北京市朝阳区建国门外大街1号国贸商城南区1层119号商铺,bff8fa7deb8c07b9c8213d54,(010)65052062,1,bff8fa7deb8c07b9c8213d54
京客隆(劲松商城店),39.891286,116.468841,北京市朝阳区东三环南路58号院2号富顿中心B座1层,79cceb3678605b901e580055,"(010)58673706,(010)58673707",1,79cceb3678605b901e580055
博璨BROTZEIT(国贸商城店),39.917907,116.467411,建国门外大街1号北京国贸商城L7层NL7006,98989c38b0136f7a46e27405,,1,98989c38b0136f7a46e27405
BOSE音响(国贸商城3期A座店),39.918154,116.466008,北京市朝阳区建国门外大街1号国贸大厦A座B2层,4fc9d230340b1dce02ff2d12,,1,ec7bdc144f7ff5a44207c1da
TASAKI(国贸商城3期A座店),39.918231,116.465815,北京市朝阳区建国门外大街1号国贸大厦B座F1,7b4d270954b2b45bc9291599,(010)85351108,1,7b4d270954b2b45bc9291599
阿迪达斯adidas(国贸商城2期店),39.916816,116.466501,朝阳区建国门外大街1号国贸商城3座B1楼NB1027号,75036835e8c2ceb65e0d0257,(010)85965869,1,75036835e8c2ceb65e0d0257
宝格丽官方专卖店(北京国贸商城精品店),39.914995,116.466145,北京市朝阳区建国门外大街1号国贸商城1楼L107A店铺,,(010)58669716,1,370e7c0999378c04364aaeae
HANA葉奈·隐泉旗下(国贸商城店),39.917651,116.467351,建国门外大街1号国贸商城北区6层NL6006,9efbaabe1c1220553c9a5eea,(010)85996131,1,9efbaabe1c1220553c9a5eea
野兽派(国贸商城3期A座店),39.918183,116.466642,北京市朝阳区建国门外大街1号国贸大厦B座F1,,,1,044ff276d1d4168a5fd4fe7f
周生生(北京国贸商城),39.918594,116.464777,北京市朝阳区建国门外大街1号国贸商城北区2层3L,,,1,6697ac9fd1b154ff0b1cc7f8
Fendi北京国贸商城精品店,39.915341,116.465803,北京市朝阳区建国门外大街1号国贸写字楼1座B1,c9ca35892e777e326f4760bb,(010)65053881,1,87248d96c53866aa2806ce54
布歌东京(国贸商城店),39.918163,116.466665,北京市朝阳区建国门外大街1号北京国贸商城3期B1-9,1cb24901999ed36a2811d15e,"(010)85351003,4008015107",1,1cb24901999ed36a2811d15e
施华洛世奇(国贸商城3期A座店),39.918194,116.466189,北京市朝阳区建国门外大街1号国贸大厦B座B1,2daaa436d8fa1e5f86420e43,(010)65056006,1,aa40108b9e89260cc5effb55
百汇馆(国贸商城3期A座店),39.91833,116.465216,北京市朝阳区建国门外大街1号国贸大厦B座B1,5df6680eb42bbc69e6e9657b,,1,5df6680eb42bbc69e6e9657b
宝岛眼镜(国贸商城3期B座店),39.918483,116.467521,北京市朝阳区建国门外大街1号国贸大厦B座B1,8a3256bbc11dc06d08f5eb4f,(010)59017800,1,8a3256bbc11dc06d08f5eb4f
九龙商厦,39.899822,116.481036,广渠路31号,20b0671bb7520a5926d2bb05,,1,20b0671bb7520a5926d2bb05
Samsonite箱包店(国贸商城3期B座店),39.917338,116.467344,北京市朝阳区建国门外大街1号国贸大厦B座B1,3f5d54ddc4965a78902ca305,(010)85952677,1,3f5d54ddc4965a78902ca305
GIVENCHY(国贸商城一期店),39.91498,116.465876,北京市朝阳区建国门外大街1号国贸写字楼1座B1,,(010)65051120,1,45bac84c7ca12b8d3a04b1df
时尚廊(国贸商城1期),39.915429,116.464677,北京市朝阳区建国门外大街1号国贸西楼F2,d4f834a20d12d7f24f3a5966,,1,d4f834a20d12d7f24f3a5966
剪酷(国贸商城3期A座店),39.917948,116.466449,北京市朝阳区建国门外大街1号国贸大厦B座B2,cd2c9107a05ec15d32870a08,13051991915,1,cd2c9107a05ec15d32870a08
雅宝商城窗帘店,39.927629,116.447932,朝阳门外大街26号朝外men雅宝商城B座1层,64fae8d9d202428ebea24050,13552172025,1,64fae8d9d202428ebea24050
AHKAH(北京国贸商城),39.916627,116.465468,北京市朝阳区建国门外大街1号国贸写字楼2座B1,,,1,b33c4db8cba74c3313293560
agete 阿卡朵(国贸商城店),39.916321,116.466806,北京市朝阳区建国门外大街1号国贸写字楼2座B1,954cf250d55e41e9316212a5,(010)65059787,1,954cf250d55e41e9316212a5
UNDER ARMOUR(国贸商城3期B座店),39.91679,116.466639,北京市朝阳区建国门外大街1号国贸大厦B座F4,2bd431c113af7dd3f503b82a,(010)65056066,1,2bd431c113af7dd3f503b82a
耐克(蓝岛商厦店),39.928333,116.455976,北京市朝阳区朝阳门外大街8号蓝岛大厦F4,ba0efc16fa56fcf046572637,(010)58214174,1,ba0efc16fa56fcf046572637
roseonly.(北京国贸商城),39.916633,116.465562,北京市朝阳区建国门外大街1号国贸写字楼2座B1,b394080d54825d76250bd088,(010)65058208,1,b394080d54825d76250bd088
江诗丹顿(北京国贸商城旗舰店),39.915039,116.464844,建国门外大街1号国贸商城南区二层SL2033店铺,,(010)65056893,1,deb923c988f4eea0c7f50d84
VANS(北京国贸商城),39.916848,116.466314,北京市朝阳区建国门外大街1号国贸写字楼2座B1,,(010)65871106,1,af00e88943a31e6d96f08c10
BOTTEGA VENETA(北京国贸商城),39.915185,116.466659,朝阳区建国门外大街1号国贸商城一层SL1033店铺,,(010)65055587,1,c429299deb0071cf3310af71
TUMI(国贸商城),39.916446,116.466799,北京市朝阳区建国门外大街1号国贸写字楼2座F3,,(010)65056088,1,af58641015908400abf7294f
Tie for her(北京国贸商城),39.918284,116.465743,北京市朝阳区建国门外大街1号国贸大厦B座F2,,,1,2af7eccbbe95b7e55e17c322
中国烟草(朝外Men雅宝商城),39.928053,116.448961,北京市朝阳区朝阳门外大街26号朝外ＭＥＮ雅宝商城1层,9fbfeef2c86df745ede4a55c,,1,9fbfeef2c86df745ede4a55c
雅宝商城,39.928072,116.448365,日坛路北京日坛宾馆负一楼,ec0b7b920f30ae35d518b767,,1,ec0b7b920f30ae35d518b767
Pandora(北京国贸商城南区东段),39.915995,116.466991,北京市朝阳区建国门外大街1号国贸写字楼1座B1,,(010)65055596,1,c11f6adfa66a64f8f119373b
Fatburger O'Briens(北京国贸商城),39.915541,116.467147,北京市朝阳区建国门外大街1号国贸写字楼1座B1,,,1,dfba08d6030b927d21f01784
RIMOWA(北京国贸商城),39.918006,116.465469,北京市朝阳区建国门外大街1号国贸大厦B座B1,49a02a7a280220592b201ace,(010)85351085,1,49a02a7a280220592b201ace
MiKi House(国贸商城店),39.916773,116.465402,北京市朝阳区建国门外大街1号国贸写字楼2座B1,5e872f864b1e23c40c0e6bf7,(010)65059652,1,5e872f864b1e23c40c0e6bf7
烟酒超市(西大望路),39.887001,116.483534,北京市朝阳区磨房北里132号,b03e0116eeefbceaf4b9162f,,1,b03e0116eeefbceaf4b9162f
maje(国贸商城3期B座店),39.917613,116.467423,北京市朝阳区建国门外大街1号国贸大厦B座F3,,(010)65929838,1,504d5e5c28689b737369d330
Stuart Weitzman女鞋店(国贸商城店),39.916558,116.465751,北京市朝阳区建国门外大街1号国贸写字楼2座B1,37521a685f2e33e45d0d026d,,1,37521a685f2e33e45d0d026d
Kids Land(国贸商城店),39.915016,116.465015,北京市朝阳区建国门外大街1号国贸商城区域3地下2层3B204,6113ef7722baf20d8e772707,,1,6113ef7722baf20d8e772707
国贸商城(西区),39.915091,116.463825,北京市朝阳区建国门外大街1号,c1efac0ea2dee2e0715e8040,(010)65051551,1,c1efac0ea2dee2e0715e8040
原平乐园烟酒商城,39.890448,116.480738,北京市朝阳区南磨房路甲5号,34fba88a955833ab283a9f46,13601130673,1,34fba88a955833ab283a9f46
FRED PERRY(北京国贸商城),39.916819,116.466585,北京市朝阳区建国门外大街1号国贸写字楼2座B1,bf05d508d00d73f4c03644e2,(010)65054247,1,bf05d508d00d73f4c03644e2
BOUCHERON,39.915428,116.465514,北京市朝阳区建国门外大街1号国贸商城1期F1,,,1,8bb71beb5f554a8bafee7ad7
贝黎诗(北京国贸商城),39.916072,116.467155,北京市朝阳区建国门外大街1号国贸写字楼1座B1,,(010)65050553,1,63f74618adc9e6972fb17ea6
北京礼品超市(恒基商城),39.910775,116.435872,老钱局胡同10号附近,aa859a5ad1aba8875bf6be1b,(010)68655555,1,aa859a5ad1aba8875bf6be1b
琉璃工坊(国贸商城一期店),39.916594,116.464972,北京市朝阳区建国门外大街1号国贸写字楼2座B1,051e7b17547d5c32c7f02579,"(010)65054597,(010)65058661",1,051e7b17547d5c32c7f02579
雪茄迷 Cigar Aficionado(国贸商城店),39.917856,116.467117,北京市朝阳区建国门外大街1号国贸大厦B座F4,,(010)85950870,1,df4d7cbd7aac24c7400245df
KInSOLe(国贸商城3期B座店),39.917041,116.467346,北京市朝阳区建国门外大街1号国贸大厦B座B1,2f7296348506d4ee5cbe86f3,(010)56197672,1,2f7296348506d4ee5cbe86f3
Berluti(国贸商城一期店),39.915395,116.464323,北京市朝阳区建国门外大街1号国贸西楼F1,480b24d0676c63e89cec2b54,(010)65051300,1,480b24d0676c63e89cec2b54
CK(国贸商城1期店),39.914695,116.465893,北京市朝阳区建国门外大街1号国贸三期国贸商城地下一层NB1023A号铺,8634c6a00bfa4a0f2811d1c7,(010)65351431,1,8634c6a00bfa4a0f2811d1c7
FOREO(北京国贸商城),39.916572,116.46686,北京市朝阳区建国门外大街1号国贸写字楼2座B1,e5b839619a0451201f3894e7,,1,e5b839619a0451201f3894e7
星海钢琴商城(夕照寺专卖店),39.896723,116.446871,北京市东城区绿景馨园东区12之6-8,f4a33da9b17bfb103010af70,(010)87190970,1,f4a33da9b17bfb103010af70
COMMON GENDER(北京国贸商城),39.916667,116.466076,北京市朝阳区建国门外大街1号北京国贸商城B1层NB128B,,,1,fb86c8e8849df8630869d94b
LA PERLA(国贸商城3期A座店),39.918238,116.465902,北京市朝阳区建国门外大街1号国贸大厦B座F2,5a72a1862f9fa580abf0cd79,,1,5a72a1862f9fa580abf0cd79
dyson(国贸商城3期B座店),39.917131,116.466933,北京市朝阳区建国门外大街1号国贸大厦B座F2,8bbf45a8dac3f5cdc056acd3,,1,8bbf45a8dac3f5cdc056acd3
BLUE ERDOS(北京国贸商城中区),39.916652,116.466274,北京市朝阳区建国门外大街1号国贸写字楼2座B1,8d9ad09f81bad3ec306212bc,(010)65058548,1,8d9ad09f81bad3ec306212bc
RIOTLILY艾特里里(国贸商城店),39.916781,116.467033,北京市朝阳区建国门外大街1号国贸写字楼2座B1,,,1,adb5836785743e66744ff14a
云迹普洱(国贸商城3期B座店),39.918255,116.467224,北京市朝阳区建国门外大街1号国贸大厦B座F2,,18500571869,1,0c329276f765b9354f6d46ee
TOMMY HILFIGER(北京国贸商城南区西段),39.916028,116.464866,北京市朝阳区建国门外大街1号国贸写字楼1座B1,2946f8152e83ae46c356ac95,(010)65058656,1,2946f8152e83ae46c356ac95
CAMPER(北京国贸商城),39.916847,116.466496,北京市朝阳区建国门外大街1号国贸写字楼2座B1,590239a9e8b4612dcafa5f7a,(010)65056337,1,590239a9e8b4612dcafa5f7a
RABEANCO(国贸商城3期B座店),39.917131,116.466802,北京市朝阳区建国门外大街1号国贸大厦B座F3,,,1,339bcc8535f180e061685885
edition(国贸商城3期A座店),39.918192,116.466321,北京市朝阳区建国门外大街1号国贸大厦B座B1,6d11db7aa99f512a8733048c,(010)59611567,1,6d11db7aa99f512a8733048c
ICICLE(国贸商城店),39.915811,116.465203,建国门外大街1号北京国贸商城B1层WB107,,,1,a0394b1419359be996ca07f3
CAGLIARI EXCHANGE(国贸商城店),39.916652,116.466176,北京市朝阳区建国门外大街1号国贸写字楼2座B1,b3d04e67abe2df0101294fc8,(010)65054005,1,b3d04e67abe2df0101294fc8
drivepro(国贸商城3期A座店),39.917859,116.46576,北京市朝阳区建国门外大街1号国贸大厦B座B1,0ec1035b1b214d7f49fc8d37,13811334877,1,0ec1035b1b214d7f49fc8d37
Y-3(国贸商城3期B座店),39.917312,116.467339,北京市朝阳区建国门外大街1号国贸大厦B座F3,24320bfc24aaa725f4e73b7a,"(010)65053078,(010)65058762,(010)65054811",1,24320bfc24aaa725f4e73b7a
LEXINGTON CLOTHING HOME(北京国贸商城中区),39.916304,116.465101,北京市朝阳区建国门外大街1号国贸写字楼1座B1,761a1490039bce4aa5da3997,,1,761a1490039bce4aa5da3997
真爱时刻外星人的旅程(北京国贸商城),39.917919,116.467245,北京市朝阳区建国门外大街1号国贸大厦B座F3,,,1,0d653d91d7995fc72a02e1a5
HERMES PUIFORCAT ST LOUIS(国贸商城1期),39.915298,116.464955,北京市朝阳区建国门外大街1号国贸商城区域１1层,ccd93840734d17d817948ec9,,1,ccd93840734d17d817948ec9
珍爱时刻(北京国贸商城),39.91889,116.46488,北京市朝阳区建国门外大街1号国贸大厦A座F1,,,1,0a81de001e6675e2aeb22ad6
烟草(昆泰商城店),39.928583,116.451557,北京市朝阳区朝阳门外大街12号昆泰商城1层,fb268734ef4d12339c82ea03,,1,fb268734ef4d12339c82ea03
雅宝商城-西门鲜花店,39.928024,116.447805,北京市朝阳区朝外大街26-10雅宝商城西门北侧底商,86b475bd50fa36f40bf5eb72,,1,86b475bd50fa36f40bf5eb72
烟酒茶超市(朝外市场街),39.927719,116.447887,体育场东路9号,6b525c315ccc1487b7265542,,1,6b525c315ccc1487b7265542
L.K.Bennett London(国贸商城3期B座店),39.917013,116.466797,北京市朝阳区建国门外大街1号国贸大厦B座F3,7091a5e9953a3536f33cba01,,1,7091a5e9953a3536f33cba01
sheme(北京国贸商城),39.918466,116.465247,北京市朝阳区建国门外大街1号国贸大厦A座F2,2ca081afb15b95d5c61e5180,,1,2ca081afb15b95d5c61e5180
威顿斯保险箱(昆泰商城店),39.928725,116.451754,朝阳门外大街8号蓝岛大厦B1,8469883d1290a8b109b93a21,,1,8469883d1290a8b109b93a21
徕卡相机旗舰店(北京国贸商城店),39.916389,116.467306,北京建国门外大街1号国贸写字楼二座一层CL1005号,,,1,9ef6d2a7be076d122bb97caa
北京锐邦宏达电动车商城,39.890481,116.489025,北京市朝阳区南磨房路27号附近,,,1,1fd3138c2e3c3b63c056ac86
Brick&WoodBoutique(北京国贸商城北区东段),39.917601,116.467046,建国门外大街1号北京国贸商城L7层NL7002,,,1,0a2ea1382aa522a48f1a89b5
CK服装店(国贸商城3期B座店),39.917463,116.467415,北京市朝阳区建国门外大街1号国贸大厦B座F3,818b899d34eff003157643c1,,1,818b899d34eff003157643c1
烟酒茶超市,39.906495,116.486639,朝阳区百子湾路29号,981d7d4b66586c5d4bcc4a60,"(010)87755497,4000971552",1,981d7d4b66586c5d4bcc4a60
江南布衣 JNBY(国贸商城3期A座店),39.918181,116.466524,北京市朝阳区建国门外大街1号国贸商城3期A座B1,54117de904dbcae7ab059d4b,,1,54117de904dbcae7ab059d4b
SKY outdoors(国贸商城3期B座店),39.918225,116.467336,北京市朝阳区建国门外大街1号国贸大厦B座F4,27b8b9d07e31b92ba2acc4b9,,1,27b8b9d07e31b92ba2acc4b9
国贸大酒店月饼礼盒售卖区(国贸商城3期A座店),39.918149,116.465394,北京市朝阳区建国门外大街1号国贸商城3期A座B1,d197cfabd13dd8d22dfaa75c,,1,d197cfabd13dd8d22dfaa75c
APM Monaco(国贸商城店),39.918337,116.467273,北京市朝阳区建国门外大街1号国贸商城3期B座F3,,,1,f3d3cc960b54e8019d95de18
皇家雪兰莪(国贸商城店),39.914518,116.466001,北京市朝阳区建国门外大街1号国贸商城南区地下1层,056246aab1a59191cafa5ffc,,1,056246aab1a59191cafa5ffc
Boss男装店(国贸商城1期店),39.915612,116.464898,北京市朝阳区建国门外大街1号国贸商城1期B1,,,1,222589d7550bb19728201adb
便利蜂(东水井胡同银河SOHO商城C座地下一层店),39.926228,116.439544,东水井胡同2号银河SOHO商城C座地下1层3-103号,,4000001234,1,c1c355a2f6d68d93c72ba1ac
Annvita Tea Room(北京国贸商城),39.916195,116.465161,建国门外大街1号北京国贸商城B1层WB117,,,1,a9376c72a27c0ed74afc8db5
绣皇古吴(国贸商城店),39.91683,116.464932,北京市朝阳区建国门外大街1号国贸商城2期B1,4d84474601253475e8e582ae,,1,4d84474601253475e8e582ae
serglo rossl(国贸商城一期店),39.915399,116.465551,北京市朝阳区建国门外大街1号国贸写字楼1座B1,ebb4711f7abbc9ff1ce99912,,1,ebb4711f7abbc9ff1ce99912
Houston&Alice LONDON(国贸商城3期B座店),39.918634,116.467558,北京市朝阳区建国门外大街1号国贸大厦B座B1,,,1,5b22b0650602f4ebf5c59cfa
ALEXISEYEWEAR(国贸商城中国大饭店西),39.915437,116.464901,北京市朝阳区建国门外大街1号B1层B1102,cabef2f1513bf49e49fc8db2,(010)65055567,1,cabef2f1513bf49e49fc8db2
ARTCHIC服装饰品店(国贸商城3期A座店),39.917765,116.465716,北京市朝阳区建国门外大街1号国贸商城3期A座B1,72ff10fe230de2ee6240a931,,1,72ff10fe230de2ee6240a931
Einson marry(恒基商城),39.912331,116.434949,北京市东城区建国门内大街18号恒基商城F1,0830ac5b3e9f1d3b2b201ab1,,1,0830ac5b3e9f1d3b2b201ab1
liberation服装饰品店(国贸商城3期A座店),39.917958,116.465811,北京市朝阳区建国门外大街1号国贸大厦B座B1,0c09d8306f912af0f019378d,(010)85351180,1,0c09d8306f912af0f019378d
烟酒茶超市,39.929053,116.491414,延静里14号楼4单元102室,b01a7a68a067a7ec306212d3,,1,b01a7a68a067a7ec306212d3
PAUL&SHARK(北京国贸商城),39.915547,116.465195,北京市朝阳区建国门外大街1号国贸写字楼1座B1,156cebd86e23899599005035,,1,156cebd86e23899599005035
CHENG PROJECT(国贸商城3期B座店),39.918112,116.467008,北京市朝阳区建国门外大街1号国贸商城3期B座F3,13d8fe263ee598675e0d02fb,(010)57626279,1,13d8fe263ee598675e0d02fb
C&B(国贸商城3期B座店),39.918312,116.467376,北京市朝阳区建国门外大街1号国贸大厦B座B1,b0d0eb09cde683c35b10937a,,1,b0d0eb09cde683c35b10937a
DISSONA(国贸商城3期B座店),39.918187,116.467167,北京市朝阳区建国门外大街1号国贸大厦B座B1,b66ea9a91cab7d42f603b85e,(010)65059150,1,b66ea9a91cab7d42f603b85e
CONCEPT STORE by Any Shop Style(北京国贸商城),39.918219,116.465869,建国门外大街1号北京国贸商城B1层3B108,,,1,fb1ab4aa484e83da5abbbc89
烟酒茶超市,39.888228,116.44104,北京市东城区左安门内大街10号,2d3265641a94d45cc7f0254b,(010)67110089,1,2d3265641a94d45cc7f0254b
Alexandre Zouarl(北京国贸商城),39.91615,116.467008,北京市朝阳区建国门外大街1号国贸写字楼1座B1,,,1,f7474313b5659add8f1a89c3
GERBE(国贸商城3期B座店),39.917137,116.466931,北京市朝阳区建国门外大街1号国贸大厦B座F3,59aab15c410e2e652b201af1,,1,59aab15c410e2e652b201af1
MIRANDA KONSTANTINIDOU(国贸商城3期B座店),39.917052,116.467456,北京市朝阳区建国门外大街1号国贸大厦B座B1,d018f19bd8b54e32fe0eb002,,1,d018f19bd8b54e32fe0eb002
Lavinia(国贸商城3期B座店),39.917135,116.467423,北京市朝阳区建国门外大街1号国贸大厦B座B1,,(010)65046421,1,6227df0cfe57f9cb2d473306
育婴室(国贸商城3期A座店),39.918305,116.465575,北京市朝阳区建国门外大街1号国贸商城3期A座B1,639a81c2d82eee45bca822f7,,1,639a81c2d82eee45bca822f7
GR EES E(国贸商城3期),39.918249,116.465906,建国门外大街1号国贸商城3期B1层,c0ebba47e0e006e0f42310fc,,1,c0ebba47e0e006e0f42310fc
妩(北京国贸商城),39.917755,116.465371,北京市朝阳区建国门外大街1号北京国贸商城B1层3B115、3B115A,767eb854690acecd882fb5e6,(010)85351872,1,767eb854690acecd882fb5e6
信达通讯(雅宝商城),39.928104,116.448553,朝外大街26号雅宝商城内,6d6e7c12a4a3df35efe4a557,(010)85653007,1,6d6e7c12a4a3df35efe4a557
