name,lat,lng,adderss,street_id,telephone,detail,uid
昊天塔,39.741048,116.160828,北京市房山区东关村昊天公园内,367caa9d4cbcfb6c41024547,,1,367caa9d4cbcfb6c41024547
赛纳园,39.732496,116.137949,苏庄北路南100米,1e085fce082eb3c4ce04ef30,,1,1e085fce082eb3c4ce04ef30
良乡塔,39.741482,116.161135,良乡镇燎石岗,5090416797e53a66df1e52bb,,1,5090416797e53a66df1e52bb
天元寺,39.750826,116.114458,北京市房山区大马村路,5c2dc21d7b4c7a796fc02c36,,1,5c2dc21d7b4c7a796fc02c36
昊天公园,39.740006,116.161341,北京市房山区东关村,d1469ee7b3a64a62843304c6,,1,d1469ee7b3a64a62843304c6
北潞园健身公园,39.742153,116.131778,苏庄东街与良乡西路交叉口,9ee7cc78f100bc7016c905c6,,1,9ee7cc78f100bc7016c905c6
良香公园,39.714972,116.152918,北京市房山区白杨西路南150米,d9f34cbc1426e626a2acc49f,,1,d9f34cbc1426e626a2acc49f
常庄清真寺,39.722848,116.157892,北京市房山区良乡东区十六号路常舜嘉苑东南,5eb30156675b0c189c09f700,,1,5eb30156675b0c189c09f700
清真古寺,39.722919,116.15746,良官公路与良梨路交叉口东150米,25ec69fc5934547dc26c14f5,,1,25ec69fc5934547dc26c14f5
太平寺,39.739782,116.123099,北京市房山区京港澳高速公路太平寺(太平庄西里附近),f534a9f58b1fb4332ab97c19,,1,f534a9f58b1fb4332ab97c19
北京基督教会房山堂,39.738949,116.125492,北京市房山区太平庄南路,cbd86e079ceb0b9db5147f3d,(010)81388077,1,cbd86e079ceb0b9db5147f3d
良园,39.715047,116.155823,北京市房山区良香公园(良常路西),af74b1ceb05b1d24e81e97cf,,1,af74b1ceb05b1d24e81e97cf
国瓷会馆,39.755533,116.152978,行宫二里14-1,a3f21eee45f3e6392fb17e2a,,1,a3f21eee45f3e6392fb17e2a
文体公园,39.746206,116.142415,北京市房山区月华大街13号西南100米,,,1,2b8c192243091330ab0dd8e7
三街健身公园,39.739359,116.145971,北京市房山区良乡镇北巷15号附近,,,1,2e3c3d72b0faeca1e856fa5a
巧虎游乐园,39.737171,116.142464,北京市房山区良乡西潞南大街,71f7c90b3a38b7ca95ca0797,,1,71f7c90b3a38b7ca95ca0797
星期六(儿童水上主题乐园),39.731757,116.148985,良乡镇拱辰南大街44号(荣鹏花园小区底商二层),fed011525b72eda0e812e4e1,,1,aa11fea811c7d742c9291560
常庄清真寺-东区,39.72283,116.157957,良官公路与良梨路交叉口东150米,,,1,b9a8570826ae3c1bf50e7763
良乡文庙,39.73492,116.148845,北京市房山区拱辰南大街26号-2号,,,1,db5074289a001b8f128824d6
观音阁,39.745455,116.147363,拱辰大街甲27号附近,0ce5e01d4eab263036b06c86,,1,0ce5e01d4eab263036b06c86
郊劳台,39.721223,116.141179,良乡大南关外,b022fb7ec73a44b08bf15dba,,1,b022fb7ec73a44b08bf15dba
佛光普照,39.729048,116.147153,凯旋大街与长虹东路交叉口南50米,b24c15dd2f6354c242d63e5f,,1,b24c15dd2f6354c242d63e5f
北京家美睿儿童乐园,39.72703,116.154378,良官公路西150米,ae916f09c1fc25d041e19247,13044400088,1,ae916f09c1fc25d041e19247
常庄清真寺-西区,39.722802,116.157364,良官公路与良梨路交叉口东100米,,,1,9a441412136e3ed930621253
泰山天元石文博馆,39.750209,116.150729,北京市房山区建华路36-1号西北50米,,,1,a9089da17754206f3686f416
燕都书画苑,39.753704,116.142199,良乡政通路西里1号,7daf2c566773f767a3acc480,,1,7daf2c566773f767a3acc480
伊林郡公园,39.760578,116.149544,北京市房山区拱辰北大街与机场桥交叉口东北100米,,,1,0ecb361f63bc120a601c6755
儿童乐园,39.729017,116.157487,北京市房山区长虹东路15号,38afd73a79ce3af8d81318c8,,1,38afd73a79ce3af8d81318c8
郊野生态区公园,39.745932,116.205963,房山区清苑北街,ee926063002ffad717948e50,,1,ee926063002ffad717948e50
房山新城滨水森林公园,39.737082,116.202587,长阳镇清苑北街,b124e9087d257eb0b05c6a6b,,1,b124e9087d257eb0b05c6a6b
北京理工大学人工湖休闲公园,39.740594,116.176268,北京市房山区,4355802eaad6736cb1077ddb,,1,4355802eaad6736cb1077ddb
大学城公园,39.721544,116.182949,北京市房山区于管营村南大街29号,695a85540988445a2811d150,,1,695a85540988445a2811d150
关帝阁,39.711746,116.16749,黑鲁路北50米,69fcd6df1f2afa2fca2915f5,,1,69fcd6df1f2afa2fca2915f5
长阳滨河公园西,39.760995,116.192859,北京市房山区中央休闲购物区CSD(长阳核心区)的万亩滨河公园,f30b4c0d267fa9d0f4e73bb2,,1,f30b4c0d267fa9d0f4e73bb2
房山区新城滨水森林公园南区,39.758671,116.194687,长阳路北200米,5d3b9fc501eebe8a1df74d10,,1,5d3b9fc501eebe8a1df74d10
北方温泉会议中心-会议厅,39.749101,116.16902,北京市房山区良乡镇梅花街7号,be58f2f22febe175343a7141,(010)61353521,1,be58f2f22febe175343a7141
金隅公园,39.746005,116.19524,北京市房山区阜盛大街,,,1,6dfa6e08cba0e1a4b320a8f3
广阳城森林公园,39.746514,116.191277,城建广悦居小区西侧,,,1,c6de8e391801ac458605bfaa
青春之岛社区座,39.722276,116.181538,北京市房山区良乡东区十四号路东200米,,,1,30a233f4a1fe9def87154190
北城华府展示中心,39.756799,116.185283,良乡东环路碧波园小区2号楼低商,,,1,c2bbe2d7128545843b221c35
黄村镇周村文化大院,39.714532,116.296922,芦求路东100米,2cc3d050f4fa6b906c3e1b91,,1,2cc3d050f4fa6b906c3e1b91
念坛公园,39.712913,116.319335,新源大街(近义和庄地铁站),de134f5dc2c5a2fb82288aca,(010)61210476,1,de134f5dc2c5a2fb82288aca
清源公园,39.742184,116.310222,北京市黄村镇清源西路孙庄子村北口向西200米,e48980feaac71684120daafc,,1,e48980feaac71684120daafc
大兴滨河森林公园,39.721751,116.316608,北京大兴区义和庄,9e993921547ec0bef4b91620,,1,9e993921547ec0bef4b91620
康庄公园,39.761283,116.34884,北京市大兴区康庄路2号,2c0bd6c5cb7a25aa43ab9afa,(010)69250081,1,2c0bd6c5cb7a25aa43ab9afa
火神庙,39.737109,116.349068,大兴区黄村东大街38号院3号楼一层,348f7f54e141ff90744ff14d,,1,348f7f54e141ff90744ff14d
黄村公园,39.747544,116.341416,北京市大兴区清源路,d52831f90df102a72efaa7fb,,1,d52831f90df102a72efaa7fb
北京基督教会大兴福音堂,39.751076,116.317651,北京市大兴区黄村镇兴旺路71号,eb0d5d8d6c7f1d3d46e27433,(010)59429956,1,eb0d5d8d6c7f1d3d46e27433
街心公园,39.734676,116.345346,黄村兴丰大街三段197号,eef2d5282f13d4a73be4a6fb,(010)69250487,1,eef2d5282f13d4a73be4a6fb
中国印刷博物馆,39.749184,116.338174,兴华大街2段1号,fbc30ea746eb8d25260bd0f8,"(010)81282770,(010)81282860",1,fbc30ea746eb8d25260bd0f8
枣林公园,39.757797,116.342755,清源街道办事处对面,d146b38825e92bc7750269e7,,1,d146b38825e92bc7750269e7
清真寺,39.738776,116.345924,兴丰大街三段141,e3a7fd13db01da5228b97ced,,1,e3a7fd13db01da5228b97ced
兴旺公园(北区),39.754117,116.315858,北京市大兴区兴旺路,0f4084b699a6ae144107c16a,,1,0f4084b699a6ae144107c16a
黄村儿童游乐园,39.74805,116.341623,兴丰北大街3号,65e6071821dbd83090114cd9,,1,65e6071821dbd83090114cd9
圣伯多禄礼堂,39.752642,116.327075,圣和巷5号,3ad76df668662a146f3e1b70,,1,3ad76df668662a146f3e1b70
观音寺新区,39.73631,116.35454,北京市大兴区双河南巷8号,ba9c2d7fc2e0dac55d17c37c,,1,ba9c2d7fc2e0dac55d17c37c
大兴电视塔,39.732453,116.349861,北京市大兴区,,,1,d4560b4ac0c30aaf2b06ced3
基督教宏恩教会,39.757878,116.306334,双芦巷与芦星西街交叉口东100米,a12a94eea2459b72db131891,,1,a12a94eea2459b72db131891
北京大兴复临安息日教会,39.712846,116.356525,北京市大兴区X021(黄徐路),38e1eed6856236051329357f,,1,38e1eed6856236051329357f
兴旺公园(南区),39.742111,116.323556,北京市大兴区兴旺路,38c4ff5c92e4c32d59bbbc1a,,1,38c4ff5c92e4c32d59bbbc1a
玉才宫,39.740636,116.346533,北京市大兴区利民西巷4附近,33038e9838f19f10eaf8533f,,1,33038e9838f19f10eaf8533f
宋庄多功能厅,39.729954,116.304207,卫华路与永华路交叉口西50米,6169d3fd0a2fe8add1f49edb,,1,6169d3fd0a2fe8add1f49edb
明清瓷器馆,39.736943,116.33854,黄村西大街兴雅珠宝城一层,f7ae10be27f582792902e14c,,1,f7ae10be27f582792902e14c
北京印刷学院-美术馆,39.750168,116.336501,兴华大街北京印刷学院,09185c56f61b1a5ef11937d1,(010)60261500,1,09185c56f61b1a5ef11937d1
大兴一中校史馆,39.731671,116.350632,北京市大兴区兴政街大兴一中校史馆(大兴区政府东南),3004541082aec49787330407,,1,3004541082aec49787330407
怡苑亭,39.760369,116.356575,北京市大兴区福海路福苑小区,50c58d92680d244a7d29bdba,,1,50c58d92680d244a7d29bdba
小天使学前亲子教育,39.755562,116.320148,丽园路30号院康乃馨城1号楼,12d24fb8f8469ee39e82ea78,,1,12d24fb8f8469ee39e82ea78
哈利路亚,39.71261,116.297822,黄村黄村镇周村中街21号附近,06f4ce154609e567d52ce24d,,1,06f4ce154609e567d52ce24d
邻里文化展览馆,39.731022,116.338765,北京市大兴区兴华路1号附近,,,1,c32a374f3e3f2df617c8f67c
馨轩艺术中心,39.753863,116.344538,黄村兴丰大街彩虹新城东门底商137号,,,1,eb5d6e05f306aa06bda24093
祖慈肩颈,39.75574,116.324891,丽园路丽园小区C区北大门西侧200米路南25门脸,d29a8fe4965691321d1d116a,,1,d29a8fe4965691321d1d116a
北京南宫旅游景区,39.8009,116.158507,王佐镇南宫南路1号,83c8d282d2f54cd386420e64,(010)83316030,1,83c8d282d2f54cd386420e64
北京南宫鹦鹉园,39.799956,116.161031,北京市丰台区南宫迎宾路1号,793597d9f31d8a3ce70738fe,(010)83319768,1,793597d9f31d8a3ce70738fe
五洲植物乐园,39.801405,116.160573,北京市丰台区王佐镇南宫南路1号南宫旅游景区内,fc6e4514dfd809fbebe582dc,(010)83318032,1,fc6e4514dfd809fbebe582dc
南宫世界地热博览园,39.799083,116.160726,王佐镇南宫南路1号,3a0fbba8e9131a419ee32105,(010)83318649,1,3a0fbba8e9131a419ee32105
南宫体育公园,39.804322,116.149983,南宫滨河路,9271a6024fc2257ed518b735,(010)83396161,1,9271a6024fc2257ed518b735
八一影视基地,39.794283,116.144282,王佐乡,,,1,ac665d3bd7901344b020a835
怪村亲子动物园,39.8022,116.111205,魏各庄路西150米,,,1,828d056be917f73a7af79657
滨河公园,39.799431,116.153472,王佐,5b25f446a78399ea10293505,,1,5b25f446a78399ea10293505
南宫旅游景区-南宫热带植物园,39.799697,116.162015,北京市丰台区王佐镇南宫南路1号世界地热博览园内,bc939d675c79409e0f0e6b6b,(010)83318649,1,bc939d675c79409e0f0e6b6b
花果山,39.802605,116.16038,北京市丰台区南宫村南宫地热博览园内,,,1,f5977597e268bde24302454a
南宫冰雪嘉年华,39.799702,116.164722,北京市丰台区王佐南宫村南宫世界地热博览园,,,1,302933639234ec3ef33cba3e
老爷庙,39.805786,116.156665,北京市丰台区长青路103号院243号,a50303c8b1553d5f1b11d54f,,1,a50303c8b1553d5f1b11d54f
南宫旅游景区-温室公园,39.800369,116.161538,北京市丰台区王佐镇南宫南路1号南宫世界地热博览园内,813fd2d17f7d803f047ce88c,(010)83316030,1,9d1521e5f6783f2f3586f4e3
南宫灯光艺术夜,39.799079,116.160723,北京市丰台区王佐镇南宫迎宾路,,,1,38a6a59d823406a628d7ab31
世界种子大会品种展示基地,39.80205,116.141812,北京市丰台区S328(泉湖东路),58896006e99c866e86420e45,,1,58896006e99c866e86420e45
北京市丰台区南宫苑,39.799308,116.158904,北京丰台区王佐镇南宫世界地热博览园内,947df9a1af7d957a2fb90840,(010)83316030,1,947df9a1af7d957a2fb90840
美薇婷婚礼主题生态观光园,39.77849,116.103631,大庙路,ecb060648f5497e003ff2da7,,1,ecb060648f5497e003ff2da7
嘉乐轩,39.762494,116.123064,良坨路与詹庄路交叉口西北150米,b867d03bad6bb323c909f0d7,"(010)57271608,(010)60302999",1,b867d03bad6bb323c909f0d7
沙漠绿洲,39.801409,116.161538,王佐镇迎宾路北京南宫旅游景区南宫世界地热博览园内,89ca91e05216de11bca82299,(010)83316030,1,89ca91e05216de11bca82299
翠林漫步公园,39.76743,116.160067,北京市房山区二十一号路与翠林路交叉口北150米,,,1,1ef709a5f499462e72455b1a
黄辛庄绿荫健身公园,39.765048,116.15536,北京市房山区松林西路与黄辛庄路交叉口北50米,0184e7c446c438f90e3ddaf5,,1,0184e7c446c438f90e3ddaf5
南宫旅游景区-采摘区,39.802331,116.159364,北京市丰台区南宫旅游景区内,,,1,cc20fb60806a87a52ce67b41
世界地热科普展览中心,39.799993,116.161328,北京市丰台区王佐镇迎宾路北京南宫旅游景区南宫世界地热博览园内,3b9b1a49dce308996fa3ccb3,(010)83318032,1,27a4af8e89e3139bb6147f59
南宫旅游景区百鸟乐园,39.801509,116.159462,北京市丰台区王佐镇迎宾路北京南宫旅游景区南宫世界地热博览园内,,,1,c923af7fd02efa6fd618b737
蝴蝶泉,39.800439,116.161303,王佐镇迎宾路北京南宫旅游景区南宫世界地热博览园内,da64aad5978f81659d9d6803,,1,da64aad5978f81659d9d6803
南宫旅游景区-南宫郊野休闲公园,39.80131,116.16148,王佐镇迎宾路北京南宫旅游景区南宫世界地热博览园内,,,1,1b89ef684f9b5bde9f09f773
戏耍流沙河,39.802958,116.160483,北京市丰台区南宫迎宾路南宫世界地热博览园内,,,1,81907c5901e7b08acac3dbf8
激战鲨鱼岛,39.802857,116.160387,北京市丰台区南宫迎宾路南宫世界地热博览园内,,,1,679b7d509da01b5459bbbc28
遨游九重天,39.803174,116.161541,北京市丰台区南宫迎宾路南宫世界地热博览园内,,,1,c323beb0df2bb9bef02d8368
筋斗云,39.802906,116.160011,北京市丰台区南宫迎宾路南宫世界地热博览园内,,,1,f0724882dcdab879f50e77c5
静花池,39.801721,116.159282,王佐镇迎宾路北京南宫旅游景区南宫世界地热博览园内,,,1,bae00b9b9a31962d9ff77962
碧瑶池,39.801688,116.159382,王佐镇迎宾路北京南宫旅游景区南宫世界地热博览园内,,,1,fa4965a479dd649c1d1d11c8
天马行空,39.802886,116.160621,北京市丰台区南宫迎宾路南宫世界地热博览园内,,,1,e2672248f9ffe3484207c1fe
拾光岛儿童乐园,39.80441,116.155717,北京市丰台区长青路109号,,,1,c9ec0af57a0f3cf8dbd891c6
名花名城,39.802033,116.161493,王佐镇南宫南路1号(五洲植物乐园内),b5fc33b68e7872a515a1901c,,1,b5fc33b68e7872a515a1901c
清风亭,39.802077,116.159593,王佐镇迎宾路北京南宫旅游景区南宫世界地热博览园内,,,1,0ff25f4798de1d9a6b49f3df
青蛙跳,39.803017,116.161456,北京市丰台区南宫迎宾路南宫世界地热博览园内,,,1,c51ae58faa09969a921fc9af
丛林飞车,39.800959,116.161358,王佐镇迎宾路北京南宫旅游景区南宫世界地热博览园内,daa20d0d4695eb454afd3f4e,,1,daa20d0d4695eb454afd3f4e
烟波池,39.801991,116.159579,王佐镇迎宾路北京南宫旅游景区南宫世界地热博览园内,,,1,905e15a0bed966c4fda7786a
巧渡通天河,39.802741,116.161546,北京市丰台区南宫迎宾路南宫世界地热博览园内,c47107ea0815a660a3acc43e,,1,c47107ea0815a660a3acc43e
长阳公园,39.76609,116.186301,北京市房山区长阳镇军留庄村长阳公园,6636a25db867fd81ad080fc5,,1,6636a25db867fd81ad080fc5
长阳体育公园,39.76704,116.208914,北京市房山区长阳体育公园(长于路东110米),72e57fd74edf3facf8dc85d0,,1,72e57fd74edf3facf8dc85d0
兰花文化休闲公园,39.789568,116.224726,京深路与稻田路交汇处东北角,dc4c8bf8fa1347bc76e5b608,,1,dc4c8bf8fa1347bc76e5b608
共和国部长纪念林,39.78234,116.195377,北京市房山区首创新悦都北,56d1912f9f72692cf7c59ce4,,1,56d1912f9f72692cf7c59ce4
智慧长阳艺术馆,39.762743,116.205366,长阳镇长于路甲3号,,,1,26836f3f6c68bb56f603b8e2
航天展示中心,39.817049,116.168542,云岗路与飞航路交叉口西北150米,35debf290599de44a6da3905,,1,35debf290599de44a6da3905
房山区新城滨水森林公园东区,39.763672,116.195672,北京市房山区长阳东环路新城滨水森林公园东区,cf3487f97fefcb47f603b81e,,1,cf3487f97fefcb47f603b81e
三官庙,39.803944,116.19887,周口店路西100米,7bd616e084a66278b04c492e,,1,7bd616e084a66278b04c492e
长阳兰花展,39.790248,116.222572,北京市房山区京深路与稻田路交汇处向北300米路东,a0aa0b22e5e058c2f7eafcaa,,1,a0aa0b22e5e058c2f7eafcaa
水务局公园,39.765017,116.196264,东环路与规划一路交叉口东南100米,f694028fd6bb3179a2d2304b,,1,f694028fd6bb3179a2d2304b
加州儿童乐园,39.774654,116.172588,京良路80号,,,1,e7261d729d13a3eb0a5cb3de
朱家坟碉堡,39.814819,116.203447,北京市丰台区云岗路附近,,,1,3ea1237313ef39e22cb96db9
北京农业职业学院-会议中心,39.779649,116.228266,北京市房山区天富街9号会议中心(蓝色港湾东)附近,d7a74a71e57d7ad559bbbce1,,1,539a54f3df71cc134d554744
友唱·M-Bar(绿地缤纷城店),39.763022,116.167217,北京市房山区天星街1号绿地缤纷城F3,2acf338276f935bbf7eafca1,,1,2acf338276f935bbf7eafca1
长阳公园管理中心,39.7633,116.208138,北京市房山区长于路3号,7b5c9b7daa43bda5f1193717,,1,7b5c9b7daa43bda5f1193717
沙滩嘉年华,39.762857,116.203934,长阳镇长于路甲3号(原北京市国土局房山分局第一国土所),0e30627a98693bc07dc87640,,1,0e30627a98693bc07dc87640
独义大棚,39.796712,116.214398,6号路附近,,,1,2be02c63c3ce071a9603190a
长阳冰雪文化节,39.766258,116.203362,北京市房山区中央休闲购物区CSD(长阳核心区)的万亩滨河公园,,,1,a3a7b449e11058baf60e77c8
长阳村,39.76945,116.183828,北京市房山区长阳公园(公园北路南),947e90f13fbddfa33904b11b,,1,947e90f13fbddfa33904b11b
世界公园,39.816772,116.293994,北京市丰台区丰葆路158号,0174a8e582b9cd8fbea2407b,(010)83613680,1,0174a8e582b9cd8fbea2407b
国营北京市卢沟桥农场紫谷伊甸园,39.816074,116.266241,北京市丰台区永定河堤农场路9号,ca4965f45407e18070210b17,,1,ca4965f45407e18070210b17
巴黎圣母院,39.816361,116.292678,花乡丰葆路158号世界公园欧洲景区内,c1eb1a820832ffb7f72310a4,,1,c1eb1a820832ffb7f72310a4
大王庙,39.805376,116.271779,北京市丰台区大王庙(左堤路东),4ea3f2f10267ddaaaecb6604,,1,4ea3f2f10267ddaaaecb6604
科罗拉多大峡谷,39.817869,116.291536,北京市丰台区花乡丰葆路158号世界公园美洲景区内,c01a090acacc6b363fe231a0,(010)83613680,1,c01a090acacc6b363fe231a0
应县木塔,39.816324,116.294984,花乡丰葆路158号世界公园亚洲景区内,7546aba36adff0bf283a9f55,,1,7546aba36adff0bf283a9f55
泰国大王宫,39.815918,116.2969,花乡丰葆路158号世界公园亚洲景区内,ae86bce5c7739c12d12dd663,,1,ae86bce5c7739c12d12dd663
圣·索非亚大教堂,39.816088,116.294633,花乡丰葆路158号世界公园欧洲景区内,,,1,112bb4703d73c126a3acc4a1
埃菲尔铁塔,39.816832,116.29299,北京市丰台区花乡丰葆路158号世界公园内,ce941605ce649ec559bbbc85,(010)83613681,1,ce941605ce649ec559bbbc85
世界公园-长城,39.816827,116.294675,北京市丰台区花乡丰葆路158号世界公园内,bb1d38e45af55e4e0c0a70df,,1,bb1d38e45af55e4e0c0a70df
塔欣壁龛金字塔,39.815254,116.290275,花乡丰葆路158号世界公园美洲景区内,b71bc67e6cd876df32169b7a,,1,b71bc67e6cd876df32169b7a
自由女神像,39.817537,116.291577,花乡丰葆路158号世界公园美洲景区内,438fd80b24f16c0d5e0d021d,,1,438fd80b24f16c0d5e0d021d
吉萨金字塔,39.815028,116.293806,花乡丰葆路158号世界公园非洲景区内,d782fd6a300f90a738e4a639,,1,d782fd6a300f90a738e4a639
比萨斜塔,39.816334,116.293822,北京市丰台区花乡丰葆路158号世界公园欧洲景区内,889591a00f7e0770c7f50dda,(010)83613561,1,889591a00f7e0770c7f50dda
岩心寺,39.81561,116.295556,花乡丰葆路158号世界公园亚洲景区内,8d8ce866cd5a83fd52e5c5e5,,1,8d8ce866cd5a83fd52e5c5e5
非洲景区,39.815041,116.294414,北京市丰台区花乡丰葆路158号世界公园内,c9afcafb30c2344ac03644ba,,1,c9afcafb30c2344ac03644ba
欧洲景区,39.818116,116.2935,花乡丰葆路158号世界公园内,1ebf6666fd053442ad080ff7,,1,1ebf6666fd053442ad080ff7
伦敦塔桥,39.816441,116.291953,北京市丰台区乡丰葆路158号世界公园欧洲景区内,2818951cb43bab7b6f4760cb,(010)83613561,1,2818951cb43bab7b6f4760cb
白宫,39.816074,116.290244,北京市丰台区花乡丰葆路158号世界公园美洲景区内,bddba4523aa3c0e5ad080f4b,,1,bddba4523aa3c0e5ad080f4b
泰姬陵,39.816476,116.296059,花乡丰葆路158号世界公园亚洲景区内,d8c3627f1e1791d8c61e512b,,1,d8c3627f1e1791d8c61e512b
凯旋门,39.817016,116.293888,北京市丰台区花乡丰葆路158号世界公园欧洲景区内,0f65b058cd794f4d2811d1ff,(010)83613685,1,0f65b058cd794f4d2811d1ff
纽约曼哈顿,39.817071,116.291096,花乡丰葆路158号世界公园美洲景区内,,,1,21ca22e4f78e0a130bccdde5
美国国会大厦,39.816485,116.290164,花乡丰葆路158号世界公园美洲景区内,4fc9a98c316fc651d4851f29,,1,4fc9a98c316fc651d4851f29
敦煌莫高窟,39.816696,116.294923,花乡丰葆路158号世界公园亚洲景区内,8142163be72548c31e1d1106,,1,8142163be72548c31e1d1106
仰光大金塔,39.815933,116.296369,北京市丰台区花乡丰葆路158号世界公园亚洲景区内,78ca24ec5547e3ed095cb30a,(010)83613561,1,78ca24ec5547e3ed095cb30a
非洲歌舞表演,39.814844,116.295244,花乡丰葆路158号世界公园非洲景区内,de5b7bca8208165ba21de945,,1,de5b7bca8208165ba21de945
罗马竞技场,39.815917,116.294079,花乡丰葆路158号世界公园欧洲景区内,8ef08c2c42edb8fab11e368f,,1,8ef08c2c42edb8fab11e368f
爱鸽园,39.815572,116.293981,花乡丰葆路158号世界公园内,9e1dd05d0e46f55ed82f28b0,,1,9e1dd05d0e46f55ed82f28b0
亚洲景区,39.817812,116.296468,花乡丰葆路158号世界公园内,a107711a0961aa53b05c6a75,,1,a107711a0961aa53b05c6a75
雅典卫城,39.81594,116.294322,北京市丰台区花乡丰葆路158号世界公园欧洲景区内,8df031b813b4e4ba2afc4865,(010)83613561,1,8df031b813b4e4ba2afc4865
德国城堡,39.817787,116.293246,花乡丰葆路158号世界公园欧洲景区内,5918107fba4d364614c8f6c1,,1,5918107fba4d364614c8f6c1
大象,39.814676,116.295673,花乡丰葆路158号世界公园内,cc546c8cec6e1c44cd04ef4e,,1,cc546c8cec6e1c44cd04ef4e
墨西哥土著图腾柱,39.815181,116.291065,花乡丰葆路158号世界公园美洲景区内,58d951c9479579c5fa0cad64,,1,58d951c9479579c5fa0cad64
巨石阵,39.817261,116.292578,花乡丰葆路158号世界公园欧洲景区内,16b98d034fe90451b4147f90,,1,16b98d034fe90451b4147f90
吴哥寺,39.816191,116.296589,北京市丰台区花乡丰葆路158号世界公园亚洲景区内,0d40f561171f7967c8291510,(010)83613561,1,0d40f561171f7967c8291510
世界公园(恐龙王国),39.81796,116.290822,北京市丰台区花乡大葆台158号,ba9189abb8941fa1e31103d1,(010)83613681,1,ba9189abb8941fa1e31103d1
狮身人面像,39.814868,116.294634,花乡丰葆路158号世界公园非洲景区内,08874810f196680b0bf5eba7,(010)83613681,1,08874810f196680b0bf5eba7
美洲景区,39.816031,116.29076,花乡丰葆路158号世界公园内,6a163b2c337d796f32870a16,,1,6a163b2c337d796f32870a16
博斯普鲁斯海峡大桥,39.815547,116.294961,花乡丰葆路158号世界公园欧洲景区内,c3475a576eab72036ca3cccf,,1,c3475a576eab72036ca3cccf
海的女儿,39.817147,116.291726,花乡丰葆路158号世界公园欧洲景区内,018732c8825849d9f4e73b8e,,1,018732c8825849d9f4e73b8e
亚历山大灯塔,39.815428,116.294594,花乡丰葆路158号世界公园非洲景区内,06e58a9ca50860cbfb221331,(010)83613685,1,06e58a9ca50860cbfb221331
亚太景区,39.814761,116.295446,北京市丰台区大葆台158号世界公园,4cf65e1204223cda2fe67b00,,1,4cf65e1204223cda2fe67b00
卡纳克神庙,39.815195,116.29355,北京市丰台区花乡丰葆路158号世界公园非洲景区内,de391bf54be3a5de15b54b7e,(010)83613561,1,de391bf54be3a5de15b54b7e
婆罗浮屠,39.816088,116.295757,花乡丰葆路158号世界公园亚洲景区内,17a696323cd550c82fb96d7c,,1,17a696323cd550c82fb96d7c
特别乐历险城,39.817925,116.291002,北京市丰台区花乡丰葆路158号世界公园游艺区内,94573f76d4ee91d2c4f02563,,1,94573f76d4ee91d2c4f02563
五重塔,39.816913,116.296028,花乡丰葆路158号世界公园亚洲景区内,45962ce73c2c667aa9175a0c,,1,45962ce73c2c667aa9175a0c
华盛顿纪念碑,39.816222,116.290534,花乡丰葆路158号世界公园美洲景区内,08d4f7b93e02769858f6be75,,1,08d4f7b93e02769858f6be75
圣·彼得大教堂,39.81625,116.293649,北京市丰台区花乡丰葆路158号世界公园欧洲景区内,,(010)83613685,1,8a3ab1909d49e9b97dc8763a
比利时第一公民雕像,39.817874,116.29366,花乡丰葆路158号世界公园欧洲景区内,4a66e4b978e72162400245e5,,1,4a66e4b978e72162400245e5
桂离宫,39.817499,116.295826,花乡丰葆路158号世界公园亚洲景区内,,,1,4d1fb86d37a44c799d9d6870
意大利台地园,39.818215,116.295964,花乡丰葆路158号世界公园欧洲景区内,af2b88ee655496cbb1077dc1,,1,af2b88ee655496cbb1077dc1
大本钟,39.816806,116.291947,北京市丰台区花乡丰葆路158号世界公园欧洲景区内,22a61c161ec111903010af41,,1,22a61c161ec111903010af41
美国宇航中心,39.81645,116.290966,花乡丰葆路158号世界公园内,49d4fb43d95a4f8b3a04b1c8,,1,49d4fb43d95a4f8b3a04b1c8
林肯纪念堂,39.816007,116.290782,北京市丰台区花乡丰葆路158号世界公园美洲景区内,0dbb2d4704b5bd840b1cc73a,(010)83613561,1,0dbb2d4704b5bd840b1cc73a
特洛伊木马,39.815796,116.294853,北京市丰台区花乡丰葆路158号世界公园欧洲景区内,097a769d4a63f03748cc4a3e,(010)83613344,1,097a769d4a63f03748cc4a3e
世界公园-尿童,39.817538,116.294052,北京市丰台区大葆台158号世界公园,,,1,61822ab850c8ee43902ca350
巴比伦门,39.816409,116.295717,北京市丰台区花乡丰葆路158号世界公园亚洲景区内,e96dedc8658e7ea3e215f906,"(010)83613685,(010)83613344",1,e96dedc8658e7ea3e215f906
测谎石,39.815946,116.29362,花乡丰葆路158号世界公园欧洲景区内,9b0912e4ea9d475fdf1e522f,,1,9b0912e4ea9d475fdf1e522f
听雨舫,39.817026,116.295595,花乡丰葆路158号世界公园亚洲景区内,668bea82443a452b902ca39e,(010)83613344,1,668bea82443a452b902ca39e
金字塔探秘,39.815201,116.294307,花乡丰葆路158号世界公园非洲景区内,0372ef31f042c40df50e7724,,1,0372ef31f042c40df50e7724
维也纳·斯特凡教堂,39.817913,116.293901,花乡丰葆路158号世界公园欧洲景区内,f35345482b439ef80782c28c,,1,f35345482b439ef80782c28c
布鲁塞尔原子结构,39.817708,116.294371,大葆台158号世界公园附近,0c6fda7ec51d9832ca1b95d0,,1,0c6fda7ec51d9832ca1b95d0
水幕电影,39.818033,116.292386,大葆台158号世界公园附近,8b681d43ede130c617c8f629,,1,8b681d43ede130c617c8f629
唐吉诃德,39.815748,116.29312,花乡丰葆路158号世界公园欧洲景区内,e1bcb57b6e0271b8eb1e97f5,,1,e1bcb57b6e0271b8eb1e97f5
阿布·西姆贝尔神殿,39.815027,116.29327,花乡丰葆路158号世界公园非洲景区内,69a769eaae4d0f30c7f50de0,,1,69a769eaae4d0f30c7f50de0
桑契门,39.816491,116.296558,花乡丰葆路158号世界公园亚洲景区内,4796cc8d585fd24f38221c08,,1,4796cc8d585fd24f38221c08
激光喷泉,39.815693,116.292187,花乡丰葆路158号世界公园内,47e3e1baab8b2f89f60e778d,(010)83613681,1,47e3e1baab8b2f89f60e778d
片石山房,39.81728,116.295555,花乡丰葆路158号世界公园亚洲景区内,8c9ae5d4ca6ee6a18f55eccf,(010)83613344,1,8c9ae5d4ca6ee6a18f55eccf
世界公园东码头,39.815287,116.296356,花乡丰葆路158号世界公园内,,,1,536bd5f9ae190fa9c51e51f0
波斯波利斯宫遗址,39.816194,116.295134,花乡丰葆路158号世界公园亚洲景区内,ae8e1e23b20215a743afe62b,,1,ae8e1e23b20215a743afe62b
卷石洞天,39.817033,116.295388,花乡丰葆路158号世界公园亚洲景区内,f6863903b813584e33621217,(010)83613344,1,f6863903b813584e33621217
金字塔地下迷城,39.815002,116.293921,花乡丰葆路158号世界公园非洲景区内,5e0602ce7fbf7eb408f5eb2c,,1,5e0602ce7fbf7eb408f5eb2c
童话世界,39.818192,116.292799,花乡丰葆路158号世界公园内,72204c27a9aa6b6ed8131811,,1,72204c27a9aa6b6ed8131811
美洲商亭,39.815694,116.290617,世界公园内,8c84b11b04150a7c4bcc4add,,1,8c84b11b04150a7c4bcc4add
莫扎特像,39.8165,116.296316,丰葆路188号附近,6ed4f3864361c1339222e0d2,,1,6ed4f3864361c1339222e0d2
维纳斯雕像,39.817837,116.294693,北京市丰台区花乡丰葆路158号世界公园欧洲景区内,abc2ec3c421fc84b7bf796ae,(010)83613344,1,abc2ec3c421fc84b7bf796ae
小天使雕像,39.818076,116.295966,花乡丰葆路158号世界公园欧洲景区内,14aa0a442b297fe8c929150b,,1,14aa0a442b297fe8c929150b
拉提琴的少女,39.817924,116.295772,花乡丰葆路158号世界公园欧洲景区内,8bd18ec168f65a38c61e518a,(010)83613344,1,8bd18ec168f65a38c61e518a
驯鹿乐园,39.814523,116.295255,花乡丰葆路158号世界公园非洲景区内,1e7eab67b3d3717840afe638,,1,1e7eab67b3d3717840afe638
夏娃雕像,39.817952,116.295326,北京市丰台区花乡丰葆路158号世界公园欧洲景区内,7a919806cdfcde5effa77863,(010)83613681,1,7a919806cdfcde5effa77863
斯蒂芬教堂,39.817791,116.294282,北京市丰台区大葆台158号世界公园,1cd8124ef2088a442b3a9f9c,,1,1cd8124ef2088a442b3a9f9c
布鲁塞尔第一公民,39.817601,116.29536,大葆台158号世界公园附近,1ce49a08a56841dc4107c13d,,1,1ce49a08a56841dc4107c13d
雅典帕堤侬神庙,39.817022,116.292868,北京市丰台区花乡丰葆路158号世界公园罗马竞技场附近,d9b2b6d874d0a8d3d03ce3d3,,1,d9b2b6d874d0a8d3d03ce3d3
独柱寺,39.81573,116.295857,花乡丰葆路158号世界公园亚洲景区内,ace740f80dee956fe8f8539f,,1,ace740f80dee956fe8f8539f
贴地飞行,39.815655,116.290651,世界公园内,,,1,1ded0ba05f6b0f11dc1e52e8
半壁书屋,39.817188,116.295476,花乡丰葆路158号世界公园亚洲景区内,1e5903e7b1f0f01dfaf0cb95,,1,1e5903e7b1f0f01dfaf0cb95
大力神·海格立斯,39.818009,116.2957,花乡丰葆路158号世界公园欧洲景区内,a241d03be6b118adee74f8ee,(010)83613344,1,a241d03be6b118adee74f8ee
隔云亭,39.816944,116.295074,花乡丰葆路158号世界公园亚洲景区内,2a9fa991f44e11958505bf7d,,1,2a9fa991f44e11958505bf7d
原子球,39.817598,116.29347,北京市丰台区大葆台158号世界公园,23c91ab0eecec0734d2fdf24,,1,23c91ab0eecec0734d2fdf24
荷兰城堡,39.816772,116.295706,北京市丰台区大葆台158号世界公园,,,1,e75a4ee442a03520abf729f2
大卫,39.817958,116.294664,花乡大葆台158号,b669671a193fedaa6fc02c64,(010)83613344,1,b669671a193fedaa6fc02c64
世界公园码头,39.81665,116.291514,花乡丰葆路158号世界公园内,487624b2c5279539eaf85327,,1,487624b2c5279539eaf85327
吊桥,39.81549,116.292955,花乡丰葆路158号世界公园内,e1f4c910ffe1a7b0b6f42f16,,1,e1f4c910ffe1a7b0b6f42f16
湿婆神像,39.815566,116.296068,花乡丰葆路158号世界公园亚洲景区内,0bdae0bef17728640aa8d400,,1,0bdae0bef17728640aa8d400
纪念林,39.816818,116.295806,花乡丰葆路158号世界公园亚洲景区内,d5eb7313e5d453bd3fe231af,,1,d5eb7313e5d453bd3fe231af
浴女,39.817952,116.295852,花乡丰葆路158号世界公园欧洲景区内,338c9d62e24bfe4726e0a0dd,,1,338c9d62e24bfe4726e0a0dd
清音境,39.817177,116.295673,北京市丰台区花乡丰葆路158号世界公园亚洲景区内,3fe886b253cf39f49403199c,(010)83613561,1,3fe886b253cf39f49403199c
伦敦议会大厦,39.816895,116.291898,花乡丰葆路158号世界公园欧洲景区内,64626d911f0af91a336212cc,,1,64626d911f0af91a336212cc
中国园,39.817115,116.295547,花乡丰葆路南门,,,1,031a62c073d98da20782c23a
里亚托桥,39.815678,116.293796,北京市丰台区花乡丰葆路158号世界公园欧洲景区内,80274c7e883c3fd933169bd4,,1,80274c7e883c3fd933169bd4
高空脚踏车,39.81805,116.292838,花乡丰葆路158号世界公园游艺区内,afadd8cfa5e4aed032f71d61,,1,afadd8cfa5e4aed032f71d61
夜雕像,39.818047,116.295846,花乡丰葆路158号世界公园欧洲景区内,a811153cf5a48f532afc48fa,(010)83613344,1,a811153cf5a48f532afc48fa
斑马像,39.814724,116.295996,花乡丰葆路158号世界公园内,8eac6e9b833c29fd4f3a591b,,1,8eac6e9b833c29fd4f3a591b
罗马城徽,39.816223,116.294021,北京市丰台区花乡丰葆路158号世界公园欧洲景区内,1ed5b553749ffcfee215f95a,,1,1ed5b553749ffcfee215f95a
山林女神·宁芙,39.818028,116.295772,花乡丰葆路158号世界公园欧洲景区内,ff750ffe8fd3866d871541c2,(010)83613344,1,ff750ffe8fd3866d871541c2
观舫亭,39.81718,116.295566,花乡丰葆路158号世界公园亚洲景区内,215718644d7ec891373a71a7,(010)83613344,1,215718644d7ec891373a71a7
文书雅苑,39.817218,116.295484,北京市丰台区花乡丰葆路158号世界公园亚洲景区内,0b8f4ac0bc69163d2bd7ab78,,1,0b8f4ac0bc69163d2bd7ab78
阿芙罗蒂德雕像,39.817988,116.296003,花乡丰葆路158号世界公园欧洲景区内,3b847dd4fedbdcbe4f3a5919,,1,3b847dd4fedbdcbe4f3a5919
亚当雕像,39.818233,116.295234,花乡丰葆路158号世界公园欧洲景区内,e8dd01f738a695873f9a5e11,(010)83613344,1,e8dd01f738a695873f9a5e11
滨河公园,39.774055,116.331477,北京市大兴区兴业大街和双高路交叉口,1bc3d0ed280ad958e9f853ad,,1,1bc3d0ed280ad958e9f853ad
兴海公园(宏福路),39.794891,116.340191,北京市大兴区西红门镇兴海家园星苑对面,55fa2c0bc52e1d2d1ce999fa,,1,55fa2c0bc52e1d2d1ce999fa
金星公园,39.767707,116.348184,滨河街,d6c5d991f0fd7ae830169bfa,,1,d6c5d991f0fd7ae830169bfa
地铁文化公园,39.787468,116.33272,北京市大兴区西红门镇南环路,488823073c13132a077ce8bc,,1,488823073c13132a077ce8bc
兴华公园,39.80099,116.333247,北京市大兴区欣宁街与西红门北二街交汇处,0523a141faa0c404b33c81e4,,1,0523a141faa0c404b33c81e4
友乐汇(绿地缤纷城店),39.769758,116.341303,大兴区金星西路3号院一号楼绿地集团2楼,5012b63d34450e0322f01707,(010)60255656,1,5012b63d34450e0322f01707
星光生态文化休闲公园,39.782744,116.354745,西红门北兴路双星桥东,89aaad5e4f2b00f828d7ab3b,,1,89aaad5e4f2b00f828d7ab3b
高鑫公园,39.804021,116.305176,北京市丰台区樊羊路(近世界公园),d5464cf85ce2e22afda77833,,1,d5464cf85ce2e22afda77833
西红门清真寺,39.796718,116.348275,欣宏北大街109,850815e1731d168242e192b5,,1,850815e1731d168242e192b5
翡翠公园,39.773544,116.32683,双高路163号,4642844ab6c197dac9fa5fd2,,1,4642844ab6c197dac9fa5fd2
西红门九龙口休闲公园,39.810364,116.349631,京良路与黄陈路交叉口东南200米,81df3b6eed7370dff90cad60,,1,81df3b6eed7370dff90cad60
高米店公园,39.770609,116.347864,北京市大兴区高米店乐园路跟辅高路交叉口,40bef207ab9c10caeb1e970f,,1,40bef207ab9c10caeb1e970f
九龙口,39.811526,116.350134,京开路西红门段1号,edd64ce1a71d98913fe231e5,,1,edd64ce1a71d98913fe231e5
兴涛水上乐园嘉年华,39.770637,116.333564,兴和街兴涛社区内(原兴涛游泳池，地铁4号线高米店南站A口西150米),,,1,a69e5349b4ad21d522f01715
新发地国际农产品会展中心,39.815409,116.350089,北京市丰台区新发地农产品批发市场,30895c6e894131b10ab93a06,,1,30895c6e894131b10ab93a06
金星公园-西区,39.767676,116.344724,北京市大兴区金星公园(金星西路南110米),2ec9d052cbdb60db0f0a70ff,,1,2ec9d052cbdb60db0f0a70ff
静园,39.805753,116.341713,北京市大兴区西红门镇农贸市场(乐家购物中心东),0baab500272d6fb05cbe863d,,1,0baab500272d6fb05cbe863d
兴华公园-B区,39.802994,116.337792,宏大南园斜对面,7f33efa29c8e224ad6b74e41,,1,7f33efa29c8e224ad6b74e41
高立庄公园,39.797247,116.325681,北京市丰台区高立庄公园(京良路南100米),be8a68876479e42226e0a0c4,,1,be8a68876479e42226e0a0c4
北京国艺展览中心,39.769661,116.339313,北京市大兴区兴华大街绿地中央广场11层,abf03b17817fa83030169bd4,15810307865,1,abf03b17817fa83030169bd4
北京澄怀美术馆,39.801806,116.353173,京开路西红门段13号,9d157fc3ac72498b2efaa72c,18513898576,1,23cee4e0ec884036a8175af8
佛道圆,39.767487,116.353603,北京市大兴区广茂大街5号院,95e7f378ead55a53b1077d8d,18201473209,1,95e7f378ead55a53b1077d8d
兴华公园-A区,39.79864,116.331975,欣宁街与西红门北二街交叉口西150米,,,1,c4e9e2b918bdf797b320a851
中艺堂艺术中心,39.7704,116.339424,北京市大兴区绿地中央广场B座19层,55c06d6d6193722546e274e1,"13911061462,4000003229",1,55c06d6d6193722546e274e1
华桐艺术馆,39.772273,116.33625,北京市大兴区清源街道黄村镇云河墅底商556华桐艺术馆,,,1,a4704103c64b7aaea0acc4f8
人生万象,39.809707,116.35153,福瑞路与京开路交叉口西150米,58625360aae97f3a4e5547d2,,1,58625360aae97f3a4e5547d2
儿童乐园,39.768523,116.353193,北京市大兴区泰中花园4号,e4bca29a396537818d77276d,,1,e4bca29a396537818d77276d
复活节岛石雕像,39.815475,116.29717,北京市丰台区花乡丰葆路158号世界公园内,20e5143f4b5d785efb42b274,(010)83613344,1,20e5143f4b5d785efb42b274
一朵儿童美术馆,39.779314,116.335739,保利茉莉公馆14号楼,ab36749c1fe236a2bbbd63d7,"18519887105,18911826228",1,ab36749c1fe236a2bbbd63d7
公共厕所,39.817898,116.297627,北京市丰台区丰葆路158号,d246472fb73a299b7dc87669,,1,d246472fb73a299b7dc87669
毛利草屋,39.815551,116.297582,花乡丰葆路158号世界公园非洲景区内,3e0b273f76245b8f5cbe86b0,,1,3e0b273f76245b8f5cbe86b0
澳洲景区,39.81507,116.29729,花乡丰葆路158号世界公园内,db358713b98018842fb96d9b,,1,db358713b98018842fb96d9b
南美洲景区,39.815554,116.297302,花乡大葆台158号,caa53216d9c97e82fa42b23f,(010)83613344,1,caa53216d9c97e82fa42b23f
嘉乐奇儿童乐园,39.791755,116.304938,优龙路16号附近,,,1,2e3a0d1841918ec2eaf85360
世界公园乘小火车游览,39.815278,116.297474,北京市丰台区丰葆路194附近,5e490c3158ba0020873304fa,,1,5e490c3158ba0020873304fa
儿童乐园,39.7919,116.304962,优龙路16号附近,,,1,9adb10d574de95ff30169b8b
兴华公园东区,39.80286,116.337031,西红门鸿坤理想城附近,,,1,699f0bd3631ff77db8bd636b
高米店公园-北区,39.773381,116.347621,高米店,af9ae68ae793a95d6f3e1b64,,1,af9ae68ae793a95d6f3e1b64
童之星儿童乐园,39.805699,116.339367,北京市大兴区西红门京良路乐家购物中心西北二门,fb2827ce6fecfba0d518b709,,1,fb2827ce6fecfba0d518b709
金星公园-东区,39.767642,116.348259,金星西路与黄亦路交叉口西南150米,44cc7668e6e5f4ca2fb17ec6,,1,44cc7668e6e5f4ca2fb17ec6
高米店公园-南区,39.771306,116.347835,北京市大兴区京开路辅路,c0af30075383ba4f0bf5eb30,,1,c0af30075383ba4f0bf5eb30
兴华公园-南区,39.800023,116.333493,欣宁街与西红门北二街交叉口西150米,988e488362dd214ed4851fec,,1,988e488362dd214ed4851fec
江苏名优特产展示中心,39.793281,116.329737,北京市大兴区欣美街,,"18910622920,4000777116",1,79ba8015d1c2bb79b05c6a1d
六和敬佛光普照,39.78797,116.337686,北京市大兴区西红门京南明珠商务会馆东北,3f8fc9f94f7a665a2efaa716,,1,3f8fc9f94f7a665a2efaa716
兴华公园-北区,39.801035,116.333436,欣宁街与西红门北二街交叉口西北150米,cd9b5a9bbf4d3f257ec87643,,1,cd9b5a9bbf4d3f257ec87643
宝贝计画变变变绘本馆(大兴店),39.763018,116.339705,首邑上城40号楼2单元606室,,,1,5d089a8501d826414afd3fb4
国家地理标志会展中心,39.815368,116.349399,京开路新发地国际农产品会展中心三层,fcea7e9726b42631a80dd83b,"18811213768,15600208386",1,fcea7e9726b42631a80dd83b
博众博阅启阅绘本馆,39.767504,116.329523,兴业大街与金星西路交叉口东南200米,,,1,034514889ae97565b21e365a
悉尼港观鱼,39.815256,116.29703,花乡丰葆路158号世界公园亚洲景区内,193becd664e3e0a11c389437,,1,193becd664e3e0a11c389437
滨河公园停车场-出入口,39.773529,116.328936,乐园路与兴业大街交叉口北150米,6fe0004d0c61fd813ce2314b,,1,6fe0004d0c61fd813ce2314b
北宫国家森林公园,39.871839,116.12471,北京市丰台区长辛店镇大灰厂东路55号,f60a15ed8f5278ecbb17e704,(010)83840830,1,f60a15ed8f5278ecbb17e704
北京市玉叶陵园,39.846645,116.134016,砂锅村,442076467254ba6bdeee8b30,,1,442076467254ba6bdeee8b30
云岗森林公园,39.831392,116.165512,北京市丰台区云岗北环路,4382635c0f5203c9e011036d,,1,4382635c0f5203c9e011036d
娘娘庙,39.859991,116.134174,北京市丰台区云岗街道大灰厂社区大灰厂东路娘娘庙,c1653405f33d1b04ab175a31,,1,c1653405f33d1b04ab175a31
北宫国家森林公园-动物园,39.874594,116.124186,长辛店镇大灰厂东路55号北宫国家森林公园内,,,1,82a1698d92ea7145250bd0dc
双佛山林园,39.859619,116.118069,北京市丰台区大灰厂路,,(010)83885960,1,acf14c7f19a5116fd8eced88
峰香公寿塔,39.822167,116.116359,北京市丰台区大富庄路路南,,,1,be9301f9283f6adaabf0cdd6
小江南,39.865412,116.12733,北京市丰台区长辛店镇大灰厂东路55号北宫国家森林公园内,,,1,f4e93d4d78ac9886d0ff23c9
三迭水景区,39.872933,116.128085,长辛店镇大灰厂东路55号北宫国家森林公园内,,,1,e8b7c2f330ad8c6a49fd3f58
长辛店冰雪嘉年华,39.853886,116.156094,长辛店镇太子峪红绿灯向西1500米路北,c550e08dd9fcd0448bb988b4,,1,c550e08dd9fcd0448bb988b4
三清关帝庙,39.8323,116.106984,大富庄村,,,1,856bef13c40b588816a1904d
北宫桥,39.870491,116.125228,长辛店镇大灰厂东路55号北宫国家森林公园内,,(010)83840830,1,1151651ef2d61ff917b54b8b
玄辉塔,39.870719,116.122417,长辛店镇大灰厂东路55号北宫国家森林公园内,,,1,9c7bdfffe5869f1ae215f99e
大观台,39.87416,116.119344,长辛店镇大灰厂东路55号北宫国家森林公园内,,,1,8557deb93d7ff07c213bf258
荣格郡王墓,39.871895,116.123435,长辛店镇大灰厂东路55号北宫国家森林公园内,,,1,e2ebfacf0bfaaf1be9f8530a
牡丹园,39.871354,116.122968,长辛店镇大灰厂东路55号北宫国家森林公园内,,,1,f056b18e4c0056a6fa42b259
三潭映月,39.871369,116.129137,长辛店镇大灰厂东路55号北宫国家森林公园内,,,1,43cd46d488d80a79a9059de3
双秀亭,39.870151,116.1284,北京市丰台区长辛店镇大灰厂东路55号北宫国家森林公园内,,,1,db2917d4bd093b6100ec01a7
云岗森林公园-云山叠翠,39.825457,116.166791,北京市丰台区云岗北环路北100米,24ce98480750b46058109367,,1,24ce98480750b46058109367
揽翠亭,39.872789,116.122003,长辛店镇大灰厂东路55号北宫国家森林公园内,,,1,c2ab5466318792930f0a7011
江南烟雨,39.865555,116.1276,长辛店镇大灰厂东路55号北宫国家森林公园内,,,1,15e55219ef24fd5946e27419
芳泽溪,39.865872,116.128607,长辛店镇大灰厂东路55号北宫国家森林公园内,,,1,628c42d34fa91bcbbea2404f
小西天,39.870006,116.123252,长辛店镇大灰厂东路55号北宫国家森林公园内,,,1,5f8726ce73bd56c7e9f8536d
九溪叠翠,39.870144,116.12434,长辛店镇大灰厂东路55号北宫国家森林公园内,,,1,fc874a29e25063722cb96d09
龙溪桥,39.867196,116.127465,长辛店镇大灰厂东路55号北宫国家森林公园内,,,1,f34f4e37735ccf5c4e2fdf4f
江南九曲,39.865659,116.125794,长辛店镇大灰厂东路55号北宫国家森林公园内,,,1,2021199e0af8a413601c6711
华林园,39.873553,116.125519,长辛店镇大灰厂东路55号北宫国家森林公园内,,,1,1fff154f1abe1ca92fe67bc7
石壁流淙,39.872577,116.125803,长辛店镇大灰厂东路55号北宫国家森林公园内,,,1,b1aff280e9b607f02dfaa7c7
翠堤春晓,39.865491,116.125029,长辛店镇大灰厂东路55号北宫国家森林公园内,,,1,77f921fbace3fb9f220262d2
风清荷雅,39.865686,116.127375,长辛店镇大灰厂东路55号北宫国家森林公园内,,,1,80b122f13d13659d76e5b67d
全国人大林,39.865725,116.128588,北京市丰台区长辛店镇大灰厂东路55号北宫国家森林公园内,,,1,1d13bb997e2c82ca25e0a02e
仙台丽景,39.873355,116.124645,长辛店镇大灰厂东路55号北宫国家森林公园内,,,1,65fc16bdd7081f6d9e82eac8
荷风蕙露,39.866101,116.125085,北京市丰台区长辛店镇大灰厂东路55号北宫国家森林公园内,,,1,fb57dc3c1295d0e49a0050c7
碧云,39.866012,116.125371,长辛店镇大灰厂东路55号北宫国家森林公园内,,,1,1fd20c1f8e5648175e17c3a1
八面来风,39.870691,116.126128,长辛店镇大灰厂东路55号北宫国家森林公园内,,,1,1ff5390122ba6d77c9fa5f97
水木清华,39.866934,116.124708,北京市丰台区长辛店镇大灰厂东路55号北宫国家森林公园内,,,1,7a4a6baf7e7d8824c51b75c3
疯狂跑吧,39.854,116.157378,北京市丰台区长兴路,60a261b0cbe6356bf942b2e5,,1,60a261b0cbe6356bf942b2e5
卢沟桥,39.855994,116.226294,北京市丰台区卢沟桥,eac1f65976ce2486fbdc857a,,1,eac1f65976ce2486fbdc857a
宛平城,39.857103,116.231597,北京市丰台区卢沟桥南里10号,56e88cbacf15c718a4c7563a,,1,56e88cbacf15c718a4c7563a
鹰山特训营,39.850667,116.173508,北京市丰台区太子峪环岛向西200米,1bf85b25b4123dbda0a934a4,(010)83868451,1,1bf85b25b4123dbda0a934a4
长辛店天主教堂,39.830432,116.212214,长辛店镇教堂胡同41号,5332050ffce342d0223bf228,,1,5332050ffce342d0223bf228
北京市丰台区园林绿化局长辛店公园,39.837554,116.213101,丰台区长辛店桥西花园南里甲1号,4edf9fbf77e69e8dcd06a4e4,(010)83876262,1,4edf9fbf77e69e8dcd06a4e4
晓月郊野公园,39.863448,116.215066,北京市丰台区宛平城园博大道,923f7bbacdf187dba1d23079,,1,923f7bbacdf187dba1d23079
卢沟桥历史博物馆,39.856484,116.227289,卢沟桥城北街88号,49d959381a66a143c61e5107,,1,49d959381a66a143c61e5107
长辛店二七纪念馆,39.836519,116.212787,长辛店花园南里甲十五号,d74f54bf768b25f2c909f0e8,(010)83305948,1,d74f54bf768b25f2c909f0e8
晓月湖,39.867038,116.218866,北京市丰台区卢沟桥晓月湖(园博园南路南),d909dcd8168713b38505bf75,,1,d909dcd8168713b38505bf75
中华名枣博览园,39.849714,116.173384,北京市丰台区长兴路太子峪环岛向西220米,,,1,4db3da4b20b94c99b05c6a6f
北京园博园国际展园,39.873632,116.204904,北京市丰台区射击场路15号北京园博园内,8903c2cb969d2ecc774ff1f9,(010)63915561,1,8903c2cb969d2ecc774ff1f9
宛平城-西门,39.856327,116.228821,北京市丰台区城内街与城南街交叉口东50米,641250aecd59ac5cfe0eb05c,,1,6660048fc011d9ccae31e5ec
福生寺,39.861326,116.196857,北京市丰台区张郭庄367号,912bb85615c3ff42a8f0cdf6,,1,912bb85615c3ff42a8f0cdf6
长辛店清真寺,39.830287,116.214343,大寺口3号,d52831f99a5991a42efaa75c,,1,d52831f99a5991a42efaa75c
中心公园,39.866455,116.17543,大灰厂东路11号,7aea43b7de1462f87c29bd04,,1,7aea43b7de1462f87c29bd04
火神庙,39.829049,116.214007,北京市丰台区复兴门北顺城街13号(西二环、广宁伯街、学院胡同),3a814c7d502e1e8b00ec0123,,1,32669bb6da40c25b725e80a6
阿拉伯风情园,39.874432,116.204396,射击场路15号北京园博园,547db94f6f81446f16764373,,1,547db94f6f81446f16764373
依文时尚欧洲园,39.873934,116.204206,长辛店镇园博大道园博园2号门,b9a3b277bb261a1b22f017c9,,1,b9a3b277bb261a1b22f017c9
休闲公园,39.859372,116.191562,北京市丰台区园博园南路,d4ea9a68d8bf514f4afc8d89,,1,d4ea9a68d8bf514f4afc8d89
卢沟桥西射击场路碉堡,39.861264,116.218555,北京市丰台区射击场路北京丰印诚粘合剂有限公司东北,1a82d7c0e430301897031977,,1,1a82d7c0e430301897031977
房车世界营地,39.820437,116.219575,北京市丰台区大宁山庄,,,1,619dc0d4fa65f99fbadf8ff5
塔西公园,39.82166,116.173019,云岗北区西里42号楼旁,7b8ff080619093292102621e,,1,7b8ff080619093292102621e
长体城市休闲公园,39.840972,116.192067,北京市丰台区长体城市休闲公园(中奥广场·首站附近),dfcabd1523ad15fc6e4760b3,,1,dfcabd1523ad15fc6e4760b3
北京留法勤工俭学旧址,39.833811,116.208292,北京市丰台区陈庄社区北京长辛店铁路中学西南门,43125739bce973946c3e1bc2,,1,43125739bce973946c3e1bc2
勅建延祚善庆宫,39.829013,116.214008,教堂胡同与长辛店大街交叉口南100米,41d6a42c9521cde1c4f50dfc,,1,41d6a42c9521cde1c4f50dfc
兴隆寺,39.856916,116.230824,北京市丰台区卢沟桥城内街甲115号,2db352f3492835ad9222e004,,1,2db352f3492835ad9222e004
二七革命遗址,39.828419,116.21433,北京市丰台区长辛店大街224号附近,07a6c2a61804cfaf00ec012d,,1,07a6c2a61804cfaf00ec012d
宛平古生物化石科普基地,39.85646,116.230304,北京市丰台区卢沟桥城内街甲76号(中国人民抗日战争纪念馆),b250038b6f7ed1871ce999a1,,1,b250038b6f7ed1871ce999a1
岱王庙,39.855673,116.222887,丰台区桥西街宛平城(近卢沟桥),8cec998bf62ee08d0782c2b8,,1,8cec998bf62ee08d0782c2b8
房车露营展览会,39.818898,116.217033,北京市丰台区大宁山庄西北,,,1,3f17efd89a124cb38a36eec6
永定河生态文化新区规划展览中心,39.865655,116.215398,射击场路一号,b0cf55c485787acbc4f02524,,1,b0cf55c485787acbc4f02524
长辛店二七大罢工旧址,39.829189,116.21402,北京市丰台区长辛店大街172附近,c6180dc87c2056472ab97c4a,,1,c6180dc87c2056472ab97c4a
栈桥闻水,39.87038,116.210416,北京市丰台区射击场路15号北京园博园园博湿地内,1e2357e8e5ea52b3f503b88f,,1,1e2357e8e5ea52b3f503b88f
留霞峪后街小庙,39.851357,116.190842,留霞峪135门前路附近,,,1,d5e00f440ed52013ca291510
高楼观水,39.872932,116.209433,河堤路附近,9f8469cc24d1ba0e0e3dda9a,,1,9f8469cc24d1ba0e0e3dda9a
欧洲花园迷宫,39.872884,116.205794,依文时尚欧洲园内,,,1,b392b09929646acd0ab93a87
红心皇后花园,39.872522,116.205455,北京市丰台区依文时尚欧洲园内,63a09d7a83997dc917948ee8,,1,63a09d7a83997dc917948ee8
喷泉雕塑水池,39.872978,116.205742,北京市丰台区依文时尚欧洲园内,ce684d6eca0d506b1c389410,,1,ce684d6eca0d506b1c389410
丘比特花坛,39.87236,116.204999,园博大道北100米,22ed7005cb030ed7eb12e4ef,,1,22ed7005cb030ed7eb12e4ef
一勺池(太子峪路),39.845022,116.181283,北京市丰台区太子峪路,fad743679946c93a591093ab,,1,fad743679946c93a591093ab
辅楼,39.873378,116.204325,北京市丰台区园博大道与银杏大道交叉口东北200米,f1359c48819f9633a8f72999,,1,f1359c48819f9633a8f72999
北京园博园-2号门游客服务中心,39.873137,116.20311,北京市丰台区银杏大道,a323bedfb062b30ff50e77e6,,1,a323bedfb062b30ff50e77e6
张郭庄村乡情村史陈列馆,39.859663,116.200875,大灰厂东路北50米,,,1,5859e5ded185f3d25d17c30a
花堰分水,39.874411,116.206865,北京市丰台区射击场路15号北京园博园园博湿地内,1ccd89e5ca4e8a3a754ff179,,1,1ccd89e5ca4e8a3a754ff179
关帝堂,39.857048,116.231115,卢沟桥城内街甲25号,2b0b274313a1cff27702695a,,1,2b0b274313a1cff27702695a
威严门,39.856376,116.229198,北京市丰台区城内街与城南街交叉口东50米,bb32575e9caa0a29f4231060,,1,bb32575e9caa0a29f4231060
邂逅皮萨别墅花园呼吸威尼斯郊外的清新空气,39.873429,116.205419,北京市丰台区依文时尚欧洲园内,97a170cedeb694315bf6be6a,,1,97a170cedeb694315bf6be6a
主堡,39.87365,116.205159,北京市丰台区依文时尚欧洲园内,99e0fb1c847d8501ea56fa54,,1,99e0fb1c847d8501ea56fa54
沁园,39.856034,116.201548,北京市丰台区张郭庄南路,3b3482dc3909bde5882fb5ff,,1,3b3482dc3909bde5882fb5ff
宛平驿站,39.856771,116.230536,北京市丰台区卢沟桥第一小学校,4e0f84449573b4a96040a95d,,1,4e0f84449573b4a96040a95d
梯级半圆喷泉水池,39.873539,116.205221,北京市丰台区依文时尚欧洲园内,e11bf846f74e2e5d343a7187,,1,e11bf846f74e2e5d343a7187
御井,39.856298,116.229585,北京市丰台区城内街甲82号,9c97f184c9f9a8b5373a712d,,1,9c97f184c9f9a8b5373a712d
许愿池,39.872687,116.20506,北京市丰台区依文时尚欧洲园内,d79975834799f91836b06c82,,1,d79975834799f91836b06c82
巴塞罗那花园,39.873463,116.204269,北京市丰台区依文时尚欧洲园内,f235b3aa8486c082c26c1490,,1,f235b3aa8486c082c26c1490
东方墨道艺术馆,39.856715,116.231273,北京市丰台区宛平城城内街甲70号(抗日战争纪念馆西侧),9467ecdef28bd9204d2fdf80,,1,9467ecdef28bd9204d2fdf80
金格乐主题乐园,39.850918,116.2177,园博大道集美家居3层,,,1,c0b8c4db3cb0da4c3904b163
东方丝路·书院·艺术馆,39.874439,116.204396,北京市丰台区阿拉伯风情园3号楼,,,1,89a799ec81f7ab92bbbd6370
鼎兴堂,39.856695,116.23025,北京市丰台区城内街甲31号附近,,,1,268d6eeb7d5061843904b126
中国人民抗日战争纪念馆,39.857753,116.232474,北京市丰台区卢沟桥宛平城内街101号,5ec201faf05332672eb90851,"(010)63777088,(010)63777188,(010)83893163",1,5ec201faf05332672eb90851
卢沟桥文化旅游区,39.857012,116.232234,北京市丰台区宛平桥北侧,d4034eb38aae2ff6c0364407,,1,d4034eb38aae2ff6c0364407
丰台花园,39.870093,116.292561,丰台区西四环南路60号,2a13bcb5a7c25b96ca09f029,(010)63853740,1,2a13bcb5a7c25b96ca09f029
绿堤公园,39.846416,116.232938,北京市丰台区左堤路,104c000e1430730582a00c5e,,1,104c000e1430730582a00c5e
世纪森林公园,39.831251,116.250648,农场路(近卢沟桥老庄子),d52e5c22e85812530c0e6bf4,,1,d52e5c22e85812530c0e6bf4
丰台区榆树庄公园,39.843904,116.268093,北京市丰台区看丹路418号甲1号,,,1,b7da1eeb38c6553e0e3dda94
宛平湖,39.845502,116.232259,永定河卢沟新桥下游河段,b9a9eb23ff5d163bca1b95ba,,1,b9a9eb23ff5d163bca1b95ba
宛平城-东门,39.857749,116.236599,北京市丰台区城内街5号,3df6102e5e88ebf716948e78,,1,3df6102e5e88ebf716948e78
中国人民抗日战争纪念雕塑园,39.854678,116.233769,北京丰台区卢沟桥城南街77号,e415389572b15e2ef603b87c,(010)83894614,1,e415389572b15e2ef603b87c
御康公园,39.821228,116.288163,花乡六圈村丰葆路168号,231169133bdb2280734b87e4,,1,231169133bdb2280734b87e4
莫斯科红场,39.818713,116.295053,花乡丰葆路158号世界公园欧洲景区内,87fc51172ee11d5e16b54ba2,,1,87fc51172ee11d5e16b54ba2
榆园,39.843622,116.267863,北京市丰台区看丹南路榆树庄,cee2e994a622fc3a7069d3c9,,1,cee2e994a622fc3a7069d3c9
药王庙,39.84378,116.281302,北京市丰台区新村街道看丹路丰台药王庙,262fc2e4a52098b951e5c5f3,,1,262fc2e4a52098b951e5c5f3
看丹公园,39.837674,116.273496,北京市丰台区看丹南路路南,2cc3c8e882cc45a84d2fdf9c,,1,2cc3c8e882cc45a84d2fdf9c
世界公园-国际街,39.819752,116.296793,大葆台158号世界公园,,,1,3d67df47e45f51f4eb1e979a
郭庄公园,39.871202,116.265436,北京市丰台区卢沟桥路郭庄公园(五里店北里附近),12709320b3903e409fec2b4f,,1,6c6a4d7de608db62bda240da
万佛延寿寺,39.872371,116.28033,西四环南路55号丰台体育中心内,6113ef778dc011698e7727cc,(010)51652970,1,6113ef778dc011698e7727cc
赵登禹将军之墓,39.861145,116.244213,卢沟桥,78fe78d9d9205c7ac03644f1,,1,78fe78d9d9205c7ac03644f1
清真寺(文体路店),39.856056,116.292273,电报局街5号(近文体路),480b24d0f5c995f19cec2b23,,1,480b24d0f5c995f19cec2b23
丰台科技馆,39.865902,116.290544,北京市丰台区北大街甲13号,b7021bf8eb8531faf4e73b00,(010)63817638,1,b7021bf8eb8531faf4e73b00
小公园,39.840582,116.293526,北京市丰台区新村街道南四环西路昌宁大厦东50米,5671072f5b9b64511811d5de,,1,5671072f5b9b64511811d5de
圆形广场,39.82138,116.284261,花乡御康公园,966be4df290d5aaf49fc8dcd,,1,966be4df290d5aaf49fc8dcd
抗日纪念碑,39.857906,116.232484,北京市丰台区城内街101号,22e11407287326b4d5b74e07,,1,22e11407287326b4d5b74e07
北极探险,39.818365,116.291887,花乡丰葆路158号世界公园游艺区内,,,1,667d21439bb8a4ef2cb17e0e
法桐广场,39.823013,116.286573,御康公园内,b727100eda4ac7dcbe4842f5,,1,b727100eda4ac7dcbe4842f5
精华楼,39.819961,116.294649,北京市丰台区花乡丰葆路158号世界公园国际街内,4a620f87bd28c76a5d0d0241,,1,4a620f87bd28c76a5d0d0241
宛平县衙,39.857449,116.23431,北京市丰台区卢沟桥城内街甲11号,e3082848bd4b11bfb34c4907,(010)83200815,1,e3082848bd4b11bfb34c4907
世纪京华酒文化博物馆,39.874407,116.286785,丰体北路6号,0c629e95c74eaa7de60738ed,(010)63867643,1,0c629e95c74eaa7de60738ed
泰国大象鳄鱼表演场,39.819443,116.293831,花乡丰葆路158号世界公园内,b2b66770af4bedac2b201a44,,1,b2b66770af4bedac2b201a44
晓月阁,39.857311,116.235684,北京市丰台区宛平城卢沟桥宛平古城城内街甲8号,36ed639b66ba7735f8dc8578,,1,36ed639b66ba7735f8dc8578
世界公园-游艺区,39.818652,116.292829,花乡丰葆路158号世界公园内,c6811fc4694c4221b64f5405,,1,c6811fc4694c4221b64f5405
总部基地玛雅国际会议中心,39.832092,116.291469,北京市丰台区南四环西路188号3区5号楼,6900928df5bd29c554bffff7,,1,6900928df5bd29c554bffff7
御康公园银杏广场,39.820713,116.294794,北京市丰台区丰葆路附近,eb6b3772abd2b212b020a8f5,,1,eb6b3772abd2b212b020a8f5
北京市丰台规划馆,39.841881,116.258422,丰台科技园(近汽车博物馆),2fe1173797e69393bea240fd,,1,2fe1173797e69393bea240fd
华沙美人鱼铜像,39.819019,116.294525,花乡丰葆路158号世界公园欧洲景区内,d2b582177cd8b6cc9e95de36,(010)83613561,1,d2b582177cd8b6cc9e95de36
顺治门,39.857684,116.236268,北京市丰台区宛平城内,ce344920ac051bde9f95defb,,1,ce344920ac051bde9f95defb
丰台花园-游乐园,39.86888,116.2904,西四环南路60号丰台花园内,f0a98ff9715891c751e5c552,,1,f0a98ff9715891c751e5c552
资和信奇奇屋儿童游乐场,39.843976,116.292224,北京市丰台区南四环西路资和信百货设计师广场南门,1d27012e3fcfb79fa8f729f1,,1,1d27012e3fcfb79fa8f729f1
万佛延寿寺铜观音像及碑,39.87238,116.28033,北京市丰台区大井路,adac6842e082127343afe61a,,1,adac6842e082127343afe61a
丰台区非物质文化遗产展示中心,39.865737,116.29005,北大街13号丰台区文化馆,6016f676d58c63ad8bdb73d2,,1,6016f676d58c63ad8bdb73d2
中牧集团展示展销中心,39.828761,116.292071,北京市丰台区南四环西路188号8区18附近,,,1,4820bf84c293813bf8dc8599
实茂花园酒店-会议厅,39.830753,116.288047,外环西路26号院1,9377fbe1be1f595bb7265511,(010)52259999,1,9377fbe1be1f595bb7265511
观景台,39.821353,116.285972,御康公园内,c5c4cbe774df6bc101897264,,1,c5c4cbe774df6bc101897264
玛雅岛酒店-会议厅,39.832116,116.290581,南四环西路188号3区5号楼,4cc53655300d52f13517dc8c,"(010)63706688,(010)63706918",1,4cc53655300d52f13517dc8c
梦乐城,39.841814,116.295503,北京市丰台区邻枫路1号欧尚超市2楼,4c1b7496eb2ffd6a441a32b9,,1,4c1b7496eb2ffd6a441a32b9
梦乐城-儿童乐园,39.842061,116.295727,北京市丰台区邻枫路1号欧尚超市2楼,8364de197c61bc276ca3cc23,,1,8364de197c61bc276ca3cc23
樱花园,39.869026,116.291308,北京市丰台区近园路,,,1,16e7a13bdca072d029b97ca7
卢沟醒狮,39.856438,116.232845,北京市丰台区城内街,20cd26ab3dea970dbb17e7d2,,1,e3faf4169fdf3b136240a9f4
飞机参观,39.818976,116.292133,北京市丰台区花乡丰葆路158号世界公园游艺区内,996d7d6c6703227fa6da39df,,1,996d7d6c6703227fa6da39df
御康公园-柳树观景平台,39.82136,116.285945,北京市丰台区御康公园(世界公园垂钓园东北150米),34d2ec508522c1bb59bbbc4c,,1,34d2ec508522c1bb59bbbc4c
莫扎特雕像,39.818441,116.294302,北京市丰台区丰葆路158号世界公园,d1fb20d66d00ef8631870a4d,,1,d1fb20d66d00ef8631870a4d
掷铁饼者雕像,39.818326,116.29552,花乡丰葆路158号世界公园欧洲景区内,561d8b19da856b9134b06c30,,1,561d8b19da856b9134b06c30
卢沟驿,39.857179,116.23439,北京市丰台区城内街甲16号,2848ffd6959e8b0f48cc4a07,,1,2848ffd6959e8b0f48cc4a07
金鹏盛嘉酒店会议中心,39.828988,116.274805,看杨路附近,,(010)83628279,1,40b94e6d2420942e3be4a6c2
肖邦雕像,39.818525,116.294757,北京市丰台区花乡丰葆路158号世界公园欧洲景区内,24b65283fc14c1d3b35c6a3f,,1,24b65283fc14c1d3b35c6a3f
风车,39.818339,116.293341,丰葆路158号世界公园内,a9dadf8b1fd7baba1d580065,,1,a9dadf8b1fd7baba1d580065
碰碰车,39.818645,116.292298,花乡大葆台158号,1d0198ebfcae40c32b11d13b,,1,1d0198ebfcae40c32b11d13b
迷你穿梭,39.868649,116.290734,西四环南路60号,cadf1697e027e3b5abf0cd22,,1,cadf1697e027e3b5abf0cd22
且停庭,39.857463,116.234426,北京市丰台区宛平城内街8A号,e7919d425b81de1a9a005005,,1,e7919d425b81de1a9a005005
国际二战博物馆协会,39.857218,116.233054,北京市丰台区城内街95号,211eb4e4cffd1d92a01de90e,,1,211eb4e4cffd1d92a01de90e
世界公园-生肖园,39.818622,116.292678,花乡丰葆路158号世界公园游艺区内,,,1,3a96007d2b862c008b2fb517
儿童乐园,39.818755,116.29296,花乡丰葆路158号世界公园游艺区内,42fc8f2b0ab35805266e984d,,1,42fc8f2b0ab35805266e984d
豪华转马,39.868811,116.29137,近园路,919c88b8cce9d93340d63e48,,1,919c88b8cce9d93340d63e48
雕塑园前碉堡,39.853545,116.235048,北京市丰台区卢沟桥南路中国石化宛平加油站东北,ef5cd7025f6f2fa6471a32fd,,1,ef5cd7025f6f2fa6471a32fd
中国人民抗日战争纪念馆-传达室,39.857063,116.232146,北京市丰台区卢沟桥城内街101号,8162697b19a8e3cc60180945,,1,8162697b19a8e3cc60180945
泰国村,39.819642,116.294551,北京市丰台区花乡丰葆路158号世界公园国际街内,2c23f5c8a1f06ac24f3a597b,,1,2c23f5c8a1f06ac24f3a597b
动感沙滩车,39.819298,116.291957,花乡大葆台158号,66d8a3e78ddd6d9f1c389467,,1,66d8a3e78ddd6d9f1c389467
浴女雕像,39.818438,116.295682,花乡丰葆路158号世界公园欧洲景区内,9d73af44120487548d55ec41,,1,9d73af44120487548d55ec41
许愿池,39.818562,116.294478,花乡丰葆路158号世界公园欧洲景区内,24b89844dc7b297858f6be97,,1,24b89844dc7b297858f6be97
虔诚雕像,39.818466,116.29579,花乡丰葆路158号世界公园欧洲景区内,14c25d64055825b77f29bd9d,,1,14c25d64055825b77f29bd9d
儿童乐园,39.84094,116.247798,北京市丰台区晓月中路,059b752764c02fb18c1a89e1,,1,059b752764c02fb18c1a89e1
峡谷探险,39.818597,116.291576,北京市丰台区花乡丰葆路158号世界公园游艺区内,b2de8d3cca5db4a7f33cbaea,(010)83613344,1,b2de8d3cca5db4a7f33cbaea
我淘我乐儿童乐园,39.84061,116.244108,北京市丰台区晓月苑小区五里6号楼,7453b100da0dfea315c9052d,,1,7453b100da0dfea315c9052d
华夏名人艺术书画院,39.857423,116.234351,城内街甲11号,116b567f290ae3395d17c3cc,(010)83200815,1,116b567f290ae3395d17c3cc
台湾同胞抗日斗争史实专题展厅,39.857975,116.233259,北京市丰台区卢沟桥宛平城内街101号中国人民抗日战争纪念馆内,aec67a4128b3105aeee4a536,,1,aec67a4128b3105aeee4a536
曼哈顿岛,39.818356,116.294284,北京市丰台区大葆台158号世界公园,,,1,6e5d29daa9c41c3cbbbd63a7
伊尔62客机,39.818706,116.292047,丰葆路158号世界公园,3698a893a6befe6e3a04b197,,1,3698a893a6befe6e3a04b197
小孩与鹅雕像,39.818403,116.295834,花乡丰葆路158号世界公园欧洲景区内,ea99d63d890f516d3a04b1a8,(010)83613344,1,ea99d63d890f516d3a04b1a8
拿金苹果的阿芙罗蒂德,39.81841,116.295573,花乡丰葆路158号世界公园欧洲景区内,b06915ea4801316117764361,(010)83613344,1,b06915ea4801316117764361
抗日纪念碑大瓦窑,39.862844,116.23491,北京市丰台区,b1ed4e5c32a8072bf603b8fb,,1,b1ed4e5c32a8072bf603b8fb
独立自由勋章浮雕,39.857414,116.232612,北京市丰台区卢沟桥宛平城内街101号中国人民抗日战争纪念馆内,9522905340b0806e4e776ea9,,1,9522905340b0806e4e776ea9
豪华转马,39.818742,116.292538,花乡大葆台158号,5f72b9e0c9f2a2c75e17c3f9,,1,5f72b9e0c9f2a2c75e17c3f9
扇形广场,39.822111,116.284403,御康公园内,63f22e97168995610ba8d4f6,,1,63f22e97168995610ba8d4f6
丰收神,39.818397,116.295484,花乡丰葆路158号世界公园欧洲景区内,3b0f33fe8900b584a8f7294d,(010)83613344,1,3b0f33fe8900b584a8f7294d
梦幻森林,39.819075,116.291936,北京市丰台区花乡丰葆路158号世界公园游艺区内,63445a9e9af41cc945e27434,,1,63445a9e9af41cc945e27434
昼雕像,39.818374,116.295734,花乡丰葆路158号世界公园欧洲景区内,fc259c5566874f9a306212cf,(010)83613344,1,fc259c5566874f9a306212cf
昏厥的塞克,39.818345,116.295624,花乡丰葆路158号世界公园欧洲景区内,e8260fdb350ea2499c09f73a,(010)83613344,1,e8260fdb350ea2499c09f73a
富华泰宇会议中心,39.828974,116.27488,北京市丰台区宛平城地区金鹏盛嘉酒店看丹老年公寓,61c242475a0260ac5cd4fe98,,1,61c242475a0260ac5cd4fe98
北京世界花卉大观园,39.840957,116.359769,北京市丰台区南四环中路235号,baae3dde2007d4ada6da399e,(010)87500840,1,baae3dde2007d4ada6da399e
北京汽车博物馆,39.835009,116.308114,丰台区南四环西路126号,35d6b4d391445bb1e81e97f3,(010)63756666,1,35d6b4d391445bb1e81e97f3
海子公园,39.822631,116.355127,花乡新发地村,691305239cb90d75725e80e4,,1,691305239cb90d75725e80e4
丰台科技园生态主题公园,39.845252,116.301531,北京市丰台区科兴路1号(科怡路口),9fbfeef2b5d1b238ede4a5e7,(010)63730113,1,9fbfeef2b5d1b238ede4a5e7
中国插花艺术博物馆,39.845236,116.360975,北京市丰台区南四环中路235号,bcadbc19c1ad232f626858ac,(010)87500840,1,bcadbc19c1ad232f626858ac
北京基督教丰台堂,39.843109,116.354554,北京市丰台区京开路12号,933c95b07273daeeb75f1eec,(010)87500214,1,933c95b07273daeeb75f1eec
中顶庙,39.860638,116.360339,北京市丰台区亚林西居住区9号院9号楼1单元11层1103,5508504dffd22acbc7f02523,,1,5508504dffd22acbc7f02523
庄怡公园,39.86617,116.312375,"丰管路53号(东大街,泥洼,丰益桥)",cc788fdee16b41f788fc0634,,1,cc788fdee16b41f788fc0634
科丰公园,39.836127,116.300994,北京市丰台区科丰公园(科丰桥东南100米),24b246642491fcbf2b3a9f82,,1,24b246642491fcbf2b3a9f82
丰益公园,39.866956,116.319329,北京市丰台区丰管路1号,e7d4fbe11e76e9aaf82213b8,,1,e7d4fbe11e76e9aaf82213b8
北京三一教会南堂,39.852074,116.361423,北京市丰台区镇国寺北街3号恋日生活广场二层,036a276df184f6a46140a905,(010)67523774,1,036a276df184f6a46140a905
迷你世界展览馆,39.85401,116.346227,南三环78号万兴家居广场a座,1ef0e6864db2019b43ab9ab2,,1,1ef0e6864db2019b43ab9ab2
二郎庙,39.851233,116.313484,刘家村90号附近,6113ef77a6ce7e148e772723,,1,6113ef77a6ce7e148e772723
天主教北京总教区东管头天主堂,39.867773,116.32354,北京市丰台区东管头121号,6dee8793588aaa66bd484247,,1,139975c10ff4bd2d4e5547f8
新发地公园,39.82259,116.35526,京开辅路,,,1,47858ad20a90e21bfa0cad89
北京南粤苑宾馆-会议厅,39.854046,116.345307,南三环西路86号,9a0aeff54a348d5a76e5b692,"(010)58053333,(010)83685286",1,9a0aeff54a348d5a76e5b692
北京丽泽金融商务区展示中心,39.868366,116.321762,北京市丰台区东管头1号院,17bb1f57aa2ec95d734b8745,(010)83509406,1,17bb1f57aa2ec95d734b8745
八一礼堂,39.859779,116.299703,北京市丰台区八一礼堂(丰台东大街地铁站南),5d58cca400b371730e3dda90,,1,5d58cca400b371730e3dda90
新发地海子公园停车场-出入口,39.826142,116.358972,南苑西路182号附近,1b1614b32e8d1f07badf8fec,,1,1b1614b32e8d1f07badf8fec
正通BMW博物馆,39.868492,116.316081,北京市丰台区西三环南路59号,70355e705bfac761f50e7752,(010)63865826,1,70355e705bfac761f50e7752
德国风情园,39.841192,116.358627,北京市丰台区南四环中路辅路235号,2ddb9dac493ad4c9f33cba58,,1,2ddb9dac493ad4c9f33cba58
容珍堂美术馆,39.846324,116.302623,北京市丰台区科兴路1-1号,,18510966666,1,32e619777f2ce51795ca077e
趣贝乐儿童主题乐园,39.873048,116.300355,丰台北路79号-2首航商场三层(近七里庄地铁),,(010)63851281,1,a92d6bc241f279426168584f
热带植物馆,39.840165,116.360126,北京市丰台区南四环中路235号世界花卉大观园内,5497f55e1349a00cf603b8ce,(010)87500840,1,5497f55e1349a00cf603b8ce
东管头城市休闲公园,39.864044,116.331568,丰益桥西丰管路北,87c13c2799701f8c3010aff0,,1,87c13c2799701f8c3010aff0
花之谷,39.842079,116.359521,北京市丰台区南四环中路辅路235号,7404d4d807ec7322bca82210,,1,7404d4d807ec7322bca82210
景德镇陶瓷艺术馆,39.857777,116.354282,北京市丰台区菜户营南路辅路,e477315d59dc6186970319d0,,1,e477315d59dc6186970319d0
水花园,39.842354,116.359411,北京市丰台区南四环中路辅路235号,430b92e5e5bd09522b11d187,,1,430b92e5e5bd09522b11d187
夏家胡同,39.852809,116.324439,北京市丰台区夏家胡同128号西侧平房,c048d0cc00d87cf78505bf0b,,1,c048d0cc00d87cf78505bf0b
星光大道,39.838493,116.360114,北京市丰台区南四环中路辅路235号,c2efbf7f70556346626858d6,,1,c2efbf7f70556346626858d6
海子公园-儿童乐园,39.820968,116.351957,北京市丰台区新发地海子公园西门,88fd193146d05db404fef560,,1,88fd193146d05db404fef560
花乡姐妹林,39.842588,116.335367,丰民同和国际农业科技发展有限公司附近,4e0d539ab3f6b27f3fe231e7,,1,4e0d539ab3f6b27f3fe231e7
儿童乐园,39.856143,116.315812,北京市丰台区三环新城6号院(丰台站地铁站东),6d531b195f3cb571c6effb09,,1,6d531b195f3cb571c6effb09
牡丹园,39.844468,116.359753,北京市丰台区南四环中路辅路235号,c257ab26cc1074fc735e80b9,,1,c257ab26cc1074fc735e80b9
庭院奇石景观木亭,39.852369,116.351804,北京市丰台区玉泉营花乡花卉市场北(京开路西),6bfe5e13f1ab5f5ff32d83f6,,1,6bfe5e13f1ab5f5ff32d83f6
西国贸会展中心,39.861937,116.319255,北京市丰台区丰管路16号,52c5f8249822e5b2c27da2fe,,1,52c5f8249822e5b2c27da2fe
蔬菜瓜果园,39.839856,116.361341,北京市丰台区南四环中路辅路235号,9dfa68083ecc20d928d7abd6,,1,9dfa68083ecc20d928d7abd6
荷兰风情园,39.843443,116.359294,北京市丰台区南四环中路辅路235号,,(010)87500840,1,e8171158f8feca10afee7a91
北京西国贸大酒店-会议厅,39.861645,116.315387,丰管路16号院8号楼,820ac60c1006bc0fb23c818a,"(010)83832222,(010)83832233,(010)83832567",1,820ac60c1006bc0fb23c818a
丰台科技园生态主题公园-童趣园,39.844854,116.300742,北京市丰台区科兴路1号(科怡路口)丰台科技园生态主题公园,1f09681c57a01c344207c134,,1,1f09681c57a01c344207c134
幸运之星(万达广场),39.830469,116.305652,北京市丰台区丰科路6号万达广场F1,c3f9c68c0fa921d3a8f0cdd3,,1,c3f9c68c0fa921d3a8f0cdd3
北京市西南四环科丰桥东汽车博物馆,39.832272,116.311304,北京市丰台区南四环西路128号,,,1,21368275c2f47c06f4b9168b
奥地利风情园,39.843247,116.360083,北京市丰台区南四环中路辅路235号,67c32a47ffee9b7128b97c28,,1,67c32a47ffee9b7128b97c28
绘出色创意美术馆,39.851817,116.358669,草桥欣园二区9号底商C座三层(草桥地铁B口),d91b08558c43dc8c85154134,13366513378,1,d91b08558c43dc8c85154134
普天充电站(汽车博物馆),39.833981,116.307798,北京市丰台区南四环西路126号,99fb645ec1455ba128fc48af,,1,99fb645ec1455ba128fc48af
夜花园,39.839558,116.359112,北京市丰台区南四环中路辅路235号,71c14a777365c5d840e192c6,(010)87500840,1,71c14a777365c5d840e192c6
雅园,39.842437,116.360527,北京市丰台区南四环中路辅路235号,23d9b0e01c928e78e5073864,,1,23d9b0e01c928e78e5073864
耶稣善牧,39.867703,116.323058,太平桥路南150米,342225803545536721026270,,1,342225803545536721026270
茗赏百花厅,39.840213,116.358725,北京市丰台区南四环中路235号世界花卉大观园内,208ba86edb65f5d34c3a596b,(010)87500840,1,208ba86edb65f5d34c3a596b
聚福元古典艺术馆,39.832092,116.308061,北京市丰台区诺德中心二期(丰台科技园地铁站东),,,1,ea0ba68eccab3c26eee4a5cf
鸟类和鸽子,39.842514,116.360584,北京市丰台区南四环中路235号世界花卉大观园内,c56569cc0919639322f017f5,(010)87500840,1,c56569cc0919639322f017f5
二商博物馆,39.843281,116.361837,北京市丰台区镇国寺191号,,,1,bf9bbbb72b792cac725e8033
欢乐领风动漫休闲,39.87268,116.299913,北京市丰台区丰台北路辅路,f7232a38082efee28b2fb52d,,1,f7232a38082efee28b2fb52d
喜诚广场,39.863567,116.299699,北京市丰台区东大街与丰管路交叉口西100米,,,1,d76329a7cdaba697b4265572
尖果海盗港(西铁营万达广场店),39.867067,116.361573,北京市丰台区玉林西路145号,,,1,2310f79cd6bd6a95fb2d6166
吊杆胀拴自贡钉,39.842893,116.348515,北京市丰台区康华路,,,1,6096cc36bdd844682dfaa798
北京莲云文化艺术中心,39.824293,116.340175,六圈路天伦锦城小区甲15号楼1层7,,"(010)88572681,(010)83712081,18910574698",1,41ee30e58d5f9e5f2eb17eb4
万饰如艺文化景观,39.833947,116.333873,丰台南路37号附近,35592a21dc5ed8c6b04c4955,"13051069578,15911163028",1,35592a21dc5ed8c6b04c4955
豪华转马,39.84367,116.36071,北京市丰台区南四环中路辅路235号福娃乐园内,ce4fcf2d06f5ee35d72ce288,,1,ce4fcf2d06f5ee35d72ce288
健康家展示中心,39.846092,116.360245,丰台区草桥欣园四区8号楼底商106号,07c460f4dc9e862f43e192f7,18910535800,1,07c460f4dc9e862f43e192f7
福娃列车,39.843739,116.360638,北京市丰台区南四环中路辅路235号福娃乐园内,ac402950361f9ba3128824b1,,1,ac402950361f9ba3128824b1
隆基泰和城市会展中心,39.833218,116.307244,汽车博物馆东路7号附近,,13591399662,1,ef0b3186a3481d5a2902e199
升降龙凤,39.843649,116.360719,北京市丰台区南四环中路辅路235号福娃乐园内,1d37f9f71af597499a00506b,,1,1d37f9f71af597499a00506b
后湖叠水,39.840633,116.360317,北京市丰台区南四环中路辅路235号,5d9948b06cc0c477f2193749,,1,5d9948b06cc0c477f2193749
莲石湖公园,39.91066,116.158352,北京市门头沟区莲石西路,bdbb0fef71320e9ce812e476,(010)68623448,1,bdbb0fef71320e9ce812e476
葡山公园,39.93117,116.120236,滨河路葡山小区对面葡山公园,ea4a3dc98365762e4e554708,(010)69841870,1,ea4a3dc98365762e4e554708
石门营公园,39.900446,116.116953,北京市门头沟区石龙南路南端,,,1,a69a01e062ca16aa6b49f331
莲石湖湿地公园-永定河河岸公园,39.916959,116.152802,永定河西大堤,069663e02ebc747478b55c84,,1,069663e02ebc747478b55c84
碧霞元君庙,39.925049,116.154386,热电厂路,410c3e86a9095c1f631809c7,,1,410c3e86a9095c1f631809c7
石景山古建群,39.924463,116.155818,北京市石景山区首钢厂区内(近永定河),c1e0e493dd7f552c95ca074b,,1,c1e0e493dd7f552c95ca074b
地震断裂带,39.878436,116.11815,长辛店镇大灰厂东路55号北宫国家森林公园内,,,1,fa660c05dc08714f29fc482c
冯村公园,39.912656,116.116584,门头沟区冯村后街68号信园小区对面,17c3067da73556da45572649,,1,17c3067da73556da45572649
慈孝园,39.930777,116.116177,北京市门头沟区新桥南大街69号,087c6186b40632a702897244,,1,087c6186b40632a702897244
谭鑫培墓,39.903219,116.129188,北京市门头沟区土园路与美安路交叉口东,f4460918f2c1296ab11e3609,,1,f4460918f2c1296ab11e3609
空中花园,39.876831,116.118816,北京市丰台区长辛店镇大灰厂东路55号北宫国家森林公园内,,,1,91706631dfd15cdb25d2bb23
天主教堂,39.929352,116.130857,北京市门头沟区永定天主堂(京西信翔生态园西南),28df21f2d418ad692fe67b35,,1,28df21f2d418ad692fe67b35
永定湖公园,39.903815,116.138516,莲石湖西路,,,1,5a43bfaa58dda83c0b1cc738
门城湖景区观光教育园区,39.930616,116.141471,永定河西大堤与滨水公园景观大道交叉口东150米,f44002499787c61a2cb96de3,,1,f44002499787c61a2cb96de3
三高炉,39.927506,116.161846,北京市石景山区晾水池东路,,,1,bce8b23a4d1fe4541f3894f3
科普郊野公园,39.930231,116.135338,北京市门头沟区G4501(西六环路),,,1,d7d5436202f38dc4c8213d1c
丰台卧龙谷,39.878286,116.143951,北京市丰台区六环长辛店镇梨园村,85513f8c59597300e3110393,,1,85513f8c59597300e3110393
望京亭,39.877695,116.123496,长辛店镇大灰厂东路55号北宫国家森林公园内,,,1,6dd2b2306b99b4c1363a7187
梨园峡谷,39.878299,116.14445,北京市丰台区北宫国家森林公园梨园峡谷,a165853968097bebe115f918,,1,a165853968097bebe115f918
四道桥村龙王庙,39.920064,116.1431,西苑路附近,,,1,36d1b97e9f1893852202208b
葡山亭,39.927895,116.121098,龙北路12号,b85c8b04e6ccf287c27da232,,1,b85c8b04e6ccf287c27da232
彩云台,39.876784,116.121406,北京市丰台区长辛店镇大灰厂东路55号北宫国家森林公园内,,,1,4abf4da51643265ae5e965c0
北京园博园,39.881916,116.197275,北京市丰台区射击场路15号,0da4ab592afbcc14fb2d61b8,(010)63915561,1,14076deea795edf402294f07
北京石景山游乐园,39.917734,116.215291,北京市石景山区石景山路25号,50569b92946486fb5cd4fe48,(010)88925159,1,50569b92946486fb5cd4fe48
中国园林博物馆,39.885338,116.183773,北京市丰台区射击场路15号,0c88dcfbbe2bfcd74054d776,(010)63915025,1,0c88dcfbbe2bfcd74054d776
永定河休闲森林公园,39.895655,116.183872,北京市石景山区京原路55号(石景山燕山水泥厂附近),a3fc98b199ecaf2eadb22a9c,(010)52473949,1,a3fc98b199ecaf2eadb22a9c
石景山雕塑公园,39.917639,116.20639,北京市石景山区八角南路49号,e116be54c22a267bc91b9522,(010)68875143,1,e116be54c22a267bc91b9522
首钢工业遗址公园,39.9159,116.17008,北京市石景山区石景山路68号,,(010)88294331,1,e64a222ec880db9728201a4a
老山城市休闲公园,39.920565,116.231188,北京市石景山区老山南路与上庄大街交叉口西,ba5cefa74e8e9c1efe0eb08c,(010)88982079,1,ba5cefa74e8e9c1efe0eb08c
田村城市休闲公园,39.922622,116.21718,北京市海淀区八角北路建西苑东50米,d05f1d18a765e81dbca24076,,1,d05f1d18a765e81dbca24076
西郊砂石坑,39.926812,116.226897,田村山南路与五景桥东街交叉口北200米路东,cd5e188efc62d01c14c90560,,1,cd5e188efc62d01c14c90560
大摩天轮,39.920349,116.215633,北京市石景山区石景山路25号北京石景山游乐园内,7cde199738c032895e17c3f9,,1,7cde199738c032895e17c3f9
忆江南,39.884617,116.193375,射击场路15号北京园博园,8d41bc73dfacba1e03ec0166,,1,8d41bc73dfacba1e03ec0166
北京园博园台湾园,39.878325,116.202234,北京市丰台区射击场路15号北京园博园,d6e4366f93adf6da22026226,(010)63915561,1,d6e4366f93adf6da22026226
北京市石景山区科技馆,39.919167,116.205892,北京市石景山区八角西街40号,aef5d4624784b559213bf2ef,(010)68863652,1,aef5d4624784b559213bf2ef
永定塔,39.885988,116.179156,北京市丰台区射击场路15号北京园博园内,9fec1db55d9987603a13fdc2,(010)63915561,1,9fec1db55d9987603a13fdc2
国际园林博览会主展馆,39.876685,116.202244,丽维赛德酒店射击场路15号,14ccc93d27c1196d1ce99933,,1,14ccc93d27c1196d1ce99933
杭州园,39.882378,116.194777,射击场路15号北京园博园,0aef019b0f1dcefd16764313,,1,0aef019b0f1dcefd16764313
松林公园,39.911228,116.214026,北京市石景山区八角桥街与石景山路交叉口,a0de497bba229c6a7ec8765d,,1,a0de497bba229c6a7ec8765d
济南园,39.886037,116.187723,北京市丰台区射击场路15号北京园博园,ec4b5e788a1cdda1fda77877,,1,ec4b5e788a1cdda1fda77877
呼和浩特园,39.882807,116.197041,射击场路15号北京园博园,e6c2c4720026884209a8d425,(010)63915561,1,e6c2c4720026884209a8d425
闽园,39.883646,116.190801,北京市丰台区射击场路15号北京园博园,98dc0ca5d81178b1a4c75603,,1,98dc0ca5d81178b1a4c75603
福泰玉庄·玉文化博览,39.881405,116.193832,北京市丰台区射击场路15号北京园博园,e5c04932fbdc34a428b97c5c,,1,e5c04932fbdc34a428b97c5c
沈阳园,39.880052,116.197998,北京市丰台区射击场路15号北京园博园内,b539d7f21b0a41581776434f,(010)63915561,1,b539d7f21b0a41581776434f
天主教北京教区南堂总铎石景山分铎,39.914433,116.231224,石景山路18号,065a636e0d0f05c780a00ce2,,1,065a636e0d0f05c780a00ce2
月季园(河堤路),39.8845,116.191828,北京市丰台区首钢厂区内(近石景山路),cef58f895673116a06fef5ea,,1,cef58f895673116a06fef5ea
印度园博物馆,39.876059,116.204853,北京市丰台区射击场路15号(北京园博园内),,,1,7695fc4736a7315440e192ec
牡丹园,39.890686,116.176312,北京市丰台区芦井路附近,3b626229ed86fd8a5fd4fe30,,1,3b626229ed86fd8a5fd4fe30
北京石景山游乐园-西园,39.920383,116.215899,北京市石景山区石景山路25号北京石景山游乐园内,c150bbc54ee6ab615e17c304,(010)88925159,1,c150bbc54ee6ab615e17c304
吉石,39.883899,116.200605,北京市丰台区射击场路15号北京园博园内,286db0c0a52b987efd0eb088,,1,286db0c0a52b987efd0eb088
昆明园,39.881505,116.194415,射击场路15号北京园博园,2d2195b3dda27b66cd04ef4f,,1,2d2195b3dda27b66cd04ef4f
观光小火车赏花观湖,39.897025,116.19256,京原路55号附近,52d88c93f570e5c59de3211e,,1,52d88c93f570e5c59de3211e
澳门园,39.877712,116.203641,北京市丰台区射击场路15号北京园博园,fc28fcd1abba63d30ab93a50,,1,fc28fcd1abba63d30ab93a50
鹰山森林公园,39.884636,116.172345,长辛店镇射击场路,c2a1b9d14716dcc3e311031f,,1,c2a1b9d14716dcc3e311031f
体育休闲园,39.925965,116.193534,北京市石景山区杨庄大街,d82d669758144ca6d518b7dd,,1,d82d669758144ca6d518b7dd
紫薇园,39.88696,116.183642,北京市丰台区射击场路15号北京园博园内,d3c16de62c63eb5221026205,(010)63915561,1,d3c16de62c63eb5221026205
北京园博园主展馆,39.876369,116.201961,长辛店白草哇西北京园博园,9cef2da2c8c93473f33cba7d,,1,9cef2da2c8c93473f33cba7d
莲石湖湿地公园京华水韵,39.898696,116.174487,北京市石景山区莲石湖湿地公园内,,,1,d8ea40915723f72a60180910
鄂尔多斯园,39.877733,116.200048,北京市丰台区射击场路6号附近,94ee7635d35c18ddf02d8308,,1,94ee7635d35c18ddf02d8308
宁波园,39.882052,116.195643,北京市丰台区射击场路15号北京园博园,ec05fd21611fb3b86849f3aa,,1,ec05fd21611fb3b86849f3aa
北京园博园太原园,39.879395,116.19998,射击场路15号北京园博园,24abbb61900205b075e5b6f7,,1,24abbb61900205b075e5b6f7
北京园博园-1号服务区,39.877075,116.204332,北京市丰台区射击场路15号北京园博园内,,,1,ce7afd45b96be9c3ebe582aa
桃花沟,39.888247,116.181426,射击场路7号附近,0011ffa4c322a39cdad8917a,,1,0011ffa4c322a39cdad8917a
樱花园,39.877745,116.204512,射击场路15号北京园博园,d06ab9d441fb2ac6b64f54c3,,1,d06ab9d441fb2ac6b64f54c3
老山汉墓,39.919792,116.230689,老山驾校环型公路东南段路北山坡上,75d0881a0324c44d3a04b122,,1,75d0881a0324c44d3a04b122
天津园,39.877685,116.202477,北京市丰台区射击场路15号北京园博园,6f5d18c567f5dbceabf0cdd6,(010)63915561,1,6f5d18c567f5dbceabf0cdd6
筑福抗震园,39.928607,116.191225,北京市石景山区杨庄大街69号(首钢特钢公司院内),40f851409342db180bf5eb90,,1,40f851409342db180bf5eb90
半月科普园,39.906259,116.228122,鲁谷南路14号,ec55deecf420f57a80a00ca0,(010)57239696,1,ec55deecf420f57a80a00ca0
趵突泉,39.885975,116.187544,北京市丰台区射击场路7号附近济南园内,61a8e617bb1ed143f6c59cf5,,1,61a8e617bb1ed143f6c59cf5
伊朗园波斯仙境,39.875192,116.205391,北京市丰台区长辛店镇射击场路15号,2244891c0564ed39fda778b8,(010)63915561,1,2244891c0564ed39fda778b8
幻想世界,39.921365,116.214609,北京市石景山区石景山路25号北京石景山游乐园内,c079bd2b93a2c93a400245e2,,1,c079bd2b93a2c93a400245e2
鲁谷奥运文化公园,39.906252,116.228064,鲁谷南路12号,89ea5dfaa24534cf84330444,,1,89ea5dfaa24534cf84330444
北京园博园-观景台,39.880044,116.201997,北京市丰台区射击场路15号北京园博园内,fdb04bcd015640abaecb66e6,,1,fdb04bcd015640abaecb66e6
南昌园,39.878412,116.200991,北京市丰台区射击场路15号北京园博园,f91fd3e445f4c3e7095cb325,,1,f91fd3e445f4c3e7095cb325
神舟号过山车,39.917144,116.213952,北京市石景山区石景山路25号北京石景山游乐园西园内,52decd99e42be2b6d3ff238e,(010)68862547,1,52decd99e42be2b6d3ff238e
北京园博园石家庄园,39.880802,116.195485,北京市丰台区射击场路15号北京园博园,976355bcedd6b8431fe9996b,(010)63915561,1,12288d5ffd5f1c24283a9f68
老山城市休闲公园-老山瞭望台,39.921559,116.229427,老山教练场环行路附近,,,1,08885fcf554d5d25a2d2303a
海口园,39.884173,116.195652,北京市丰台区射击场路15号北京园博园,19adcbe4de67c7164002455e,,1,19adcbe4de67c7164002455e
儿童游乐园,39.885987,116.177396,北京市丰台区芦井路,ea07ddcf906ee55b84330458,,1,ea07ddcf906ee55b84330458
中关村石景山园古城基地,39.916525,116.181319,北京市石景山区古城西街19号中关村,ab53ba5ddfe243a45d17c3ca,,1,ab53ba5ddfe243a45d17c3ca
彼得拉茨花园,39.880031,116.206235,北京市丰台区射击场路15号北京园博园,5b680c1624b62a458c55ecf6,,1,5b680c1624b62a458c55ecf6
半月园底商,39.906863,116.227955,银河南街与鲁谷南路交叉口南100米,f63c9cba4a5f26a94c3a59f6,,1,f63c9cba4a5f26a94c3a59f6
北京园博园-哈尔滨园,39.879846,116.197298,射击场路15号北京园博园,753a291363cf42af2cb90815,,1,f572527f5e28b479f33cba27
曙光基督教会,39.902042,116.20943,石景山区锅炉厂南路,e4a942b24fc6c23845e274f9,13717891825,1,e4a942b24fc6c23845e274f9
古民居文化区,39.891363,116.173612,射击场路15号北京园博园,53c256160e10e395bfa822dd,,1,53c256160e10e395bfa822dd
丽维赛德酒店-会议中心,39.875323,116.202405,丽维赛德酒店2层,392fc427ebf74208c5effb86,(010)83389999,1,392fc427ebf74208c5effb86
郑州园,39.881019,116.195824,北京市丰台区射击场路15号北京园博园,4567113b30eed5489d82eadb,(010)63915561,1,4567113b30eed5489d82eadb
遵义园,39.88396,116.197413,射击场路15号北京园博园,55c2ddaf2ae27dfa9222e008,(010)63915561,1,55c2ddaf2ae27dfa9222e008
北京园博园重庆园,39.88261,116.193006,射击场路15号北京园博园,796292bd288f034a4f3a59f1,,1,796292bd288f034a4f3a59f1
香港园,39.876902,116.203681,北京市丰台区射击场路15号北京园博园,d1d41677454d1c1741d63e3e,(010)63915561,1,d1d41677454d1c1741d63e3e
园博湖,39.879664,116.210968,亲水园路附近,e3d2f6a9cd3e0177ae31e58e,,1,e3d2f6a9cd3e0177ae31e58e
暗夜古堡鬼屋,39.917696,116.214703,八角街道北京石景山游乐园,,,1,b0652ad9b11ee69e49fc8dd1
成都园,39.884031,116.196769,射击场路15号北京园博园,203d81ec6c6a732838e4a607,,1,203d81ec6c6a732838e4a607
海盗船,39.921347,116.216367,石景山路25号北京石景山游乐园,d8a6a0181941f4da1ef74de1,,1,d8a6a0181941f4da1ef74de1
莲石湖生态公园-西门人行门,39.895395,116.17073,北京市丰台区莲石湖公园(北京园博园西北),,,1,85df74185180869d21f01786
鄂州园,39.885947,116.188451,北京市丰台区射击场路15号北京园博园,21162ff06ede90f5354aae21,,1,21162ff06ede90f5354aae21
北京园博园梦唐园,39.875697,116.204517,射击场路15号北京园博园,95e6cb16768f3382774ff1a8,,1,95e6cb16768f3382774ff1a8
文昌阁,39.889627,116.177975,北京市丰台区河堤路,d005aa9d9d362afa7cc876bf,,1,d005aa9d9d362afa7cc876bf
北京园博园儿童乐园,39.882252,116.193273,园博大道附近,,,1,7e1dea91354078fe2cb908b9
乌鲁木齐园,39.878734,116.200663,北京市丰台区射击场路15号北京园博园,7230ab3c242f69b92902e1c8,,1,7230ab3c242f69b92902e1c8
奇石园,39.87865,116.198963,北京市丰台区射击场路15号,d4d2d16d517794b0f8dc85a1,(010)63915561,1,d4d2d16d517794b0f8dc85a1
岭南园,39.885263,116.187442,北京市丰台区射击场路15号北京园博园,190d98bfb8b4cad47ab55c5e,,1,190d98bfb8b4cad47ab55c5e
北京石景山游乐园-东园,39.915338,116.215462,北京市石景山区石景山路25号北京石景山游乐园内,c8cc7b1265ba4a14bca82213,,1,c8cc7b1265ba4a14bca82213
株洲园,39.883806,116.194887,射击场路15号北京园博园,48660824f02394ca8bb9889e,(010)63915561,1,48660824f02394ca8bb9889e
石景山基督教聚会点,39.928331,116.195,石景山区杨庄路口西70号公社1958创意园5号楼5层,,,1,9efe9ecc441f6be20869d909
印象四合院,39.880763,116.205421,射击场路15号北京园博园,888c9b9a9d4fc7ff9e82eacc,,1,888c9b9a9d4fc7ff9e82eacc
长春园,39.879616,116.197716,北京市丰台区射击场路6号,8574b731474a0dca3913fd07,(010)63915561,1,8574b731474a0dca3913fd07
首钢工业遗址(白庙),39.904424,116.184612,古城南街,ffd48b303d0c2cd18afc061f,,1,ffd48b303d0c2cd18afc061f
中华第一宝砚馆,39.882259,116.19283,北京市丰台区长辛店镇射击场路15号,9745d87065bc7b292b06ce13,(010)63915561,1,9745d87065bc7b292b06ce13
北京园博园三谷彻花园,39.880401,116.205603,北京市丰台区河堤路附近,2cf38eda1aaa0ace373a71c6,,1,2cf38eda1aaa0ace373a71c6
门亭,39.89455,116.16912,京原路与北宫路交叉口北150米,9778ceef33804539902ca321,,1,9778ceef33804539902ca321
晋中园,39.883097,116.197271,射击场路15号北京园博园,6ed991be7f7a8a90ee74f81d,,1,6ed991be7f7a8a90ee74f81d
太阳岛宾馆-会议厅,39.913721,116.206209,石景山路33号,8ea863de26699970343a7109,(010)68863366,1,8ea863de26699970343a7109
西爽楼,39.884341,116.192996,北京市丰台区射击场路附近忆江南内,ac316e7e64baf5145fd4fe22,,1,ac316e7e64baf5145fd4fe22
永定河休闲森林公园(观光小火车),39.895635,116.177989,京原路55号,,,1,d5fa13cfdd14beb6fa42b266
小豆豆艺术馆,39.915406,116.205591,北京市石景山区八角西街46-8,5672685dcd4f491276e5b6e1,"(010)57290909,13146337279",1,5672685dcd4f491276e5b6e1
西宁园,39.883311,116.197855,北京市丰台区射击场路15号北京园博园内,382007db07b1475632870a2e,,1,382007db07b1475632870a2e
意大利碰碰车,39.917907,116.215543,北京市石景山区石景山路25号北京石景山游乐园西园内,f308903035c38ca7cae33c21,(010)68862547,1,f308903035c38ca7cae33c21
兰州园,39.883907,116.197634,北京市丰台区射击场路15号北京园博园,c3cc9f4027cf2688a8f0cde9,,1,c3cc9f4027cf2688a8f0cde9
初心艺术馆,39.926008,116.213807,八角东街12号建西苑中里1号楼京城商厦209,b0f95c313077e8ea88f15d93,,1,b0f95c313077e8ea88f15d93
激流勇进,39.919307,116.216559,北京市石景山区石景山路25号北京石景山游乐园西园内,260946ec551a8fa1c929156a,(010)68862547,1,260946ec551a8fa1c929156a
秘密花园,39.885151,116.184499,北京市丰台区射击场路15号中国园林博物馆内,0dd673b7fc6a071415c905d3,,1,0dd673b7fc6a071415c905d3
银川园,39.883698,116.197483,射击场路15号北京园博园,0e34b3a3ea95d01b3586f40c,,1,0e34b3a3ea95d01b3586f40c
峡谷漂流,39.915354,116.216037,石景山路25号北京石景山游乐园东园峡谷漂流,a8738d706d3806a823f0172f,(010)88925159,1,a8738d706d3806a823f0172f
长沙园,39.883208,116.195864,北京市丰台区射击场路15号北京园博园,a8944d69ea120eaea8175a12,,1,a8944d69ea120eaea8175a12
湘潭园,39.883317,116.196457,北京市丰台区射击场路15号北京园博园,86097fc222a0978f3f9a5ebc,(010)63915561,1,86097fc222a0978f3f9a5ebc
有限无限,39.879102,116.205753,北京市丰台区河堤路附近,b1155e94538ab1ba40e19259,,1,b1155e94538ab1ba40e19259
北京园博园-合肥园,39.878159,116.200362,射击场路15号北京园博园,731abdc0285427cb2202620a,,1,731abdc0285427cb2202620a
武汉园,39.881498,116.195311,北京市丰台区射击场路15号北京园博园,877754f136544daf49fd3fc0,,1,877754f136544daf49fd3fc0
万木松风,39.881533,116.198152,北京市丰台区射击场路15号北京园博园内,69efdf28e403d77158f6beba,,1,69efdf28e403d77158f6beba
北京园博园西安园,39.886072,116.189197,射击场路15号北京园博园,7cc02b4e04c7f6665d0d0249,,1,7cc02b4e04c7f6665d0d0249
北京园博园拉萨园,39.881768,116.193077,射击场路15号北京园博园,1b719db6b606fadcb817e771,,1,4edf573a8ce851c5e01103e6
北京园博园-上海园,39.878139,116.20085,射击场路15号,,,1,67741392f93b0c7efa42b269
玉文化博物馆,39.881301,116.193725,北京市丰台区射击场路6号北京园博园内,90a957f0a1147f23f33cbad2,,1,90a957f0a1147f23f33cbad2
唐山园,39.878185,116.199457,射击场路15号北京园博园,7e87e784e259093032f71deb,,1,7e87e784e259093032f71deb
文源亭,39.888722,116.18157,北京市丰台区射击场路15号北京园博园内,22daeb25dc87bf0c6f4760a5,,1,22daeb25dc87bf0c6f4760a5
风采小亭,39.91406,116.224989,石景山路北150米,1cbf48bab64465ce2b201ae7,,1,1cbf48bab64465ce2b201ae7
丁香园,39.888044,116.178049,北京市丰台区射击场路15号北京园博园内,6e06e91a2e1555d0b8bd6320,,1,6e06e91a2e1555d0b8bd6320
北京园博园-莲石湖,39.89203,116.178372,射击场路15号北京园博园,,(010)68623448,1,165b138687ae23416c3e1b20
经仪公园-西区,39.879501,116.231715,卢沟桥乡张仪村南路,b0b1bd56a8f50fa8471a32cd,,1,b0b1bd56a8f50fa8471a32cd
北京园博园玉文化博览馆,39.881358,116.193889,北京市丰台区园博园内,09197bd80819871f8415417b,(010)63915561,1,90b04fa423bf896928b97cf9
泉水人家,39.886224,116.188155,北京市丰台区射击场路7号附近济南园内,ea124bf16879f3dfe9f85392,,1,ea124bf16879f3dfe9f85392
疯狂老鼠,39.918897,116.215974,石景山路25号附近,b4636e64dc1a5a213c9a5e19,,1,b4636e64dc1a5a213c9a5e19
荆门园,39.878993,116.200151,北京市丰台区射击场路15号北京园博园,68818948f46d8b6e9de321ba,,1,68818948f46d8b6e9de321ba
北京石景山游乐园停车场-出入口,39.916088,116.213149,北京市石景山路25号北京石景山游乐园,,,1,c47b166db32d28738e1a899f
燕台大观,39.882162,116.199637,银杏大道附近,d90478723ee35ca2c5f50d4c,,1,d90478723ee35ca2c5f50d4c
易水宝砚,39.882212,116.192875,北京市丰台区射击场路附近,9923aa707f7475a30c0a7034,,1,9923aa707f7475a30c0a7034
飞炫云霄,39.918115,116.215687,北京市石景山区石景山路25号北京石景山游乐园西园内,f48e79402c649b3b6268580e,(010)68862547,1,f48e79402c649b3b6268580e
太空历险,39.922188,116.215374,北京市石景山区石景山路25号北京石景山游乐园幻想世界内,c5d72e818596a74602294fb0,,1,c5d72e818596a74602294fb0
染霞山房,39.887427,116.18201,北京市丰台区射击场路15号中国园林博物馆内,d676759dcc6bb5bd42d63e01,,1,d676759dcc6bb5bd42d63e01
石景山游乐园-7D体验馆,39.914832,116.214879,北京市石景山区石景山路25号石景山游乐园内,,,1,6290899148e81cc7acee7a84
包拯铜像,39.878433,116.199778,北京市丰台区射击场路6号附近合肥园内,52a273d06c8c15d9f60e77bd,,1,52a273d06c8c15d9f60e77bd
疯狂巴士,39.922226,116.214349,北京市石景山区石景山路25号北京石景山游乐园幻想世界内,50abfa72c720664b14c8f655,(010)68862547,1,50abfa72c720664b14c8f655
宁静轩,39.887227,116.181902,北京市丰台区射击场路15号中国园林博物馆内,378cdeb8e9c5f681cc06a467,,1,378cdeb8e9c5f681cc06a467
校园微博物馆,39.90314,116.219815,北京市石景山区京源学校,f401a9b2a30c946fad0457b1,,1,f401a9b2a30c946fad0457b1
静明轩,39.882315,116.19888,北京市丰台区射击场路15号北京园博园内,161ce8826856c81a353a7119,,1,161ce8826856c81a353a7119
小径花园,39.87858,116.205602,射击场路15号北京园博园,61e84dae31e61c6a58f6beb8,,1,61e84dae31e61c6a58f6beb8
廉泉亭,39.878709,116.199572,北京市丰台区射击场路6号附近合肥园内,99fed9981e603df4e115f938,,1,99fed9981e603df4e115f938
太阳岛宾馆-商务中心,39.914032,116.206494,石景山路33号,b6e5f453743a650d5fd4fecf,(010)68863366,1,b6e5f453743a650d5fd4fecf
梅花沟,39.887855,116.178467,北京市丰台区,96880af4a99743ce88f15de2,,1,96880af4a99743ce88f15de2
琼斯探险,39.920902,116.21681,北京市石景山区石景山路25号北京石景山游乐园冒险世界内,b24c6dc4649d94df1b94c696,,1,b24c6dc4649d94df1b94c696
宛平奇石,39.878757,116.198826,北京市丰台区射击场路15号奇石园内,7529521a839858605cbe8685,,1,7529521a839858605cbe8685
北京园博园-观光车锦绣谷北站,39.883942,116.199868,北京市丰台区射击场路15号北京园博园内,,,1,3b35b9f8d57c819ab23c818f
海洋Party,39.921938,116.215282,北京市石景山区石景山路25号北京石景山游乐园幻想世界内,c07ccaac11b7d5147402697d,,1,c07ccaac11b7d5147402697d
七彩璞王国之瑰宝,39.8812,116.197011,北京市丰台区射击场路15号北京园博园内,23a6c885cf4f091338221c7c,,1,23a6c885cf4f091338221c7c
北京石景山游乐园西园-八角独栋,39.919497,116.215142,北京市石景山区北临阜石路西邻西五环,66a4c5a5f19454972902e17b,,1,66a4c5a5f19454972902e17b
北京园博园-青岛园,39.879403,116.200496,北京市丰台区射击场路15号北京园博园内太原园旁,,(010)63915561,1,3895e859977d120c8f1a892d
海洋戏珠,39.91884,116.214244,北京市石景山区石景山路25号北京石景山游乐园西园内,3ea1c6b09e80463314948e82,(010)68862547,1,3ea1c6b09e80463314948e82
飞象戏水,39.919366,116.215642,北京市石景山区石景山路25号北京石景山游乐园西园内,f8bce1e03a1d4ab8902ca3e6,(010)68862547,1,f8bce1e03a1d4ab8902ca3e6
郴州园,39.883294,116.195511,北京市丰台区射击场路15号北京园博园,a708aae32962455ff2193764,,1,a708aae32962455ff2193764
叠翠,39.882425,116.201368,北京市丰台区园博园内,c670542df0f9fd1633870a05,,1,c670542df0f9fd1633870a05
晓月,39.882072,116.203083,北京市丰台区园博园内,036362b169f7fef1babd63e1,,1,036362b169f7fef1babd63e1
果蔬部落,39.922265,116.214726,北京市石景山区石景山路25号北京石景山游乐园幻想世界内,83245d723ed70e8505fef530,(010)68862547,1,83245d723ed70e8505fef530
塔影别苑,39.884293,116.182235,北京市丰台区射击场路15号中国园林博物馆内,758b198297a60832f5c59cad,,1,758b198297a60832f5c59cad
龙山园,39.886964,116.185501,北京市丰台区河堤路,293ff57931c03fbe25e0a09d,,1,293ff57931c03fbe25e0a09d
UFO飞碟车,39.917842,116.214142,北京市石景山区石景山路25号北京石景山游乐园西园内,7c42bbdc561dd161a80dd89f,(010)68862547,1,7c42bbdc561dd161a80dd89f
南薰楼,39.884314,116.190059,北京市丰台区射击场路附近闽园内,cdbe24b15122fe4fd618b75d,,1,cdbe24b15122fe4fd618b75d
上海梦之园,39.87814,116.200866,北京市丰台区射击场路6号附近,3ec78357cc42532f6e20b9a6,,1,3ec78357cc42532f6e20b9a6
北方山地园林·染霞山房,39.886195,116.182558,北京市丰台区射击场路15号中国园林博物馆内,9e495691f07ff624047ce8a1,,1,9e495691f07ff624047ce8a1
园博园5号门游客服务中心,39.883224,116.191044,园博大道与银杏大道交叉口东北150米,dd6d05029f2accbd7bb55c21,,1,dd6d05029f2accbd7bb55c21
石景山区文化创意产业展示中心,39.918993,116.205528,北京市石景山区八角西街40号,6fba30261430c9dfbda2403a,,1,6fba30261430c9dfbda2403a
冰雪幻境,39.916607,116.214281,北京市石景山游乐园西南门,,,1,91972f5049d453a1593ac85a
北京园博园-南宁园(河堤路),39.884218,116.19534,北京市丰台区射击场路15号北京园博园,3e52fa493aff69deb42655b0,,1,3e52fa493aff69deb42655b0
峰顶酩香,39.886639,116.180134,射击场路9号附近,32ff88da561010e543d63ea1,,1,32ff88da561010e543d63ea1
转转鸟,39.921158,116.215234,北京市石景山区石景山路25号北京石景山游乐园幻想世界内,ebdfe059cfcb5ab74354d721,(010)68862547,1,ebdfe059cfcb5ab74354d721
北方水景园林·塔影别苑,39.884314,116.182774,北京市丰台区射击场路15号中国园林博物馆内,43a0cec718a58c7afa0caded,,1,43a0cec718a58c7afa0caded
万景门,39.881865,116.198924,北京市丰台区射击场路15号北京园博园内,eadcb3ea53155eb36f4760cb,,1,eadcb3ea53155eb36f4760cb
秋波,39.881456,116.201664,北京市丰台区园博园内,3b5d80199fed63fe83a00c4d,,1,3b5d80199fed63fe83a00c4d
聚景阁,39.88273,116.198826,北京市丰台区射击场路15号北京园博园内,b0bd978185f690a3260bd0db,,1,b0bd978185f690a3260bd0db
北京园博园-声波,39.879424,116.205255,射击场路15号北京园博园,1517f42657964dcec0364488,,1,1517f42657964dcec0364488
奇幻城堡,39.919595,116.215148,北京市石景山区石景山路25号北京石景山游乐园西园内,58dc2a3f4bca51a90d3dda40,,1,58dc2a3f4bca51a90d3dda40
栾树沟,39.888003,116.184437,射击场路7号附近,57aae0c153b3bbfca11de9d4,,1,57aae0c153b3bbfca11de9d4
永定牌坊,39.889518,116.180332,北京市丰台区射击场路15号北京园博园内,bd647731a0b4105f63180905,,1,bd647731a0b4105f63180905
知秋园,39.88224,116.198504,北京市丰台区射击场路15号北京园博园内,5d650b8061788bde4354d789,,1,5d650b8061788bde4354d789
凹陷花园,39.881036,116.205231,射击场路15号北京园博园,8adda6b2cb12251f87330441,,1,8adda6b2cb12251f87330441
汇波轩,39.886455,116.187957,北京市丰台区射击场路7号附近济南园内,1aea3992765b746fcb1b9543,,1,1aea3992765b746fcb1b9543
浪卷珍珠,39.919222,116.216082,北京市石景山区石景山路25号北京石景山游乐园西园内,0612acfa180386ceb7147f69,(010)68862547,1,0612acfa180386ceb7147f69
植树人,39.885576,116.189745,北京市丰台区银杏大道,,,1,b771cc33aec719c5100daa6e
常德园,39.883112,116.196819,北京市丰台区射击场路15号北京园博园,e0967f13be380189901fc95a,,1,e0967f13be380189901fc95a
广场鸽,39.920286,116.215471,北京市石景山区石景山路25号北京石景山游乐园西园内,2cedac1abaf62decc17da26a,(010)68862547,1,2cedac1abaf62decc17da26a
清听,39.881096,116.198734,北京市丰台区园博园内,1245d06f153e278940ab9a1a,,1,1245d06f153e278940ab9a1a
太公池,39.885737,116.173414,长辛店镇射击场路鹰山森林公园附近,79c96a40155b01c6744ff140,,1,79c96a40155b01c6744ff140
和福居,39.883705,116.190562,北京市丰台区射击场路附近闽园内,1ac560f367470b36ca2915cf,,1,1ac560f367470b36ca2915cf
孝肃桥,39.878314,116.199957,北京市丰台区射击场路6号附近合肥园内,12b848e648bfbc389f09f748,,1,12b848e648bfbc389f09f748
儿童爬山车,39.919899,116.21548,北京市石景山区石景山路25号北京石景山游乐园西园内,26cbd23585aff98197ec843a,,1,26cbd23585aff98197ec843a
八角同心亭,39.920546,116.199519,北京市石景山区八角北路28号楼附近,,,1,03b1de6f7837391f8605bf01
流水印2013,39.878852,116.205151,射击场路15号北京园博园,7b8d791d18e16171ad31e50a,,1,7b8d791d18e16171ad31e50a
赤足探水,39.875053,116.209292,北京市丰台区河堤路附近,5ba18b444783c784cf06a4cb,,1,5ba18b444783c784cf06a4cb
致用台,39.882972,116.196086,北京市丰台区射击场路6号附近长沙园内,fb21be9796b1e74b283a9f71,,1,fb21be9796b1e74b283a9f71
北京园博园3号门游客服务中心-租赁语言讲解器服务,39.876952,116.200056,北京市丰台区北京园博园-3号门游客服务中心内,26c373722310adba0c0a70b5,,1,26c373722310adba0c0a70b5
时空穿梭机,39.918931,116.216179,北京市石景山区石景山路25号北京石景山游乐园西园内,b29a8e868964d0b848cc4acb,,1,b29a8e868964d0b848cc4acb
云荫堂,39.885753,116.182343,北京市丰台区射击场路15号中国园林博物馆内,d8ebd694bbf5900ad0ff2349,,1,d8ebd694bbf5900ad0ff2349
皇家转马,39.917612,116.214102,北京市石景山区石景山路25号北京石景山游乐园西园内,4c3657d199a8660c03ec0141,,1,4c3657d199a8660c03ec0141
开心夺宝,39.921049,116.215398,北京市石景山区石景山路25号北京石景山游乐园幻想世界内,,,1,4bf5a368652fb588ddee8b70
彩虹,39.921747,116.21567,北京市石景山区石景山路25号北京石景山游乐园幻想世界内,6d36f80c4f917ccf2a02e182,,1,6d36f80c4f917ccf2a02e182
能源风暴,39.919685,116.216513,北京市石景山区石景山路25号北京石景山游乐园西园内,3b6407f6a15561cc4354d78e,,1,3b6407f6a15561cc4354d78e
彩练当空,39.921123,116.215453,北京市石景山区石景山路25号北京石景山游乐园内,,,1,19b19b5bbdaf906e6b49f3e3
奥利水战,39.921179,116.214889,北京市石景山区石景山路25号北京石景山游乐园幻想世界内,13aaa41564e6f3b51811d58d,,1,13aaa41564e6f3b51811d58d
朱张亭,39.883,116.19588,北京市丰台区射击场路6号附近长沙园内,e448e898a8f9be4643ab9a04,,1,e448e898a8f9be4643ab9a04
展奁榭,39.882441,116.199032,北京市丰台区射击场路15号北京园博园内,3f6beb29fa6d7ab93c9a5ebc,,1,3f6beb29fa6d7ab93c9a5ebc
凤凰岭美术馆,39.878301,116.202204,北京市丰台区射击场路15号北京园博园台湾园内,,,1,34190a091d2ccf38b817e71f
万珠响玉,39.882169,116.199796,北京市丰台区射击场路15号北京园博园内,bc6201104025fd21b8bd63a0,,1,bc6201104025fd21b8bd63a0
接风,39.881256,116.198089,北京市丰台区射击场路15号北京园博园内,0c7b442dcfe125b1a4c756b8,,1,0c7b442dcfe125b1a4c756b8
吟红斋,39.887449,116.182383,北京市丰台区射击场路15号中国园林博物馆内,c059ac9c5038f3ae725e80c3,,1,c059ac9c5038f3ae725e80c3
丁香沟,39.886111,116.183421,射击场路7号附近,,,1,c1dea2ce126ff2c2f02d8303
先月榭,39.885531,116.182118,北京市丰台区射击场路15号中国园林博物馆内,44f5786fed3ebe8c01294f33,,1,44f5786fed3ebe8c01294f33
观澜亭,39.886009,116.187562,北京市丰台区射击场路7号附近济南园内,7ad182a5b140bb303517dcb6,,1,7ad182a5b140bb303517dcb6
斗室,39.885559,116.182396,北京市丰台区射击场路15号中国园林博物馆内,5f9cd1a6eb44062b4251c0de,,1,5f9cd1a6eb44062b4251c0de
杜鹃沟,39.884968,116.178391,射击场路15号,939a02478cb510f62cb96d80,,1,939a02478cb510f62cb96d80
凤凰亭,39.886224,116.188541,北京市丰台区射击场路附近鄂州园内,6a50d9b5e5cdbfbb5cd4febf,,1,6a50d9b5e5cdbfbb5cd4febf
西部战车,39.919331,116.213719,八角东街与八角路交叉口东100米,,,1,6b37e31dda9c2e8fc5effbf6
桑巴球,39.921064,116.21482,北京市石景山区石景山路25号北京石景山游乐园幻想世界内,,(010)68862547,1,2eb45f0900dac44b40afe6d4
钓黄鸭,39.920862,116.21538,石景山路25号北京石景山游乐园幻想世界内,,,1,789ce3b9793764439de3217f
出气桶,39.921752,116.215667,北京市石景山区石景山路25号北京石景山游乐园幻想世界内,6648c123c08f1886316212ae,(010)68862547,1,6648c123c08f1886316212ae
激浪旋艇,39.921989,116.214618,北京市石景山区石景山路25号北京石景山游乐园幻想世界内,e431b7f60ccba55ac6effb5e,(010)68862547,1,e431b7f60ccba55ac6effb5e
旋风飞椅,39.918648,116.215579,北京市石景山区石景山路25号北京石景山游乐园西园内,6e8b985adc744404dbeced17,,1,6e8b985adc744404dbeced17
玫露台,39.882169,116.198547,北京市丰台区射击场路15号北京园博园内,b38c73f4f0a29e3f6168589f,,1,b38c73f4f0a29e3f6168589f
烟树,39.881173,116.203443,北京市丰台区园博园内,2566cddfde7a1e1c343a71bd,,1,2566cddfde7a1e1c343a71bd
春及园,39.88147,116.19446,北京市丰台区射击场路6号附近昆明园内,5d8b0abc2cc9d1ec3f9a5e86,,1,5d8b0abc2cc9d1ec3f9a5e86
赫曦台,39.882993,116.19623,北京市丰台区射击场路6号附近长沙园内,26cb1d053e5403ad9fec2b8f,,1,26cb1d053e5403ad9fec2b8f
春阴,39.879866,116.2032,北京市丰台区园博园内,bcb53f084038091c79dbd297,,1,bcb53f084038091c79dbd297
寻芳亭,39.882259,116.198576,北京市丰台区射击场路15号北京园博园内,7d611e85555807a638221cb6,,1,7d611e85555807a638221cb6
舒啸亭,39.884674,116.193346,北京市丰台区射击场路附近忆江南内,c04f11db6a14181803294fb6,,1,c04f11db6a14181803294fb6
经仪公园-南区,39.87806,116.231822,张仪村路,438e09538fad6770fbf0cbe8,,1,438e09538fad6770fbf0cbe8
风篁斋,39.882086,116.198637,北京市丰台区射击场路15号北京园博园内,19d1af53632ea809276e98db,,1,19d1af53632ea809276e98db
延南薰,39.886217,116.182388,北京市丰台区射击场路15号中国园林博物馆内,a19038b6f2cbca96d22dd6ad,,1,a19038b6f2cbca96d22dd6ad
松风阁,39.885933,116.188316,北京市丰台区射击场路附近鄂州园内,97b44646039c867873210b9d,,1,97b44646039c867873210b9d
留客亭,39.885629,116.182145,北京市丰台区射击场路15号中国园林博物馆内,82d251d784ef7cd249fc8dc1,,1,82d251d784ef7cd249fc8dc1
澄爽榭,39.884604,116.182072,北京市丰台区射击场路15号中国园林博物馆内,c59482b136fb3e31fea778f1,,1,c59482b136fb3e31fea778f1
镜影亭,39.884238,116.182657,北京市丰台区射击场路15号中国园林博物馆内,ca4c233afd87d1079b0050c1,,1,ca4c233afd87d1079b0050c1
玲珑池馆,39.885504,116.182226,北京市丰台区射击场路15号中国园林博物馆内,28cd3bc0ae1dbc765d0d02be,,1,28cd3bc0ae1dbc765d0d02be
哈利历险,39.919726,116.2161,北京市石景山区石景山路25号北京石景山游乐园西园内,52e87d79254dda2309b93aa4,,1,52e87d79254dda2309b93aa4
岳岩取水处,39.928881,116.211799,北京市石景山区八角东街15号附近,a0b591bfc6e2f75f3f9a5e1d,,1,a0b591bfc6e2f75f3f9a5e1d
微波炉展台,39.913807,116.208175,北京市石景山区盛景国际广场苏宁电器一层,,,1,7c84d47e1581e085c8213dde
太空大战,39.918917,116.214583,北京市石景山区石景山路25号北京石景山游乐园西园内,81957f3b5f764d827adbd29a,(010)68862547,1,81957f3b5f764d827adbd29a
自旋滑车,39.919671,116.214052,北京市石景山区石景山路25号北京石景山游乐园西园内,1a82261c8fa6dd099e9d6816,,1,1a82261c8fa6dd099e9d6816
儿童观览车,39.921066,116.21465,北京市石景山区石景山路25号北京石景山游乐园幻想世界内,,(010)68862547,1,f66d61e266b93bec94ec84c0
北京五洲华人文化交流中心,39.909226,116.22174,鲁谷路128号皓月写字楼3层309,af1ad0a0e2920eb588fc069e,,1,af1ad0a0e2920eb588fc069e
爽风楼,39.882154,116.19839,北京市丰台区射击场路15号(北京园博园锦绣谷附近),8194b87b7312a03c59bbbce8,,1,8194b87b7312a03c59bbbce8
澹泊居,39.882419,116.198431,北京市丰台区射击场路15号北京园博园内,ada16caceb2ea84cbb17e7b4,,1,ada16caceb2ea84cbb17e7b4
澄潭,39.881858,116.200506,北京市丰台区园博园内,c067e045f6a1653eadb22a6d,,1,c067e045f6a1653eadb22a6d
蓝色经济绿色青岛,39.879279,116.200362,北京市丰台区射击场路15号北京园博园,2eb155f4fff466c2d9eced81,,1,2eb155f4fff466c2d9eced81
真乐山房,39.883822,116.190103,北京市丰台区射击场路甲5号附近,52aef92ba2df1f69c7f025a5,,1,52aef92ba2df1f69c7f025a5
近光阁,39.885787,116.182253,北京市丰台区射击场路15号中国园林博物馆内,b31543403e05bc5630f71dec,,1,b31543403e05bc5630f71dec
玫瑰沟,39.885848,116.179696,北京市丰台区射击场路11号附近,f165885ed6ac2d779cec2b81,,1,f165885ed6ac2d779cec2b81
纪念阙,39.885383,116.189927,北京市丰台区银杏大道,e76bb3aeb7702c9e9ff7798b,,1,e76bb3aeb7702c9e9ff7798b
北京园博园-6号门游客服务中心,39.884412,116.173165,北京市丰台区北宫路与芦井路交叉口东150米,cfb26067ed88448097ec843a,,1,cfb26067ed88448097ec843a
好时光公园(喜隆多新国际购物中心店),39.928868,116.178284,北京市石景山区阜石路300号喜隆多新国际购物中心F3,,,1,0827b9918e2e8dc08a36ee3e
北京石景山游乐园-游客中心,39.915596,116.214905,北京市石景山区石景山路25号北京石景山游乐园内,ca0992dc22f78c703913fd46,,1,ca0992dc22f78c703913fd46
天元公园,39.883502,116.26724,北京市丰台区青塔西路,c0cd709909ef4895b35c6afd,,1,c0cd709909ef4895b35c6afd
北京欢乐水魔方水上乐园,39.891152,116.254886,北京市丰台区小屯路11号,1bf85b25de6e43bda0a93490,,1,1bf85b25de6e43bda0a93490
北京国际雕塑公园西区,39.912449,116.244861,石景山路2西门,be54cde9ec04f05878f79622,,1,be54cde9ec04f05878f79622
小屯公园,39.877,116.256436,北京市丰台区小屯西路(近天弘美域),81d6a5094967cd406e20b904,,1,81d6a5094967cd406e20b904
Hi-Fun竞技主题乐园(嗨翻),39.915789,116.285849,北京市海淀区复兴路69号,,,1,bd784a12f7012e844f6d46bb
青塔街心公园,39.898523,116.266877,北京市丰台区大成北里路五棵树乐园青塔街心公园,7f1c386ca31acc3dd2f49e18,,1,7f1c386ca31acc3dd2f49e18
阳光星期八,39.922358,116.260899,北京市海淀区玉泉路,f4460918f178286ab01e36b6,,1,f4460918f178286ab01e36b6
北京国际雕塑公园东区,39.911774,116.257257,石景山路2号,c0bcb28504d5d4628936eec1,,1,c0bcb28504d5d4628936eec1
生态公园,39.891442,116.292369,北京市丰台区岳各庄东路,dd396a4098afa24340e19275,,1,dd396a4098afa24340e19275
定慧公园,39.926827,116.292322,北京市海淀区阜成路66号,,,1,b948d72420126f3c2cb9089c
足球公园,39.890702,116.288935,岳各庄东路附近,9ca26156ed57323b3d9a5e9b,,1,9ca26156ed57323b3d9a5e9b
北京时代美术馆,39.917099,116.285491,北京市海淀区复兴路69号华熙LIVE五棵松HI-UP东北角,3e737ca9d1eb7e039cf77992,(010)65681868,1,3e737ca9d1eb7e039cf77992
铁道兵纪念馆,39.912866,116.262403,北京市海淀区复兴路40号,8fb3cb1c0c4d64312fe67b5e,(010)52688418,1,c1ab177c8c4b8d59e9e5826a
中铁六局会议中心,39.923883,116.290452,万寿路甲2号,89fecf2f4b887ead38221c9e,,1,89fecf2f4b887ead38221c9e
中国人民解放军总医院-国际会议中心,39.911034,116.283767,万寿路街道复兴路28号内科楼2层,,(010)66887329,1,cb6351bfc0f1992c17c8f672
五棵松奥林匹克文化公园-南区,39.915358,116.281558,北京市海淀区复兴路,baf990ee5770024ad8d891f4,,1,baf990ee5770024ad8d891f4
卢沟桥乡史规划馆,39.877506,116.244455,大瓦窑新丰路甲1号,b771f7fd774b1c0dd72ce2e0,,1,b771f7fd774b1c0dd72ce2e0
八宝山东礼堂,39.917025,116.247472,北京市八宝山殡仪馆内,17d3f420ab49842a8e7727bd,,1,17d3f420ab49842a8e7727bd
KSK砖城文化艺术馆,39.890742,116.2427,北京市丰台区吴家村路首钢二通园区西区3号院,648e7ec07683b7ab21022045,"(010)88149825,13381222617",1,648e7ec07683b7ab21022045
八宝山革命公墓烈士堂,39.915341,116.246886,北京市石景山区上庄东街,de57f214dd680285d42ce26f,,1,de57f214dd680285d42ce26f
月季花台,39.921451,116.261447,玉泉路20号附近,6b1332e13da25c344e5547d5,,1,6b1332e13da25c344e5547d5
北京悦音文化艺术馆,39.879531,116.291493,望园路9-8号,4bb2498f8d62872cd5b74ed0,(010)53657706,1,4bb2498f8d62872cd5b74ed0
北京北爱乐文化艺术馆,39.905224,116.249245,北京市石景山区雕塑园南街18号,,,1,04faf6667d5528e14e776ecf
家电论坛线下体验中心,39.881298,116.236829,北京市丰台区丰仪南路1号院10栋1层111号,,,1,7f6a84b98cb38e5ef21937da
夏园,39.906181,116.242027,北京市石景山区鲁谷东街25-12,f8bdcfb1897f4fa9c72ba1dc,,1,f8bdcfb1897f4fa9c72ba1dc
五棵松奥林匹克文化公园-北区,39.921744,116.281725,北京市海淀区西四环中路辅路,789d19eb84a03de7593ac8b5,,1,789d19eb84a03de7593ac8b5
儿童乐园,39.896476,116.294061,北京市丰台区靛厂路,23aadbdfbaf4783be9f8533f,,1,23aadbdfbaf4783be9f8533f
鸟语林,39.921367,116.260465,玉泉路20号附近,7a1520c26118fcf715c905ed,,1,7a1520c26118fcf715c905ed
定慧公园怡趣园,39.926726,116.28952,北京市海淀区西翠路15号,bbc3bf6b644f7f4b43e1928e,,1,bbc3bf6b644f7f4b43e1928e
苹果乐园,39.912292,116.24633,北京市石景山区北京国际雕塑公园西区(八宝山地铁站东),94321401438e78ec7369d3e5,,1,94321401438e78ec7369d3e5
林献堂抗日事迹陈列馆,39.910548,116.243709,鲁谷路台湾街五桂楼会馆北楼,43d1081614e8adfeb45f1e95,,1,43d1081614e8adfeb45f1e95
鲁谷西,39.909209,116.241749,鲁谷路106号,,,1,59a2d4caa5633b257ec87698
绚秋园,39.881021,116.267327,大屯路附近,3f3265bd2d3424443b221c45,,1,3f3265bd2d3424443b221c45
鱼,39.911812,116.254108,北京市石景山区,94f3418941be1751631c67df,,1,94f3418941be1751631c67df
鸿府大厦-会议厅,39.924467,116.282547,五棵松路北甲8号,ab7212f3a265b6f3d0ff2375,(010)66701918,1,ab7212f3a265b6f3d0ff2375
儿童乐园,39.878409,116.287072,西四环南路8-1号附近,,,1,6b976437d72ebbb89ff779d2
崇兴庵,39.908485,116.247165,北京市石景山区远洋山水北区北门,da26adccd9defb114bcc4a54,,1,da26adccd9defb114bcc4a54
北京市社区服务站(三山园社区),39.90837,116.238089,鲁谷路114-1号附近,be2d7ae09f781efe8bfc064f,,1,be2d7ae09f781efe8bfc064f
相爰至深,39.910543,116.257419,北京市石景山区相爰至深(玉泉路地铁站西南),e0b27086b0b73e3a9f09f73b,,1,e0b27086b0b73e3a9f09f73b
竖琴,39.911671,116.243454,北京市石景山区石景山路北京国际雕塑公园西区,6045b020349cbcc1bea240be,,1,6045b020349cbcc1bea240be
高山流水,39.911684,116.254936,北京市石景山区八宝山远望紫禁城(石景山路南),8de59c097180082ed8eced80,,1,8de59c097180082ed8eced80
国家开放大学校园绿化休闲区,39.91423,116.27967,西四环中路辅路45号附近,,,1,370604915447793ef4eafc1e
帕乐菲尔游乐园(鲁谷店),39.908955,116.243057,鲁谷东街远洋山水底商华普超市内,,,1,ff0e3d599f1d9cdb8bfc06e0
风筝,39.911871,116.247193,北京市石景山区鲁谷路北京国际雕塑公园后弈射日,5271265e0373a979c92915f1,,1,5271265e0373a979c92915f1
金坛乐宾楼-会议室,39.930925,116.276158,永定路甲4号B院,e849a1274a9af3b7c909f018,,1,e849a1274a9af3b7c909f018
第一步,39.912475,116.255542,北京市石景山区八宝山玉泉路绣花女(玉泉大厦东南),f2a0880ca1bcc584f50e778b,,1,f2a0880ca1bcc584f50e778b
冰上漫游,39.911419,116.255783,北京市石景山区玉泉路冰上漫游(鲁谷74号院东100米),c59d5e70502c0d64d1f49e2a,,1,c59d5e70502c0d64d1f49e2a
五棵松奥林匹克文化公园-中区,39.919839,116.282064,北京市海淀区玉渊潭南路,4e95f0f40b8650632afc48a6,,1,4e95f0f40b8650632afc48a6
和你在一起,39.912082,116.248287,北京市石景山区八宝山石景山路北京国际雕塑公园,a435d9603ae59f683617dc3a,,1,a435d9603ae59f683617dc3a
君颐东方饭店-会议厅,39.906711,116.2752,太平路27号院,03a293bf23cfb476eb56fa34,(010)88270009,1,03a293bf23cfb476eb56fa34
天元公园-门卫室,39.884194,116.263923,双林东路北200米,494247b7e46184a13fe231a2,,1,494247b7e46184a13fe231a2
龙岛,39.91088,116.246193,北京市石景山区八宝山鲁谷路北京国际雕塑公园龙岛,be9ee51d666060d299005028,,1,be9ee51d666060d299005028
盘的开启,39.911111,116.247063,北京市石景山区鲁谷路北京国际雕塑公园盘的开启,558700eef230b7530ab93a86,,1,558700eef230b7530ab93a86
大平艺术馆,39.898761,116.270113,青塔西路甲7号附近,,(010)68179840,1,f172b25eadbd65a35af6be56
史料陈列馆,39.921663,116.28326,西翠路17-18号附近,ff60aed249d6371e79b55c3c,,1,ff60aed249d6371e79b55c3c
国际雕塑公园水上乐园,39.911737,116.254549,石景山路2号,,,1,25b18615983d058cb6147f66
头,39.911943,116.255687,北京市石景山区八宝山北京国际雕塑公园,1bf057316c3d166aabf7290d,,1,1bf057316c3d166aabf7290d
远望紫禁城,39.911566,116.255146,北京市石景山区鲁谷路鲁谷74号院附近,e2844745b40a8e72c27da2c6,,1,e2844745b40a8e72c27da2c6
惊魂,39.910942,116.243696,北京市石景山区北京国际雕塑公园西区(八宝山地铁站东南),29260089e916d82bad0457e4,,1,29260089e916d82bad0457e4
环湖观景廊,39.921573,116.261439,玉泉路20号附近,878adeb6c40fa5ec283a9f9e,,1,878adeb6c40fa5ec283a9f9e
女孩,39.912322,116.244641,北京市石景山区北京国际雕塑公园西区(八宝山地铁站东南),455477d76ff72b358605bf92,,1,455477d76ff72b358605bf92
对歌,39.912691,116.25579,北京市石景山区对歌(玉泉路地铁站西250米),121a50c9c4a96dcff1193713,,1,121a50c9c4a96dcff1193713
一丝不苟,39.911976,116.25505,石景山路南200米,c350de25f5a05bca0782c21f,,1,c350de25f5a05bca0782c21f
严济慈院长塑像,39.915974,116.256453,北京市石景山区玉泉路19号甲,38aacda49750e2516d20b9df,,1,38aacda49750e2516d20b9df
易,39.910868,116.257655,北京市石景山区城市的上升(玉泉路地铁站西南),71b4beb6fa7a910cd8ecedb7,,1,71b4beb6fa7a910cd8ecedb7
太阳碑,39.911514,116.254083,北京市石景山区八宝山太阳碑(玉泉路地铁站西南),6bdb0902f6f1781dfb2d61e1,,1,6bdb0902f6f1781dfb2d61e1
旋律,39.911484,116.247285,北京市石景山区八宝山鲁谷路北京国际雕塑公园聚散,0b1829ed91f2666ba4da3953,,1,0b1829ed91f2666ba4da3953
宇宙吸引者,39.912388,116.255075,石景山路南150米,f7172a00b9cb2037cc04ef7f,,1,f7172a00b9cb2037cc04ef7f
米芾拜石,39.910419,116.257268,北京市石景山区复兴路米芾拜石(远洋·沁山水北),5434a78f537a99342906ced1,,1,5434a78f537a99342906ced1
京西国际珠宝紫砂茶艺展示中心,39.90945,116.253541,鲁谷路6号,,,1,15ffcf78de3819b1fa0cad20
盛大节曰,39.911467,116.254169,鲁谷路附近,092c9e7cfe255d41b9bd6315,,1,092c9e7cfe255d41b9bd6315
女娲,39.911952,116.255109,北京市石景山区八宝山女娲(玉泉路地铁站西南),8433d279c746b56a3904b1d9,,1,8433d279c746b56a3904b1d9
胡安·安东尼奥·萨马兰奇,39.910576,116.245807,北京市石景山区八宝山鲁谷路北京国际雕塑公园,d0e755647f82956fa2046482,,1,d0e755647f82956fa2046482
水之源,39.922718,116.261898,北京市海淀区玉泉路和金沟河交汇处东南角阳光星期八公园内,921398d12a1e16bddf1e52c9,,1,921398d12a1e16bddf1e52c9
乡情,39.911887,116.246646,北京市石景山区八宝山鲁谷路北京国际雕塑公园乡情,2c46f94f477e89e893114caa,,1,2c46f94f477e89e893114caa
北京市十一学校博物馆(校史馆),39.907265,116.26148,北京市海淀区玉泉路66号,930c89274337d7ec077ce8ac,,1,930c89274337d7ec077ce8ac
八福精品酒店-会议厅,39.908731,116.290081,西翠路62,dcccdee843164a5ff7b91616,(010)88212718,1,dcccdee843164a5ff7b91616
细语,39.911904,116.255804,石景山路附近,2e08f554742408a1f82213c9,,1,2e08f554742408a1f82213c9
爱的使者,39.91361,116.23316,北京市石景山区老山东街爱的使者(石景山万达广场北),e3d56378b3664f21095cb3a8,,1,e3d56378b3664f21095cb3a8
画蛇添足,39.910852,116.24412,北京市石景山区鲁谷东街北京国际雕塑公园画蛇添足,88b40fa6bb3cfae19868b4d0,,1,88b40fa6bb3cfae19868b4d0
大成路九号-会议厅,39.896258,116.275409,北京市丰台区大成路9号3层,9c3f931b6d6b761f9e95de28,(010)88279999,1,9c3f931b6d6b761f9e95de28
行进,39.912067,116.246359,北京市石景山区北京国际雕塑公园西区(北京台湾街东北),d4d0f1b5c4afe11336b06cfb,,1,d4d0f1b5c4afe11336b06cfb
星期六绘本·FAC艺术馆,39.905338,116.249102,北京市石景山区雕塑园南街18号,,17812067929,1,45a50a52185c649296ca074b
印象台湾馆,39.910102,116.242952,北京市石景山区鲁谷东街乙6-6,88f44fac902351c938e4a66a,,1,88f44fac902351c938e4a66a
凤凰来仪,39.9122,116.247873,北京市石景山区北京国际雕塑公园西区(八宝山地铁站东),43a092ef321e8fcf9e95dece,,1,43a092ef321e8fcf9e95dece
艾萨克·牛顿,39.911731,116.243638,北京市石景山区鲁谷东街北京国际雕塑公园西区,0926e264a8897ba2df1e5225,,1,0926e264a8897ba2df1e5225
寓言故事,39.911377,116.254422,北京市石景山区石景山路寓言故事(鲁谷74号院附近),00558a7b1a36b118e7e96570,,1,00558a7b1a36b118e7e96570
柱,39.91275,116.255534,石景山路,d821c6c30c3129d0a204646b,,1,d821c6c30c3129d0a204646b
沉思,39.911954,116.248289,北京市石景山区北京国际雕塑公园西区(八宝山地铁站东),2152bc92fca3fe35a1d23002,,1,2152bc92fca3fe35a1d23002
凯风,39.911768,116.255992,北京市石景山区凯风(玉泉路地铁站西南270米),878949294007c42e75e5b680,,1,878949294007c42e75e5b680
郭沫若雕像,39.914573,116.256453,北京市石景山区玉泉路19号甲,7edb64757ecc1e862b3a9f47,,1,7edb64757ecc1e862b3a9f47
时代方舟,39.91241,116.255676,北京市石景山区八宝山绣花女(玉泉路地铁站西),663f8fa40474f297601c6769,,1,663f8fa40474f297601c6769
力量,39.911779,116.255664,北京市石景山区八宝山力量(玉泉路地铁站西南),475f6afd36bace87b320a821,,1,475f6afd36bace87b320a821
咫尺山河,39.912672,116.255918,北京市石景山区咫尺山河(玉泉路地铁站西),ebe30b4d355af15c79dbd224,,1,ebe30b4d355af15c79dbd224
中国科学院大学礼堂,39.914823,116.257113,玉泉路19号甲,,,1,867ec943f842ad812d473397
后弈射日,39.911806,116.247001,北京市石景山区北京国际雕塑公园西区(北京台湾街东),a9df6a36dbea4e45d618b770,,1,a9df6a36dbea4e45d618b770
大楼会议中心,39.923018,116.266993,金沟河路88号大楼会议中心,,,1,bcbe6baeec81c70bbbbd63e3
威廉·汤马斯·莫顿,39.910713,116.245638,北京市石景山区八宝山鲁谷东街北京国际雕塑公园,d305878b3330d382167643cb,,1,d305878b3330d382167643cb
城市魅影,39.912337,116.25568,石景山路附近,c22a1c464b32d58abda2403c,,1,c22a1c464b32d58abda2403c
临风,39.912626,116.255235,石景山路南100米,6fd1092d6c097806250bd08e,,1,6fd1092d6c097806250bd08e
杨·阿姆斯·考门斯基,39.910656,116.245714,北京市石景山区八宝山鲁谷路北京国际雕塑公园,3d5e72e7a586265188b988c9,,1,3d5e72e7a586265188b988c9
融合,39.911565,116.255935,北京市石景山区融合(玉泉路地铁站西南290米),dd909ac4500c39906d20b928,,1,dd909ac4500c39906d20b928
竹鸡,39.911311,116.254495,北京市石景山区八宝山竹鸡(玉泉路地铁站西南),e1e56ffd128ba5189a00504c,,1,e1e56ffd128ba5189a00504c
思想,39.910992,116.257815,北京市石景山区思想(玉泉路地铁站西南260米),3cfa16179ce283c98b2fb57a,,1,3cfa16179ce283c98b2fb57a
亚历山大·格拉汉姆·贝尔,39.91172,116.243617,北京市石景山区石景山路北京国际雕塑公园西区,91a882b41205a56896f08c71,,1,91a882b41205a56896f08c71
山音,39.911068,116.245298,北京市石景山区八宝山鲁谷东街北京国际雕塑公园,37a0a13bad3e64bc5810933f,,1,37a0a13bad3e64bc5810933f
如意,39.912196,116.24828,北京市石景山区北京国际雕塑公园西区(八宝山地铁站东),068a95aaa5493a80cac3db88,,1,068a95aaa5493a80cac3db88
和平太空舞,39.911507,116.253882,北京市石景山区和平太空舞(玉泉路地铁站西南),93531e617cc69c04acb22ac6,,1,93531e617cc69c04acb22ac6
童年的记忆,39.912172,116.255047,北京市石景山区石景山路2号北京国际雕塑公园内,1f23a7f8c1b509f8283a9fa8,,1,1f23a7f8c1b509f8283a9fa8
西坪八骏,39.911054,116.246657,北京市石景山区北京国际雕塑公园西区(八宝山地铁站东南),c23a938e9ccc1a2214b54b56,,1,c23a938e9ccc1a2214b54b56
西格蒙特·弗洛伊德,39.910709,116.245678,北京市石景山区八宝山鲁谷路北京国际雕塑公园,20604515474e86e12fb17eed,,1,20604515474e86e12fb17eed
皮埃尔·德·顾拜旦,39.910577,116.245797,北京市石景山区八宝山鲁谷路北京国际雕塑公园,0e68752833ba903581a12e84,,1,0e68752833ba903581a12e84
信天游,39.911979,116.245824,北京市石景山区上庄东街北京国际雕塑公园信天游,7674252c319bc5cd46e274f2,,1,7674252c319bc5cd46e274f2
小屯空竹活动站,39.882978,116.266966,大屯路附近,b7786ab1780f0ad231870ad6,,1,b7786ab1780f0ad231870ad6
天利酒店-会议厅,39.896074,116.276077,大成路7号,bfc32e656e7cdc5132870a5f,(010)68693388,1,bfc32e656e7cdc5132870a5f
涌影三台,39.926532,116.293899,北京市海淀区定慧东街,,,1,1a3992f223de24633362125d
山越相册,39.926737,116.282866,五棵松路40号一层新厅32号,,,1,c85460e0f7db7bbe25d2bb11
合富藏品艺术馆,39.923728,116.286169,北京市海淀区西翠路17号院-2,a866a1ec2f66bacb8a36eefc,,1,a866a1ec2f66bacb8a36eefc
跳舞的哲学家,39.912693,116.255311,石景山路南100米,515346dd69a309c46fa3cce8,,1,515346dd69a309c46fa3cce8
古都雄风,39.91127,116.254162,北京市石景山区八宝山鲁谷路鲁谷74号院附近,481b1b0893fd88fd4307c18a,,1,481b1b0893fd88fd4307c18a
映像自我,39.910593,116.257742,北京市石景山区城市的上升(北京市十一学校西北),e3c9adc8aceecdb9d0ff2305,,1,e3c9adc8aceecdb9d0ff2305
欧勒,39.911715,116.243707,北京市石景山区上庄东街北京国际雕塑公园西区,eba910b208e19c884e2fdf26,,1,eba910b208e19c884e2fdf26
红妆,39.912776,116.255917,北京市石景山区勒达(玉泉路地铁站西),88fdaa41cb0d6501f9dc8583,,1,88fdaa41cb0d6501f9dc8583
受伤的小熊,39.912221,116.246396,上庄东街与石景山路交叉口南150米,8b38afe180d91fb52806ce8f,,1,8b38afe180d91fb52806ce8f
摇滚青年,39.911877,116.248109,北京市石景山区北京国际雕塑公园西区(八宝山地铁站东),4cfce00249b2c8567ec87636,,1,4cfce00249b2c8567ec87636
冬园,39.904521,116.238667,永乐东街附近,,,1,53fcfffbd7a18b459a68b4b2
谢尔盖·布勃卡,39.910991,116.244352,北京市石景山区北京国际雕塑公园西区(八宝山地铁站东南),1b05ed55f4b120a205fef534,,1,1b05ed55f4b120a205fef534
雄峙一牛,39.910775,116.245054,北京市石景山区北京国际雕塑公园西区(八宝山地铁站东南),0c21baee7ef14c43bda24014,,1,0c21baee7ef14c43bda24014
约翰·孟德尔,39.910752,116.245962,北京市石景山区北京国际雕塑公园西区(北京台湾街东南),ed08a523b60e379dc03644ec,,1,ed08a523b60e379dc03644ec
人生美好,39.910993,116.246293,北京市石景山区石景山路北京国际雕塑公园龙岛,86d31d9ac6dd5a4ba9059dc2,,1,86d31d9ac6dd5a4ba9059dc2
查理·罗伯特·达尔文,39.910665,116.245865,北京市石景山区八宝山鲁谷东街北京国际雕塑公园,2fa6f4d2a21d796f25d2bba4,,1,2fa6f4d2a21d796f25d2bba4
核,39.91164,116.254972,北京市石景山区八宝山高山流水(玉泉路地铁站西南),7e92b5fe68ee312e9fec2b4c,,1,7e92b5fe68ee312e9fec2b4c
詹姆斯·克拉克·麦克斯韦,39.91172,116.243617,北京市石景山区石景山路北京国际雕塑公园西区,900f722b5ad7647fb9df8fb0,,1,900f722b5ad7647fb9df8fb0
伊格纳齐·杨·帕德莱夫斯基,39.911883,116.246197,上庄东街南口南200米,7a73006e6fec55ec9868b46c,,1,7a73006e6fec55ec9868b46c
理智,39.912279,116.24341,石景山路与鲁谷东街交叉口东南150米,aae6605a8c97c109aecb6623,,1,aae6605a8c97c109aecb6623
春曲,39.910986,116.246105,北京市石景山区北京国际雕塑公园西区(八宝山地铁站东南),a19ec1f3fec37f62c7f50d1b,,1,a19ec1f3fec37f62c7f50d1b
绣花女,39.91249,116.255703,北京市石景山区玉泉路绣花女(玉泉大厦东南150米),7da06a18330e4500c41b75ba,,1,7da06a18330e4500c41b75ba
奥古斯特·罗丹,39.912053,116.245631,北京市石景山区北京国际雕塑公园西区(八宝山地铁站东南),3c704ae13e4e4876db1318cf,,1,3c704ae13e4e4876db1318cf
天才之手,39.911864,116.246326,上庄东街南口南150米,0a6f73109ef3eab771455bd5,,1,0a6f73109ef3eab771455bd5
路德维希·凡·贝多芬,39.911855,116.245989,北京市石景山区八宝山北京国际雕塑公园,f0246150ebc0296b40afe6da,,1,f0246150ebc0296b40afe6da
聚散,39.911385,116.247127,北京市石景山区八宝山鲁谷路北京国际雕塑公园聚散,c261aa053edd3a82f8f0cb52,,1,c261aa053edd3a82f8f0cb52
母子情深,39.911204,116.246062,北京市石景山区北京国际雕塑公园西区(八宝山地铁站东南),4f67c4bcd6b182b01ef74da7,,1,4f67c4bcd6b182b01ef74da7
中国印象有机谷食品安全成果展,39.905081,116.237248,北京市石景山区鲁谷大街28东60米,,,1,a0a08b5ff37d3c443904b158
查理·卓别林,39.911911,116.245924,北京市石景山区北京国际雕塑公园西区(八宝山地铁站东南),3d1fbe86bd0b1096cae33c79,,1,3d1fbe86bd0b1096cae33c79
路易斯·巴斯德,39.910692,116.245928,北京市石景山区北京国际雕塑公园西区(北京台湾街东南),c255144c9cf48ebacf06a44b,,1,c255144c9cf48ebacf06a44b
妃子笑,39.912508,116.255135,石景山路南100米,5e64aaa4028b20b6deee8bab,,1,5e64aaa4028b20b6deee8bab
弗伦兹·李斯特,39.911864,116.246326,北京市石景山区北京国际雕塑公园西区(北京台湾街东北),f236d640c61249a0f02d83b2,,1,f236d640c61249a0f02d83b2
列夫· 托尔斯泰,39.911963,116.245654,北京市石景山区北京国际雕塑公园西区(北京台湾街东北),26fc243b1eba2b93430245fe,,1,26fc243b1eba2b93430245fe
共赏古迹,39.912117,116.243376,北京市石景山区北京国际雕塑公园西区(八宝山地铁站东南),e2105a00e17b01ca3de23171,,1,e2105a00e17b01ca3de23171
阿尔伯特·爱因斯坦,39.910688,116.245697,北京市石景山区八宝山鲁谷路北京国际雕塑公园,c41749f41457efbc8505bfd8,,1,c41749f41457efbc8505bfd8
月亮镜,39.911941,116.254199,北京市石景山区八宝山玉泉路月亮镜(鲁谷74号院附近),75411284dee25fc4118824f9,,1,75411284dee25fc4118824f9
生机,39.911421,116.255903,北京市石景山区玉泉路冰上漫游(鲁谷74号院东),8bba0e5efeadf3644afd3f08,,1,8bba0e5efeadf3644afd3f08
威尔姆·康拉德·伦琴,39.911724,116.243718,北京市石景山区上庄东街北京国际雕塑公园西区,f43cd57856bdca240f0e6bf9,,1,f43cd57856bdca240f0e6bf9
中国新兴建设开发总公司-会议厅,39.904527,116.271913,北京市海淀区太平路44号院,7778dd4c35cd3e5382288a9c,,1,7778dd4c35cd3e5382288a9c
年轻女子,39.911332,116.254017,北京市石景山区八宝山玉泉路鲁谷74号院旁,0da97b5934c28c4d471a321a,,1,0da97b5934c28c4d471a321a
汉字史,39.912199,116.247114,北京市石景山区北京国际雕塑公园西区(北京台湾街东北),a80b2fd1dcd92c11ac31e538,,1,a80b2fd1dcd92c11ac31e538
吉祥物,39.911664,116.254015,北京市石景山区八宝山吉祥物(玉泉路地铁站西南),3289ebed26f1682f78f796be,,1,3289ebed26f1682f78f796be
城市穿梭,39.912048,116.255057,北京市石景山区八宝山远望紫禁城(清华大学玉泉医院东南),a832eee1297a39016c20b914,,1,a832eee1297a39016c20b914
亨利克·易卜生,39.911881,116.245797,北京市石景山区北京国际雕塑公园西区(八宝山地铁站东南),fd7f46cc1abbafc83913fd84,,1,fd7f46cc1abbafc83913fd84
大合奏,39.912365,116.248017,北京市石景山区北京国际雕塑公园西区(八宝山地铁站东),b7d81f2235008bbc8505bf1e,,1,b7d81f2235008bbc8505bf1e
合而为一,39.911968,116.253941,石景山路南150米,80a222eb34793a38d5b74ea5,,1,80a222eb34793a38d5b74ea5
中企电联会议服务中心,39.895217,116.257772,吴家村路御翰苑商务写字楼8601,f2ac702fca34e788a10464ef,,1,f2ac702fca34e788a10464ef
玉渊潭公园,39.922467,116.326526,北京市海淀区西三环中路10号,3810c87916332c8b9d09f7b2,(010)88653800,1,3810c87916332c8b9d09f7b2
首都博物馆,39.912174,116.348822,北京市西城区复兴门外大街16号(近白云路),a5097bfa3a635763f03cba06,(010)63393339,1,a5097bfa3a635763f03cba06
中央电视塔,39.925278,116.313408,北京市海淀区西三环中路11号,2949a58c58499370a1d230e5,(010)68450715,1,2949a58c58499370a1d230e5
莲花池公园,39.898299,116.319518,北京市丰台区西三环南路38号,edbd1d7e2b8a8760471a3244,(010)63972892,1,edbd1d7e2b8a8760471a3244
太平洋海底世界博览馆,39.924905,116.312857,北京市海淀区西三环中路11号中央电视塔下面,e0845493c50389c921f017f6,(010)68461197,1,e0845493c50389c921f017f6
中国人民革命军事博物馆,39.914976,116.330207,北京市海淀区复兴路9号,5ce2637d2824d051af31e5b6,(010)66866244,1,5ce2637d2824d051af31e5b6
白云观,39.906535,116.350216,北京市西城区白云观街9号,5c2dc21d178e6e046fc02c75,,1,5c2dc21d178e6e046fc02c75
月坛公园,39.922132,116.358874,北京市西城区月坛北街6号,06881d62cb48756c7069d3f4,(010)68020940,1,06881d62cb48756c7069d3f4
中华世纪坛,39.916466,116.327888,北京市海淀区复兴路甲9号,ca0a5de32ff30868a7c7566c,"(010)84187900,(010)84186161",1,ca0a5de32ff30868a7c7566c
中华世纪坛世界艺术馆,39.917092,116.32832,复兴路甲9号(近军事博物馆之间),fa835ce2bc5333b6e912e4b6,,1,fa835ce2bc5333b6e912e4b6
金中都公园,39.877073,116.356383,北京市西城区广安门南街64号,99df5229edbb223d2d4733e1,,1,99df5229edbb223d2d4733e1
中国消防博物馆,39.877026,116.35875,西城区广安门南街70号(近中加大厦),0731afb08f2f9e262906ce85,(010)66267929,1,0731afb08f2f9e262906ce85
万丰公园,39.889524,116.29842,万丰路莲怡园小区西侧,dc0f0adc14389b22f82213c7,,1,dc0f0adc14389b22f82213c7
会城门公园,39.906691,116.339883,北京市海淀区双贝子坟路1号,5c56edd6e7cfc95aa0d230b6,(010)63467342,1,5c56edd6e7cfc95aa0d230b6
南礼士路公园,39.916486,116.361022,南礼士路58号,691305235ddf4a08725e8006,(010)62023200,1,691305235ddf4a08725e8006
玉渊潭公园八一湖,39.920239,116.324955,玉渊潭南路11号,a2a8087faa7a308fbe4842c0,,1,a2a8087faa7a308fbe4842c0
莲花河城市休闲公园,39.898118,116.337038,广源小区西区北门附件,9ae53fe3336db5b3a8175a8a,,1,9ae53fe3336db5b3a8175a8a
京彩瓷博物馆,39.888182,116.354815,广安门外南滨河路25号(近金工宏洋大厦一层),04341170c45e3b0ac6effb9a,(010)51920138,1,04341170c45e3b0ac6effb9a
樱花湖,39.924179,116.323691,北京市海淀区玉渊潭公园玉渊潭,276892793618a34f6268583e,,1,276892793618a34f6268583e
西局玉璞园,39.878351,116.310127,北京市丰台区西局后街8号,2a002d97b05b8e982bb97c11,,1,2a002d97b05b8e982bb97c11
白云叠翠公园,39.908243,116.352245,真武庙路四条8号,ede5f2b40296c34411882478,,1,ede5f2b40296c34411882478
滨河公园,39.898771,116.355983,广安门北街甲1号,d0b8923f59efb9e2b5f42ff1,(010)63464481,1,d0b8923f59efb9e2b5f42ff1
翠微烟雨公园,39.922641,116.307533,翠微路甲2号旁,ce02fbfce7b02e3708ccdddf,,1,ce02fbfce7b02e3708ccdddf
樱花园,39.924437,116.32546,北京市海淀区西三环中路10号玉渊潭公园内,87a0ccfffce594f77169d3a9,(010)88653775,1,585e995e41f1cb539122e0fc
北京国际展览中心,39.923555,116.352289,北京市西城区月坛北街26号,bc748363ba78a08ff03cbab6,(010)58565888,1,bc748363ba78a08ff03cbab6
中国少年英雄纪念碑,39.920756,116.324535,西三环中路10号玉渊潭公园附近,954770ee5f1a474593114c5b,(010)88653775,1,954770ee5f1a474593114c5b
中塔公园,39.926635,116.314592,北京市海淀区西三环中路,32278f50f4e6078b471a3282,,1,32278f50f4e6078b471a3282
国际会展中心,39.904682,116.328805,北京市海淀区羊坊店路18号光耀东方广场F1,,,1,5dbdaabdbcb61d55373a7191
莲花池公园-嘉年华游乐场,39.899489,116.324867,广外莲花池48号莲花池公园东门北,541d67d649697057bda240a7,,1,541d67d649697057bda240a7
人口文化园,39.892756,116.32856,北京市丰台区马连道路太平桥东里,940a819e6f6c35ca601c6787,,1,940a819e6f6c35ca601c6787
玉渊亭,39.921068,116.326807,北京市海淀区玉渊潭公园内,333a4b39e4c7d14aa1acc45b,(010)88653800,1,333a4b39e4c7d14aa1acc45b
儿童游乐场,39.92059,116.329403,北京市海淀区西三环中路10号玉渊潭公园内,1a41396423ff6bd8c9fa5fbc,(010)88653800,1,1a41396423ff6bd8c9fa5fbc
首都博物馆-西区,39.912234,116.348161,复兴门外大街16号首都博物馆内,93ac80f185199133cafa5f45,,1,93ac80f185199133cafa5f45
北京营城建都滨水绿道,39.888953,116.356558,广安门南街与枣林前街交叉口西南50米,93200b622a48212ad0ff2347,,1,93200b622a48212ad0ff2347
三里河清真寺,39.920361,116.347185,三里河一区丙52楼-3,ea4a3dc9835b762e4e55473e,(010)68526720,1,ea4a3dc9835b762e4e55473e
世界艺术中心,39.917258,116.327824,复兴门路9号,f2d3e1d242c3ff8f1811d571,,1,f2d3e1d242c3ff8f1811d571
新优植物示范园,39.92188,116.341729,三里河路49号附近,4bd0b3149d840f35c1f1cfba,,1,4bd0b3149d840f35c1f1cfba
圆广寺,39.927932,116.355744,北京市西城区阜外大街7号楼-1号,c26b71359e0d0d0022f0172f,,1,c26b71359e0d0d0022f0172f
玉树临风,39.925831,116.321132,北京市海淀区玉渊潭公园内,15bffc01e1f5dc1f9f09f71e,(010)88653800,1,15bffc01e1f5dc1f9f09f71e
宝应寺,39.893808,116.361519,西城区登莱胡同29号,a5ef680fb3f42cd7b9df8fee,,1,a5ef680fb3f42cd7b9df8fee
怡红院,39.876389,116.361646,北京市西城区南菜园街12号北京大观园内,7a9ecf596586ac7431f71d9d,,1,7a9ecf596586ac7431f71d9d
在水一方,39.924595,116.321157,北京市海淀区西三环中路10号玉渊潭公园内,b2c86401c76c7f68f7231098,,1,b2c86401c76c7f68f7231098
蓟城纪念柱,39.897547,116.355836,广安门北街10号,045918a5028eb9f4eae582cc,,1,045918a5028eb9f4eae582cc
辽燕角楼故址,39.89491,116.360064,北京市西城区南线阁街港中旅大厦(广安体育馆北),5446b0a56bac748bcafa5fd9,,1,5446b0a56bac748bcafa5fd9
柳桥映月,39.923934,116.323943,北京市海淀区玉渊潭南路玉渊潭公园(东一门)附近,17825793ac0c11ac84154144,,1,17825793ac0c11ac84154144
真武庙三条,39.909674,116.355699,真武庙六里与真武庙路四条交叉口北100米,,,1,e6130960e7f7291496ca070f
小天鹅公园,39.919185,116.315688,北京市海淀区水利医院附近,befdb2921c9813f886154185,,1,befdb2921c9813f886154185
殊胜和善古典艺术馆,39.919843,116.343146,北京市西城区月坛南街南沙沟18-1号,88c51d85062dfd538505bf3e,(010)68585936,1,88c51d85062dfd538505bf3e
西湖,39.922091,116.322028,北京市海淀区西三环中路10号玉渊潭公园内,,,1,de25a46b588255c645e27409
中央电视塔-电子票兑换处,39.925686,116.313807,北京市海淀区西三环中路11号中央电视塔内,,,1,f21c3fddd509ab6fafee7a1f
舍利塔,39.900651,116.352563,北京市西城区西二环天宁寺(天宁寺东里附近),e5c165e43973b02ed4851f5b,,1,e5c165e43973b02ed4851f5b
儿童游乐场,39.924574,116.318848,北京市海淀区西三环中路10号玉渊潭公园内,,,1,63acec6db4857964e01103cd
裕龙国际酒店-会议厅,39.928293,116.304675,阜成路40号,5d77cd1140a7afade5073824,"(010)68415588,(010)68713068",1,5d77cd1140a7afade5073824
蔺圃园,39.882104,116.338203,北京市西城区红莲南路,,,1,9eed5417bf47db6213882484
古井酒文化博物馆,39.879737,116.354999,南滨河路87号,0b69c8983658b2ac08f5eb64,,1,0b69c8983658b2ac08f5eb64
金中都太液池遗址,39.884938,116.353156,北京市西城区广安门外南街77号南60米,,,1,2946cb3c411df411a1a93460
北京惠通博文书画院,39.882243,116.354782,北京市西城区白纸坊鸭子桥路南里5号楼,25c40ded1d7a3cb9b320a8ec,(010)63388391,1,25c40ded1d7a3cb9b320a8ec
广安门,39.888294,116.349811,北京市西城区广外车站西街15号院附近,,,1,a5c674cecac97b33dc1e5260
唐拉雅秀酒店-会议厅,39.913623,116.349631,复兴门外大街19号,a90c822faf22786dddee8b45,"(010)58576677,(010)58576688",1,a90c822faf22786dddee8b45
合璧兴陶瓷艺术馆,39.921841,116.35122,三里河东路三里河一区5号院8号楼底商二层,a1418eb404d27c66ebe58245,(010)68511020,1,a1418eb404d27c66ebe58245
金宫殿故址,39.886515,116.355852,北京市西城区广安门金宫殿故址(白纸坊桥北),8b59c948c5f78ba705fef506,,1,8b59c948c5f78ba705fef506
文昌殿,39.907127,116.349927,北京市西城区白云路白云观内,6ee01020c36ae0ef52e5c57f,,1,6ee01020c36ae0ef52e5c57f
光耀东方广场-国贸展厅,39.904383,116.328753,北京市海淀区羊坊店路光耀东方,d554e8f298eaaafb1ef74d90,,1,d554e8f298eaaafb1ef74d90
宣武区人口文化园,39.89807,116.337963,西城区广安门外大街377号(广莲路),59f0c67941f96d56da2f2810,,1,59f0c67941f96d56da2f2810
藏一楼国石珍宝馆,39.877947,116.302502,北京市丰台区万丰路528号,459ce8586cb0361be215f939,,1,459ce8586cb0361be215f939
中华世纪钟,39.917564,116.329357,军博西路与玉渊潭南路交叉口东北150米,a3ac35112ff794d8c7f50dd0,,1,a3ac35112ff794d8c7f50dd0
财神殿,39.906222,116.350233,北京市西城区白云观,d82d669746b036a6d518b741,,1,d82d669746b036a6d518b741
北京银杏树林,39.928409,116.339031,北京市海淀区阜成路2号(近钓鱼台国宾馆东门),e2c1d14cff7768ceb9df8fd6,,1,e2c1d14cff7768ceb9df8fd6
