name,lat,lng,adderss,street_id,telephone,detail,uid
大众健身房馆(良乡体育中心店),39.748309,116.144284,北京市房山区良乡体育中心D栋,,(010)56249033,1,342357ad2cc6faa57069d3d1
贺然国际健身学院,39.727283,116.129783,北京市房山区良乡苏庄大街佳世苑底商北区2-202号,62ebd71d057dd8bfb13c8151,(010)60337271,1,62ebd71d057dd8bfb13c8151
龙莉健身私教工作室,39.742437,116.132517,北京市房山区良乡北潞园健身广场北侧社区服务综合楼2005,,13811989856,1,7b86d54b25338cef9ff7794e
力练者健身馆,39.736668,116.131876,北京市房山区拱辰街道良乡西路30号力练者健身馆,,,1,ef2893915d39ed972ce67b18
北京动岚健身学院(学员报名处),39.742797,116.154862,房山区良乡多宝路德宝温泉会议中心二楼动岚健身(电业中学格林豪泰),a11a237472b24e70bb17e71b,,1,a11a237472b24e70bb17e71b
动岚健身总部,39.727242,116.138433,国槐街6号,,4000065299,1,0ebc6463008aee35b23c81c9
竞酷健身(房山店),39.719194,116.131673,北京市房山区良园二路超级蜂巢正对面,1ccdad2290ac5d9d3fe23187,,1,1ccdad2290ac5d9d3fe23187
阿瑞斯健身,39.724609,116.155363,北京市房山区良乡瑞雪春堂(良官路西),f152e15bc3fd295612882491,,1,f152e15bc3fd295612882491
昊天游泳健身会所,39.750158,116.146698,北京市房山区良乡拱辰北大街1号昊天假日酒店后院1层,4a0f71537e2d854b9868b489,18612179939,1,4a0f71537e2d854b9868b489
星月游泳健身,39.741946,116.147749,北京市房山区拱辰大街47号,,,1,84a8ac4acd83eb4e901fc929
玖晟捷健身空间(良乡店),39.736064,116.125211,太平庄综合市场二楼,,13910531154,1,3e77b909845b92d7e8e5825f
领动健身学院,39.742419,116.165606,良乡伟业家园北里,,,1,24d801ba30230bfad8eced90
普拉提运动健身会馆,39.727283,116.129783,良乡苏庄佳世苑底商乐家乐购超市二楼,b7a34cf92dba0e543517dcde,,1,b7a34cf92dba0e543517dcde
7号球汇平价大药房,39.739256,116.130643,北京市房山区良乡太平庄东里1号楼,879d4780688add9a7c29bdcd,"13910514575,13581895653",1,879d4780688add9a7c29bdcd
北京就爱舞舞蹈工作室,39.741227,116.146942,良乡医院对面朝晖大厦小博士幼儿园院内二楼,6c62f1968edc69c8c4effb85,13401030453,1,6c62f1968edc69c8c4effb85
北京绿色时代健身服务有限公司北京市房山区分公司,39.739153,116.142715,西潞北大街59号,52cd5a0b695d3e3e93114c4f,,1,52cd5a0b695d3e3e93114c4f
奥力新都会健身俱乐部,39.761305,116.169062,北京市房山区长阳镇绿地启航国际1号院5号楼b2层,37c9a1038cb9e6030a5cb37c,(010)89359088,1,37c9a1038cb9e6030a5cb37c
乐刻健身(启航国际店),39.748617,116.187478,北京市房山区辰光东路16号院16号楼103室,,,1,34d441ddc75d67e4aeb22a87
纯硕健身俱乐部,39.735489,116.188155,卓秀北街与良乡东路交叉口绿地诺亚方舟南区6号楼,,18210247686,1,a768e2ac9e37312e43ab9af6
良子健身(房山二店),39.75897,116.220409,北京市房山区广阳新路5号院中粮万科VMO祥云墅南门11号楼105室(半岛广场),2a7dc051ad6b7ab66c3e1b9b,(010)56335707,1,2a7dc051ad6b7ab66c3e1b9b
健身时刻Moments,39.739403,116.187376,北京市房山区卓秀北街8号院绿地诺亚方舟北区2号楼906室,,,1,2a5a17020454e308cae33ca4
GM健身工作室,39.756661,116.205073,北京市房山区长阳镇张家场周转房(长阳路南),,13780344789,1,44ef11cfb0ea865d1b94c6cd
君力游泳健身(金地朗悦店),39.739656,116.198819,阜盛东街金地朗悦二期57号院(12中学对过),,,1,0ea43486c1ea86e39cf779bf
武泰搏击健身,39.758935,116.215579,北京市房山区祥云街10院6号楼,,18511462369,1,1943960ccd8b80a83a04b132
大球馆,39.748117,116.168599,北京市房山区梅花街7号,c2468e92980f0ae43913fd81,,1,c2468e92980f0ae43913fd81
钛渡健身漫铂汇,39.739424,116.335374,北京市大兴区西大街三中西巷天锦苑商业街17号院底商,264afa7eec6da53a88fc06dc,(010)57241236,1,264afa7eec6da53a88fc06dc
兴核游泳健身,39.749761,116.347672,北京市大兴区清源路甲1号(兴核宾馆院内),,,1,1dac717655bb1c9c220262dd
元素力量健身俱乐部,39.758664,116.32406,枣园路大鸭梨5楼,,,1,069cfd3a958fa34ff33cba04
帝都游泳健身(枣园店),39.759677,116.34075,北京市大兴区枣园路4-25号,,(010)87713996,1,64ac857e1e22f0ddfa42b214
魔蝎韵动健身,39.756179,116.338255,丽园路与兴华大街交叉口中海国际港9号楼805室,,,1,80a967a8736269f37069d39e
星普健身工作室,39.752916,116.31902,北京市大兴区丽园路30号院24号楼1层104,,17600983636,1,f4ef81fe570110bc260bd0ee
帝都健身游泳中心(物美店),39.732535,116.337985,永华南里1号楼物美大卖场B1层,,,1,12081669388c1ab7260bd03f
唯米健身,39.754108,116.338054,北京市大兴区枣园波普公社三号楼3楼,beede2afbb0868c71ce999bd,15611028750,1,beede2afbb0868c71ce999bd
领尚健身(枣园店),39.759388,116.339485,北京市大兴区兴丰大街3段183号附近,,"13552611223,13581668743",1,878698c82979f7b528b97cb9
体育用品健身器材,39.744308,116.345737,兴丰大街67号,,"(010)69242959,15210056429",1,6f89f658eaab06591e580095
兴宾馆健身中心(生活天下),39.733284,116.346747,兴丰大街三段118号大兴宾馆康体中心2层,5841cb2f44f8ea6b84154159,,1,5841cb2f44f8ea6b84154159
源于汇聚健身俱乐部,39.742514,116.361404,团河路48号院盛嘉华苑2号楼底商,,(010)61296788,1,e9892e87e121c0112cb17e68
帝都健身,39.755237,116.339689,兴华路兴华大街交叉口物美超市内,a9682a0464d4061a6849f389,,1,a9682a0464d4061a6849f389
北京妙爽居健身中心,39.755655,116.33581,北京市大兴区枣园路丽园东里小区丽园东里北门,492fc42de83595ef23f01766,,1,492fc42de83595ef23f01766
觅跑自助健身,39.733616,116.337355,北京市大兴区永华路1-1附近,,,1,73fa202eac379d77ce04efe9
梵悦心灵瑜伽(大兴店),39.732172,116.335167,北京市大兴区艺苑桐城底商13-1,cee4cb1ede6fb57f8936eea7,18610220817,1,cee4cb1ede6fb57f8936eea7
大兴宾馆-游泳健身中心,39.733269,116.3464,北京市大兴区黄村兴丰大街118号大兴宾馆后院,e736ebfc3cf7309e931fc9ce,(010)57170857,1,e736ebfc3cf7309e931fc9ce
维特瑞健身会所,39.816715,116.165904,北京市丰台区云岗西路5-2,,,1,2a34814eeaa8ccaf9703191f
北京南宫温泉度假酒店-康体健身部,39.811467,116.160428,福宫路39号北京南宫温泉度假酒店B1层,ba3e8a5670dc85b10f0a705f,,1,ba3e8a5670dc85b10f0a705f
新都汇健身,39.762245,116.166322,北京市房山区良乡绿地启航社(绿地缤纷城西南),733976dc3273ead3d12dd660,,1,733976dc3273ead3d12dd660
硬糖国际健身会所(长阳店),39.769111,116.219996,北京市房山区长政南街1号院1号楼京投港·长阳6层,002f8622dc0df81fa8f729de,(010)50875388,1,002f8622dc0df81fa8f729de
马力健身房瑜伽馆(云岗物美店),39.8163,116.168751,北京市丰台区云岗南区东里63号楼,f39733725e1f359ea10464ec,,1,f39733725e1f359ea10464ec
Blue Sky健身俱乐部,39.775959,116.177135,北京市房山区长阳镇昊天北大街48号金桥国际酒店公寓(房山店)附近,,,1,cb5292fdde16bed084154134
自然美健身学院,39.774746,116.178614,房山区长阳镇昊天大街加州水郡东区1204号,,4001698098,1,57475f12f285facf17948ef3
shape perfect私人健身工作室(长阳店),39.769255,116.220977,北京市房山区长阳地铁站首开熙悦双子座北楼2号楼1810号,3ca9f22badc4991e2a02e18e,,1,3ca9f22badc4991e2a02e18e
优你瑜伽Hey you yoga,39.773986,116.172298,北京市房山区加州水郡西区商业广场3楼(昊天大街),a3e966846ba5c379882fb5a9,18618287398,1,a3e966846ba5c379882fb5a9
君力健身(加州会所)动态馆,39.775124,116.172723,北京市房山区长阳镇加州水郡商业广场负一层,9a5c66fc37a8f5912ce67b20,,1,9a5c66fc37a8f5912ce67b20
原始部落健身工作室,39.773008,116.180939,长阳镇加州水郡东区61号楼一单元七层702室,5a01ebb5acec9e19276e9813,15611435128,1,5a01ebb5acec9e19276e9813
波士顿国际健身汇,39.768393,116.22226,长政北街首开熙悦山7号楼负一楼,2864bb4c8359cbaf3310af2c,,1,2864bb4c8359cbaf3310af2c
A波士顿健身汇(首开熙悦熹园店),39.774458,116.222027,京深路首开熙悦山熹园3号院7号楼底商1号,,,1,ab62a28d80bcf1a1931fc9a4
94号健身工作室,39.773891,116.179613,长阳镇加州水郡东区别墅94-4号,,,1,da4ead2cf63c0ed95d17c3c5
尚俯私人健身工作室(长阳店),39.763018,116.213703,北京市房山区长泽南街祥云街6号院12号楼102,c6f90b0a61373420dd1e5261,(010)56619931,1,c6f90b0a61373420dd1e5261
浅瑜伽馆总店(长阳加州水郡店),39.771897,116.179217,北京市房山区长阳镇317省道加州水郡东区水郡东区50号楼504室,82cbf307fa361c486ca3cc44,"(010)80392616,18612178789,18613836549",1,82cbf307fa361c486ca3cc44
中体之星游泳健身中心,39.795612,116.293044,芦花路1号院7号楼1层,6df1dbfbb3ffd5875abbbc49,(010)61226619,1,6df1dbfbb3ffd5875abbbc49
外研社国际会议中心-健身房,39.762214,116.27816,黄村镇芦城工业开发区外研社国际会议中心,3c8293aa2f8194829f09f7c6,,1,3c8293aa2f8194829f09f7c6
美格菲健身中心(绿地缤纷城店),39.769788,116.341314,北京市大兴区绿地缤纷城1号楼5楼,477e9d2c818a0d5da80dd879,(010)57297090,1,477e9d2c818a0d5da80dd879
锐健身(领海店),39.780444,116.32848,北京市大兴区兴业大街1号香海园56号楼,563262c280261b45a5da39e4,(010)60239205,1,563262c280261b45a5da39e4
乐刻健身,39.804857,116.338671,北京市大兴区京良路10号乐家购物中心F2,,,1,e4f76e904ec8be57077ce8d3
大兴新城北区全民健身中心,39.774877,116.334748,北京市大兴区兴和街与双高路交叉口东南100米,a3150255da3d5c65c91b9526,,1,a3150255da3d5c65c91b9526
新菲力健身(西红门欣荣北大街店),39.797558,116.349753,北京市大兴区欣荣北大街45号院2号楼2,b152fdff99d0986389fc06e3,(010)60268809,1,b152fdff99d0986389fc06e3
博康健身会所(大兴区-金地仰山店),39.771054,116.319653,"乐园路22号院金地仰山(兴盛街,康盛园小区北门正对面)",efe74355c33c9faff423104e,,1,efe74355c33c9faff423104e
趣优健身,39.797313,116.346675,欣旺北大街鸿坤广场5楼,a1b77f1329ddcd608a36ee59,15201666099,1,a1b77f1329ddcd608a36ee59
E能量国际健身俱乐部-E健身,39.762473,116.339641,北京市大兴区兴华路202号4层403,1b197ab4ea87049cc42ba1ea,(010)58474220,1,1b197ab4ea87049cc42ba1ea
快快智能健身(鸿坤理想城店),39.79745,116.349843,大兴西红门镇欣荣北大街45号院一号楼1层2号,,15811051889,1,02323552391b1bea2bd7ab75
蓝速私人健身工作室(大兴店),39.779468,116.335034,北京市大兴区香园路保利茉莉公馆D栋底商23108室(高米店北地铁站),150af99683d8129988fc06dd,"13071154937,(010)80252176",1,150af99683d8129988fc06dd
昆仑决游泳健身,39.786525,116.303822,北京市大兴区S315(京良路),cb376b7f01a92c33eb12e402,,1,cb376b7f01a92c33eb12e402
GT健身工作室(西红门二店),39.797114,116.334318,北京市大兴区欣宁街71号,081d9bb7d1eb817415c905e5,,1,081d9bb7d1eb817415c905e5
Today健身工作室,39.799754,116.343149,宏盛路244号,b010ac2773cb98a86ec02cea,"18501269975,18611979767",1,b010ac2773cb98a86ec02cea
行者健身,39.777117,116.338207,兴华大街物美超市B1层,,,1,43b1de70afceb2b1770269aa
唯渡健身工作室,39.793542,116.329883,北京市大兴区欣雅街嘉悦广场2号楼10层(荟聚后侧宜家家居西南角),,(010)80255676,1,f9cd27422d0066d21ef74d4e
无限能量健身工作室,39.767189,116.332884,北京市大兴区原生墅60号楼一栋,,,1,ef4796701d1eb4e5deee8b91
速健身私人定制馆(鸿坤店),39.796201,116.351401,北京市大兴区鸿坤新都荟A2座310(鸿坤广场附近),,,1,bf748d6a076e1adca21de95d
归位瑜伽(鸿坤馆),39.795358,116.353079,北京市大兴区西红门镇欣清巷2号,,"(010)60253552,15001287378",1,b7bde49950433e8a51e5c560
莱茵体育游泳馆,39.794935,116.352795,北京市大兴区西红门镇欣清巷2号昆仑决世界搏击中心B2层,760c2c02054376e978f7968b,13381189797,1,760c2c02054376e978f7968b
桔子瑜伽(西红门店),39.79685,116.333914,西红门镇世嘉博苑小区73号商铺,,18519663910,1,37e5af13e32460132bd7ab09
泰中游泳健身会所,39.766196,116.35214,北京市大兴区高米店金星桥泰中花园1号楼,,(010)57242980,1,f69eb73c4c577721c6effb86
桔子瑜伽(高米店南店),39.770675,116.342934,北京市大兴区金星西路西斯莱公馆2号楼107底商,10150b1da946988bb8bd63fa,"13321128714,13501177112",1,10150b1da946988bb8bd63fa
市隐晓居(花海馆),39.779448,116.336295,北京市大兴区保利茉莉公馆南门19-102,192b253a1015f088b9df8fae,"15340108090,(010)57455725",1,711adb453751763747e274a2
易和瑜伽,39.798125,116.349644,理想城礼域府南门底商东侧30米(礼域府南门链家东侧),,"18610441428,15201259700",1,3d821de506200e9d6d20b921
瑜伽舞蹈芭蕾健身,39.772377,116.336322,北京市大兴区乐园路,,,1,a379f64dc1b83ec3157643f6
静湖瑜伽(大兴店),39.762753,116.339642,北京市大兴区兴华大街首邑上城40号楼一单元1104一1105,411f5e0fa7519b3fc256ac36,17326817598,1,411f5e0fa7519b3fc256ac36
DX街舞工作室,39.7934,116.329904,北京市大兴区宏业路嘉悦广场2号楼下沉广场B1层1321室,eb16d5081fd4124d0482c2c5,"13311203987,18310089892",1,eb16d5081fd4124d0482c2c5
台球健身,39.832023,116.214405,长辛店大街81号附近,,,1,af6bbecf2ab4df75c7f025cd
紫薇瑜伽,39.854259,116.204983,张郭庄南路13号,9918b4166ef9aa3717b54b6f,"13811268180,13811263612",1,9918b4166ef9aa3717b54b6f
墅身荟GYM OF VILLA,39.841539,116.198623,北京市丰台区长兴路奥林匹克花园1区东门,b92db05a32d8f40c774ff19f,"15810695373,15810695273,15810695272,15910762796",1,b92db05a32d8f40c774ff19f
俊美玩铁健身搏击俱乐部,39.872537,116.295079,丰台区七里庄望园东里28号楼底商(宏源证券旁),0cf344de7abc077f2fb90857,15011435601,1,0cf344de7abc077f2fb90857
时代健身,39.873103,116.276189,北京市丰台区丰体南路1号院丰体时代4号楼107A,,18601993043,1,69ae4413d936b35e9d82ea9c
悦尔斯健身,39.840337,116.247236,北京市丰台区卢沟桥晓月苑小区五里三号楼底商,,,1,88888bad330858e38433049a
九城盛唐俱乐部,39.842111,116.276231,北京市丰台区看丹路18号院-3号楼,168f372eb01c26616849f3fe,(010)63722769,1,168f372eb01c26616849f3fe
钛渡国际游泳健身,39.832671,116.294456,北京市丰台区科技园中环路总部公馆C座B1层,3b4a790f81de144b4151c0d0,18310088006,1,3b4a790f81de144b4151c0d0
壹健身(资和信店),39.844073,116.291658,北京市丰台区西四环南路103号院-1,,,1,2019214861a14be9d0ff239f
浩沙健身(丰台财富店),39.838031,116.293885,北京市丰台区航丰路时代财富天地A座B1层,,,1,50ee739992860efb882fb5fe
北京儒派智能健身,39.851856,116.240499,卢沟桥南里10号院8号楼底商3层,,13552930968,1,477bebb0dac6f7b2c61b75fe
Sparkle健身工作室,39.87359,116.257739,大瓦窑北路C区2号院1号楼一层,d04de35fd297c38d94ec84fe,"(010)83738600,18911391500",1,d04de35fd297c38d94ec84fe
新氧启航健身中心,39.833803,116.293365,北京市丰台区总部广场a座新氧启航运动中心,,"(010)53561110,13810117543",1,c8d97af70ec92e94ab0dd880
丰体健身俱乐部,39.873703,116.28373,北京市丰台区西四环南路55号丰台体育中心院内西12号看台旁,b703e96bd08945e38f1a8913,(010)63822266,1,b703e96bd08945e38f1a8913
晓月健身,39.843204,116.249119,北京市丰台区卢沟桥晓月中路晓月苑三里,,,1,adeb53d7f3cf9c7df942b2bb
铭维成健身中心,39.841566,116.291137,北京市丰台区富丰路4号工商联大厦,,(010)63752038,1,9b96a3f5b68c1a93593ac88a
木子盛世健身,39.828453,116.286964,北京市丰台区南四环西路26号院-67,,,1,4e2c39ec476a38d70e3dda01
桔子瑜伽(万科假日风景店),39.873397,116.253453,北京市丰台区小屯西路109号院假日风景B区北门门口,4fdc2d390bc1421f8b2fb52f,13581585856,1,4fdc2d390bc1421f8b2fb52f
静水胭脂,39.845654,116.244309,北京市丰台区晓月苑一里13号楼B二层201室(宛平幼儿园西侧),106ca14d7f44047ef4e73be3,"18810143588,(010)56208389",1,106ca14d7f44047ef4e73be3
清流健身咖,39.873996,116.257284,大瓦窑北路1号院4号楼(万科中粮假日风景A区底商),,15712826016,1,31f21e968004315897ec8419
丰体时代社区警务工作室,39.8737,116.276673,北京市丰台区丰体南路1号院,,,1,ec389a8c294b3a654afc8d9d
动禾道体育健身中心,39.853179,116.303824,造甲街5号,795a9ec1d4f893ba2fb17e84,"(010)51852528,(010)51852518",1,795a9ec1d4f893ba2fb17e84
光猪圈健身(东大街店),39.863545,116.299697,游泳场北路9号嘉诚广场B1层,d392dc36865276d4c42ba184,(010)83831151,1,d392dc36865276d4c42ba184
钛渡健身(丰葆路店),39.822007,116.297398,北京市丰台区丰葆路146号,,,1,3ed37176e188be5a4c6d465b
浩沙健身(丽泽桥店),39.872445,116.312777,北京市丰台区丰台北路18号恒泰广场2层,302d3731fd0a62ef9cec2bf1,,1,302d3731fd0a62ef9cec2bf1
红云健身,39.851414,116.36163,草桥欣园三区甲2号楼-1层地下-SO4,d305db1fa8577327932ca375,(010)67503029,1,d305db1fa8577327932ca375
硬健身(体能训练旗舰店),39.83928,116.298081,北京市丰台区邻枫路5号院1号楼底商2层,108d338da65bc4785d0d02f3,(010)83611566,1,108d338da65bc4785d0d02f3
奇迹健身(西铁营万达店),39.866388,116.361977,玉林西路西铁营万达广场145号,f4eb5075f99b7c0f79b55cf3,(010)88505510,1,f4eb5075f99b7c0f79b55cf3
迈高国际健身会所(丰台店),39.843098,116.313031,花乡乡康辛路鸿业兴园一区3号楼美食城2层2-6,,"15110049167,(010)53686400",1,7d830830e0bc5dc121f01785
壹健身健身会所,39.864346,116.305586,北京市丰台区丰管路20号院君颐润华酒店楼左侧三楼壹健身健身会所,,(010)53225806,1,4a91b4021e0ebbdda8f0cde2
极木健身工作室,39.833056,116.307365,北京市丰台区汽车博物馆东路1号院北座2诺德中心9地下一层,,13701329368,1,ba464ea0e2277be11b94c6db
君力阳光四季健身中心,39.840535,116.300011,恒富街2号-3,6de7bf6240f92132a104641f,,1,6de7bf6240f92132a104641f
壹健身西国贸国际游泳健身会所(西国贸店),39.862233,116.315514,北京市丰台区丰管路恒福北街西国贸大酒店2层,15316f27df3a51ba9c09f715,,1,15316f27df3a51ba9c09f715
乐飞健身,39.842961,116.310249,南四环康辛路恒丰园商业6期3层,,(010)83686036,1,6b0ede33a6ddb0c632870a69
优维斯塔健身工作室,39.833025,116.307366,北京市丰台区汽车博物馆东路诺德中心2期10号楼2层219室,,(010)83681680,1,75b99c45a510ed7e04026fa9
猩动力健身工作室,39.819114,116.306267,郭公庄中街20号院8号楼底商101室,,(010)56358314,1,0328a28ac3318b8904026f17
酷·AI健身,39.831178,116.317269,北京市丰台区诺德中心三期16号楼底商3层303,,13581821770,1,dfd9f405bc1fa35e72210bcd
派·Pai健身工作室(怡海花园店),39.839586,116.306893,北京市丰台区怡海路怡海家园富泽园6号楼4-10号底商,,"15001064356,18810730056",1,0d823b298a1e0914081cc7d6
安康游泳健身会所,39.871054,116.316855,北京市丰台区西三环南路55号院-2,3fa4e161fe162fba40e1924f,(010)83830560,1,3fa4e161fe162fba40e1924f
动力元素健身会所(丰台花乡店),39.843007,116.312948,鸿业兴园2层,e9e127d64f9e924e6a49f3ad,,1,e9e127d64f9e924e6a49f3ad
阳光游泳健身(三环新城店),39.854273,116.319027,丰台区丰桥路六号院甲11号楼1层1-01室,bc9feb65898a247c0a5cb362,18519032757,1,bc9feb65898a247c0a5cb362
北京南粤苑宾馆-健身房,39.854044,116.345307,南三环西路86号北京南粤苑宾馆康体中心,9ca5f37f6212601930169bfd,(010)58053333,1,9ca5f37f6212601930169bfd
超人健身(首经贸店),39.851018,116.327389,丰台区芳菲路60号院龙湖西宸广场2号楼301-304,,,1,ce235237fa873be4734b87fc
万年花城游泳健身,39.850844,116.325474,北京市丰台区首经贸北路首经贸地铁站D口对面小区,399cd18cd056543341d63e23,,1,399cd18cd056543341d63e23
劲格综合格斗健身俱乐部,39.855727,116.338675,北京市丰台区万柳桥宝隆大厦劲格综合格斗健身俱乐部,,,1,d16c776830ac550ee856fa26
炫彩私人健身,39.839542,116.306896,北京市丰台区科怡路怡海花园恒泰园5号楼26层(地铁9号线科怡路站、总部基地、韩庄子欧尚超市、花乡桥、万年花城、郭公庄),,,1,f8821d26d00df475a3acc4eb
晨旭动力健身工作室(总部基地店),39.833038,116.307323,北京市丰台区汽车博物馆东路诺德中心二期9号楼2层219,,,1,189e5b467d7aa68ffb2d6196
橙爱游泳健身俱乐部(丰台店),39.82756,116.298806,北京市丰台区总部基地十八区12号楼中央彩楼,,,1,84c12b58d3fd0320c33644ba
超人健身私教工作室(西局店),39.871056,116.315943,北京市丰台区西三环南路55号院-2,,15321172876,1,3af3d4fe53ef54282bb97c7b
草桥运动健身中心,39.849831,116.355358,草桥西路西侧100路北,33fb9d96bd034f985abbbcb4,(010)87580580,1,33fb9d96bd034f985abbbcb4
桔子瑜伽(宜兰园店),39.834572,116.341828,北京市丰台区花乡宜兰园三区24-4,,18501037602,1,9e8fac3e752244f917b54bae
北京金史密斯健身器材有限公司,39.827168,116.297375,北京市丰台区总部基地十八区25号楼人才基地大厦4层,,,1,82fce37389a773fb0782c269
子予舞蹈工作室,39.850937,116.320778,万芳园二区15号楼1层商业15-3,6d21548866561a284e776ed1,13126736757,1,6d21548866561a284e776ed1
花境瑜伽,39.819839,116.305756,郭公庄中街20号6号楼,,13701278364,1,86df3e487dd2936826e0a0ed
EON Dance Studio(丰科万达店),39.829931,116.304585,丰科路万达广场B座501(丰台金街),,,1,8191b3f93b058ee6ad080f03
悟瑜伽(草桥地铁总店),39.85214,116.358186,北京市丰台区振国寺北街草桥商业中心B座2层220,69d2f19f7ac72bba7ec876df,18611676922,1,69d2f19f7ac72bba7ec876df
钓云台小区健身会所,39.85201,116.316073,北京市丰台区康庄东路9号院5号楼,376723a30548d7d5223bf294,,1,376723a30548d7d5223bf294
游泳健身俱乐部,39.863548,116.299582,北京市丰台区东大街29号,fc6ccd3b5bc134f1461a3219,,1,fc6ccd3b5bc134f1461a3219
杏林梵景瑜伽,39.832092,116.311403,北京市丰台区五圈路,,"(010)83293721,13269220445",1,b5645179aa988a50c9291501
动禾道体育健身中心-停车场,39.85305,116.303492,造甲街5号,a391ed6e4368bacce5073813,,1,a391ed6e4368bacce5073813
卓越龙冠散打搏击健身俱乐部(首经贸店),39.854233,116.318854,北京市丰台区丰台东路新城阳光写字楼,4ebc8e3f2cb48f5df32d8338,(010)83683005,1,4ebc8e3f2cb48f5df32d8338
莱美瑜伽,39.827535,116.298377,北京市丰台区南四环西路188号总部基地18区附近,4449b4d554fff4224c6d466d,,1,4449b4d554fff4224c6d466d
北京京铁实业开发总公司动禾道体育健身中心停车场-出入口,39.852284,116.301888,造甲街7号附近,22fe64baf9f0806b40e19211,,1,22fe64baf9f0806b40e19211
菜户营健身娱乐场,39.872217,116.349886,万泉寺北路石家庄商务酒店东侧,33430a5a36fc3b002b3a9f5c,,1,33430a5a36fc3b002b3a9f5c
大黄蜂动感赛车,39.823556,116.299003,北京市丰台区丰葆路88号永旺梦乐城F3,,,1,2b83a5e3790fe5681a11d5f4
创悦24小时健身俱乐部,39.904472,116.151693,门头沟区龙兴南二路6号院2号楼101号,,13601079414,1,e33abcdb2a740787343a719e
森林阳光健身馆,39.914688,116.116826,北京市门头沟区冯村嘉园2号楼101,,,1,651b16f376b2ddb95bbbbcc9
乐刻运动健身(融科店),39.91597,116.212589,北京市石景山区八角东街65号院融科创意中心负一楼,,4001501866,1,3177aee0afa819d5400245cb
老山体育健身中心,39.921413,116.222156,北京市石景山区老山西街5号,3dc9befd7f3b800fbea24012,(010)68868446,1,3dc9befd7f3b800fbea24012
江洋健身(当代商城店),39.931251,116.202809,北京市石景山区阜石路165号当代商城(鼎城店)F5,dc114f71b0f59ab32202623a,(010)88939126,1,dc114f71b0f59ab32202623a
z健身工作室,39.901196,116.215208,北京市石景山区京原路19号院4号楼景阳写字楼一层,d110f60706e24d4317a1901a,(010)88700071,1,d110f60706e24d4317a1901a
首钢杨庄游泳健身俱乐部,39.926333,116.20615,北京市石景山区杨庄小区临甲42号,31de6e369f57108c9e95dedc,(010)58424959,1,31de6e369f57108c9e95dedc
首钢健身游泳会所,39.92634,116.206207,阜石路12号(泽洋大厦旁),5787cfd2f009684814948e74,,1,5787cfd2f009684814948e74
格林豪泰健身房,39.926226,116.213896,北京市石景山区京成商厦负1,f7231ee385e76e477adbd2aa,,1,f7231ee385e76e477adbd2aa
麋健身工作室,39.924986,116.212497,北京市石景山区时代花园南路17号茂华大厦803,,,1,5d18fd3307db867c430245ae
Supreme私房健身工作室,39.912156,116.190709,北京市石景山区石景山路金融街长安中心7号楼705,,13501386698,1,be5e94b6c7ff56002fb96dda
TCLS健身会馆,39.930993,116.205879,阜石路159号首钢篮球中心地下,7f66a45b6fd8475cd92f28cf,,1,7f66a45b6fd8475cd92f28cf
老山体育健身中心-羽毛球馆,39.921384,116.222346,北京市石景山区老山西街5号,4c3418f0a6383517c17da252,(010)68862592,1,0a15c7ec248399e5ed74f810
原永定门电烤串(大肌肉店),39.909883,116.22843,石景山区银河大街银河财智中心A2座b133,,18611161833,1,3042c5421626c266a20464a1
晟宇搏击俱乐部,39.930869,116.183601,北京市石景山区苹果园西小街19号院1号楼宏坤盛通大厦4层406室,5a78c9d942439fb62fb17e4a,,1,5a78c9d942439fb62fb17e4a
国家体育总局老山健身中心游泳馆,39.921407,116.221919,老山西街5号,fcc44a974c28ed16754ff179,(010)68869174,1,fcc44a974c28ed16754ff179
老山体育健身中心-东南门,39.921261,116.222761,北京市石景山区老山西街5号,a2f85ab31f2a93673c9a5e9c,,1,a2f85ab31f2a93673c9a5e9c
千禧国际健身,39.896398,116.290453,北京市丰台区靛长路千禧购物中心B座B1层,,(010)53688553,1,d1b4f1d41a77004732f71d63
悦健身会所连锁店,39.903311,116.244202,北京市石景山区鲁谷东街远远洋山水38号B1楼1-2层工商银行旁,f68d8339055d1f4c29fc4818,17710036533,1,f68d8339055d1f4c29fc4818
一兆韦德健身(远洋山水店),39.909181,116.244855,北京市石景山区远洋山水小区北区2号楼,d597413f56752137f5b91653,(010)85306117,1,d597413f56752137f5b91653
浩沙健身(永定路店),39.911969,116.270411,北京市海淀区社区服务中心万寿路分中心3-4层(西点百货对面),e2c734e40fe9534415a190db,(010)68181238,1,e2c734e40fe9534415a190db
浩沙健身(台湾街店),39.909931,116.247066,北京市石景山区台湾街C-02区11号楼B1层11-5-A,98b306f944b95f712b06ce37,(010)68684848,1,98b306f944b95f712b06ce37
巨石健身俱乐部,39.907009,116.289354,北京市海淀区西翠路5号今日家园苏宁电器B1今日影院同门,7ea5b441fae116350aa8d407,"13301206216,15811449060",1,7ea5b441fae116350aa8d407
光猪圈健身(京荟广场店),39.88764,116.256758,小屯村梅市口路133号京荟广场D座402-403和405号,,"(010)88687931,(010)88700331",1,ec62ad79ea6b38095bf6be89
中健银座健身(万达广场店),39.912485,116.23233,北京市石景山区石景山路乙18号万达广场F4,7eda233e430b58dc9868b49c,(010)88689660,1,7eda233e430b58dc9868b49c
乐修斯健身,39.909951,116.244818,北京市石景山区鲁谷路台湾街刘一手火锅三楼,,"13955222484,(010)88608966",1,27d96fe06ffb27b0d9ecedab
重生私人健身俱乐部,39.908876,116.251717,北京市石景山区鲁谷路68号京西珠宝城后楼二层,,(010)52807234,1,3b11e21c8dab02102db17ef1
爱尚健身(梅市口店),39.887021,116.275615,北京市丰台区梅市口路民岳家园首航超市2楼,539f245cb3608c6f077ce89f,(010)53345423,1,539f245cb3608c6f077ce89f
快快智能健身(大成郡店),39.895429,116.274672,丰台区大成南里三区1号楼1层103号,e3e8cb433df21cbf0b69d929,,1,e3e8cb433df21cbf0b69d929
健身房,39.911611,116.271508,北京市海淀区永定路88号西点百货3楼,5860f9b318d3b93616a190ef,(010)53319077,1,5860f9b318d3b93616a190ef
五芳园健身苑,39.90331,116.235774,鲁谷大街25-2号,7cac0b25af551f4e2b201a8a,,1,7cac0b25af551f4e2b201a8a
道格游泳健身俱乐部,39.880592,116.256705,北京市丰台区小屯路甲148号,,"17326890320,(010)88693766",1,5d888a3f95d431fc7ab55c5b
秀游泳健身会所,39.876366,116.288662,北京市丰台区西四环南路46号国润大厦B座B1层,30b8153f4948acaf3a04b1c6,(010)80698848,1,30b8153f4948acaf3a04b1c6
ALIEN GYM私人健身工作室万科紫台店,39.887466,116.272076,北京市丰台区万科紫台青塔西路52号院,d4155f6afc4bf2aa7369d3cd,18611533421,1,d4155f6afc4bf2aa7369d3cd
蓝速私人健身会馆(紫金长安店),39.920889,116.286084,北京市海淀区西翠路紫金长安17号楼3单元301,,(010)58987338,1,7ee4b91832044ec1c356ac49
大运健身,39.925294,116.247892,北京市海淀区田村山南路玉泉嘉园超市三层,292edb4b387571feb72655f0,15210390203,1,292edb4b387571feb72655f0
吉鸿健身碎脂减肥(熙公馆店),39.892695,116.262733,北京市丰台区大成南里28号院熙公馆3号楼2单元1层107,ea61f4ea6a642e01f4eafc66,13661193337,1,ea61f4ea6a642e01f4eafc66
爱练健身工作室,39.911563,116.23378,北京市石景山区万达广场E座7层701,,18211127407,1,45397b330f95dd78c909f0f9
AIRFitness氧吧健身工作室(万达广场石景山店),39.911475,116.232593,石景山路乙18号院万达广场D座12层(赛百味旁),,"13581968941,15001296356",1,699d6284f6625cc9eb56fad5
发动肌v8健身工作室,39.876481,116.286252,北京市丰台区西四环南路31号汉庭酒店三层(北京银行),176417234a090be00782c2cc,13522335202,1,176417234a090be00782c2cc
北京万达嘉华酒店-健身房,39.912327,116.234059,石景山路甲18号1号楼万达嘉华酒店,a153dfbb1ec12c0e9ee321f0,(010)88681188,1,a153dfbb1ec12c0e9ee321f0
恒武健身,39.894488,116.263769,青塔东里24号楼6层603室,07f26acff695fc3da3acc412,(010)68166315,1,07f26acff695fc3da3acc412
远洋南区游泳健身生态馆,39.903449,116.243344,玉泉西里二区38号楼1-2层,d2d6cdbaa597e47ed518b789,15210351538,1,d2d6cdbaa597e47ed518b789
PF健身工作室,39.882114,116.236376,张仪村广安康馨家园南区北门底商2号楼106,672041a3d9afbf41deee8b9b,,1,672041a3d9afbf41deee8b9b
WIN健身工作室,39.900321,116.259939,北京市丰台区小屯路2-1号,,17301226671,1,13f15b46024c9bc8c33644b7
远洋山水游泳健身,39.908873,116.247284,鲁谷路南100米,,,1,6f6ac1b13103a2aa86420e3c
搏锐格斗健身俱乐部(金沟河店),39.924202,116.284992,北京市海淀区金沟河东路9号院8号商业楼二层,,,1,ec84cb9349b1469996f08ce8
优昂健身,39.910023,116.247036,台湾街C-02区11号楼B1层11-5-A,,,1,32741e0b5b17ba8832870adb
慧心瑜伽(远洋山水店),39.903351,116.244623,北京市石景山区鲁谷大街远洋山水38号楼底商D101号,,"4000545100,15810168673",1,6bb3324a405534eb54bfff67
清羽高温瑜伽馆(五棵松店),39.907798,116.285679,北京市西翠路5号近日商业中心西配公建今日五洲酒店2层,b7b462a6befa63b0f4231049,"(010)88286018,(010)88286806",1,b7b462a6befa63b0f4231049
素心瑜伽生活馆(梅市口店),39.887954,116.273685,北京市丰台区魏家村南路21号院-5号楼,92d04be83fbab68584330499,(010)83651900,1,92d04be83fbab68584330499
天美瑜伽(梅市口店),39.887111,116.274887,梅市口路珠江风景22号楼底商电玩城二楼,58e2dfeb96ce1ff98505bf7e,,1,58e2dfeb96ce1ff98505bf7e
ez健身生活体验馆,39.888571,116.283438,岳各庄桥阅园1区紫熙台8号楼106,,"(010)83835591,18513349003",1,6cbcabe72a0144012bd7ab63
水瓶座·格斗健身俱乐部,39.881111,116.255995,小屯路美域家园南区3号楼底商3-1,,"13522165171,(010)53673811",1,b91812d8ec9f14f786420e15
颖瑜伽馆,39.911405,116.232499,政达路万达广场d座20层2002室,bf1eb83ad74914e4ae0457c1,(010)57796582,1,bf1eb83ad74914e4ae0457c1
云婵瑜伽工作室,39.895851,116.264942,北京市丰台区大成路19附近,,13691306885,1,4050ce38193da7ebe3110311
纯锐瑜伽肚皮舞,39.906548,116.244712,鲁谷村路鲁谷村7号楼底商1层,,(010)59430115,1,43afd7a2971b866c8bfc06db
大玩家超乐场(万达广场店),39.911687,116.232502,北京市石景山区石景山路乙18号万达广场F1,d3f0638093e7f08317b54bf2,,1,d3f0638093e7f08317b54bf2
北京千禧健身中心停车场,39.89664,116.290966,北京市丰台区靛厂路千禧购物中心(北京宴西北50米),3ea4bad6080bee1cc9c3db48,,1,3ea4bad6080bee1cc9c3db48
YOGO女人瑜伽美容会所,39.907617,116.249094,远洋山水13号楼2单元102室,48c5e218fc729bbc3010affe,(010)57732216,1,48c5e218fc729bbc3010affe
永兴花园饭店-健身房,39.931478,116.293234,海淀区阜成路101号永兴花园饭店内,,,1,dbf4d6eecfcbc9336fa3ccc9
静湖瑜伽(靛厂路店),39.895578,116.288659,靛厂路26号院11号楼底商一层,c190c2f46590f85f43ab9a4a,18614069988,1,c190c2f46590f85f43ab9a4a
菲梵瑜伽,39.911441,116.271783,北京市海淀区海定区永定路88号长银大厦B座8层,52a97c665853cc1f40ab9a4c,,1,52a97c665853cc1f40ab9a4c
天宫舞府(五棵松店),39.9118,116.271751,永定路长银大厦12层12B01,f83124c2ffbb20071fe999f4,,1,f83124c2ffbb20071fe999f4
天宫舞府(石景山路万达店),39.912452,116.233959,石景山路甲1号万达铂尔曼大酒店三层康体中心,b0d86f6489cd5a56cc06a4fc,,1,b0d86f6489cd5a56cc06a4fc
中健银座健身(北京和谐广场店),39.888289,116.30355,丰台区万丰路68号院和谐广场7层701室,12e422a3589f8c00fbf0cbad,(010)59442222,1,12e422a3589f8c00fbf0cbad
英派斯健身(达官营店),39.893441,116.343397,莲花河东侧路恒昌花园小区5号楼B1楼,0ddadcf5e44e31d588db7307,(010)63263566,1,0ddadcf5e44e31d588db7307
深港国际健身,39.88339,116.338161,北京市西城区红莲南路57号中国文化大厦B1层,,(010)53352799,1,53da16c896e27d7c0ba8d4ba
东霆健身(六里桥店),39.892403,116.304551,北京市丰台区莲怡园北路莲怡园二区1号楼2楼,,(010)63250007,1,d302f0648adf5e9604026f57
LIOU健身俱乐部,39.882634,116.346104,北京市西城区红莲南路六号院一号楼3楼0301,,13522111295,1,441534866863f278a80dd839
中央电视塔-职工健身中心,39.92518,116.311091,北京市海淀区西三环中路11号中央电视塔内,9b6e1132644eb0818e772773,,1,9b6e1132644eb0818e772773
中体盛世国际健身(恩济店),39.92735,116.299438,北京市海淀区万寿路甲1号恩济花园31号楼,22b693261fd0afcd725e80e8,(010)88121250,1,22b693261fd0afcd725e80e8
森源体育俱乐部,39.886264,116.338162,北京市西城区马连道胡同常青藤嘉园西侧,3f826ed31dcf9046d1f49eec,(010)52690365,1,3f826ed31dcf9046d1f49eec
颐源居壹健身俱乐部,39.921532,116.311398,北京市海淀区翠微路4号颐源居小区内,44c0d8b29660e979e81e97c9,(010)88614341,1,44c0d8b29660e979e81e97c9
乐刻健身,39.882463,116.349659,红莲南路手帕口南街80号(京铁和园A1泛悦F4层),,,1,e930a4eaa395bda671455b0f
浩康健身中心,39.922107,116.347375,北京市西城区月坛南街三里河一区甲39号(近北京中古友谊小学),14076dee35a61bed02294f09,"(010)68515257,(010)88653263",1,14076dee35a61bed02294f09
英派斯健身(六里桥店),39.887851,116.324883,北京市丰台区华源四里1号楼1层,15b32fc9b64c1e58f8dc8540,(010)63370051,1,15b32fc9b64c1e58f8dc8540
奥德健身俱乐部,39.899544,116.334694,北京市西城区广莲路1号建工大厦a座4层,efe9cb0018f4d9e17369d34b,"15001218455,(010)63927388",1,efe9cb0018f4d9e17369d34b
胜腾健身,39.910216,116.335035,北京市海淀区北蜂窝路5号院3-4号北京华联购物中心3层,5c56edd66ec64243a0d23091,(010)52833589,1,5c56edd66ec64243a0d23091
力渡健身俱乐部,39.890425,116.33467,北京市西城区马连道南街依莲轩2号楼E座1层,24a2fc809f7c9b410aa8d4ff,(010)63358868,1,24a2fc809f7c9b410aa8d4ff
HeyHeroes私教健身工作室(红莲店),39.882407,116.349819,北京市西城区手帕口南街80号京铁和园A1泛悦4层,,"18516823259,(010)57279202",1,7667736d5e5ff58eeedfca56
菲尔国际健身俱乐部,39.898128,116.312328,吴家场路莲花池西里26号院佳弘莲花大厦C座115,,"17310802045,15688882570",1,ff8c78686dfe838e17b54b8d
光猪圈健身(六里桥盛今佳园店),39.900011,116.314345,北京市海淀区吴家场路1号院盛今佳园3号楼地下2层,ce4e8ff4f0a1c9305fbe8618,(010)57235273,1,ce4e8ff4f0a1c9305fbe8618
火星健身工作室(月坛店),39.908402,116.353794,北京市西城区真武庙路四条8号院-3,,"18613329643,17301053356",1,99ea3cbce307874ac7f50d46
锐健身(加州铁馆城乡店),39.91551,116.314527,北京市海淀区复兴路甲23号城乡购物中心F4层,,,1,336b97f134b577f845e274ee
能量健身私教工作室(天泰店),39.915353,116.357547,北京市西城区南礼士路头条甲1号,724ff93a2a9508a66c3e1bb2,"15801486677,13811133341",1,724ff93a2a9508a66c3e1bb2
红山会私人健身教练工作室(广外店),39.899006,116.338028,北京市西城区广外大街305号西提红山11号楼2107室,a0a6fbffc3335487badf8f0b,(010)63337891,1,a0a6fbffc3335487badf8f0b
润阳光国际游泳健身,39.876124,116.354379,菜户营东街甲88号豪苑宾馆B1楼,d088d2596914ef78203bf244,15652011333,1,d088d2596914ef78203bf244
加州铁馆(北京城乡贸易中心店),39.915516,116.314645,北京市海淀区复兴路甲23号北京城乡华懋商厦4层,7eb627b488841cf68bfc061e,,1,7eb627b488841cf68bfc061e
博道格斗健身俱乐部(马连道店),39.888567,116.336565,马连道茶贸生活馆地下一层A56,,"(010)63423081,(010)63423088",1,8a4bcc7cdd8cd5f42a02e11d
长安白云健身,39.905792,116.352104,北京市西城区白云观街北里11号,,17610180272,1,70da301b9ef1af1e7c29bdf3
西堤红山健身会所,39.900796,116.339809,北京市西城区莲花池南蜂窝路西堤红山9号楼,2eb4c8d74a12f48b1b11d51f,(010)63309041,1,2eb4c8d74a12f48b1b11d51f
西甲壹号游泳健身馆,39.893584,116.347812,北京市西城区广安门外大街手帕口南街中国工商银行旁,9dc7cb563c8ab5552dfaa723,18911167946,1,9dc7cb563c8ab5552dfaa723
活力阳光游泳健身会所(海淀店),39.915771,116.30091,北京市海淀区万寿路寰岛博雅大酒店B1层,d0e4c166374887a1276e987f,18632282324,1,d0e4c166374887a1276e987f
炫彩健身工作室(马连道店),39.887877,116.324548,北京市丰台区太平桥路威尔夏大道1号楼二层底商,edd5edea08d6657a28d7ab3c,(010)57123618,1,edd5edea08d6657a28d7ab3c
缘园健身,39.921065,116.301945,北京市海淀区万寿路翠微中里14号楼,05c1e9545629642bb2077df3,,1,05c1e9545629642bb2077df3
泰格李拳击健身俱乐部,39.894279,116.347967,北京市西城区广安门外大街168号广安门内大街希尔顿酒店旁朗琴国际B座15楼1517,,15010220689,1,310681c726cf078f0b1cc705
爱尚健身游泳培训中心(金泰店),39.874991,116.349877,北京市丰台区丽泽路1号院-15号楼,,,1,91c541f4f358e69f631c6763
力健身私教工作室(月坛2店),39.922781,116.352568,北京市西城区月坛北街26号恒华国国际商务中心3号楼515室,fa0e4f80ddedf7e02cb90819,15754223443,1,fa0e4f80ddedf7e02cb90819
必燃健身私教工作室(七里庄店),39.87638,116.30034,北京丰台区万丰路300号宁波银行写字楼103室(七里庄地铁A口北行100米),,17310226446,1,bd2e7ef1f845ada131f71dc6
港中旅维景国际大酒店(游泳池健身会所),39.894748,116.361219,广安门内大街336号,db2e7d5a891a534478dbd2da,13521255911,1,db2e7d5a891a534478dbd2da
希尔顿逸林健身房,39.894485,116.347079,广安门外大街168号希尔顿逸林酒店3楼,e310aec73e478b1025e0a065,(010)63381999,1,e310aec73e478b1025e0a065
金子健身,39.916632,116.299458,万寿路西街5号院3,7ad43fdb72488e46581093df,(010)68258302,1,7ad43fdb72488e46581093df
太空国际,39.88925,116.358472,北京市西城区枣林前街145号,5eda4c72b95968375d0d021e,,1,5eda4c72b95968375d0d021e
思睿健身工作室,39.915492,116.31923,"北京市海淀区公主坟国海广场D座2718室(中国电子,中国建材,中国物资)",,"13381152098,(010)59706199",1,7da9c194d4b048a9a80dd860
gogo健身工作室,39.894564,116.347717,广安门外大街168号1幢10层2-1118C,,18612933785,1,4288e459d9a9e6d9f02d833e
鸿坤国际大酒店-健身房,39.896434,116.331834,广安路1号鸿坤国际大酒店8层,99a3d20e031d7ce9077ce853,(010)63319988,1,99a3d20e031d7ce9077ce853
壹健身永辉健身房,39.885492,116.32397,北京市丰台区太平桥路15,,,1,2bf1c90b2b315cd66fa3cc1c
力美俊精品健身(万寿路店),39.914552,116.305303,北京市海淀区复兴路甲49号院8号楼,00ee7721646c68d5b35c6a27,(010)68156944,1,00ee7721646c68d5b35c6a27
天奥健身(六里桥店),39.887992,116.325408,太平桥路威尔夏大道甲一号地下一层,,,1,3e03528ad56d0cb848cc4a7c
乐享健身工作室,39.918438,116.309758,翠微路12号院凯德mall新华联国际公寓6单元9层902室,b3d3772d2f002c5714c8f6d5,(010)88618140,1,b3d3772d2f002c5714c8f6d5
爱尚健身(裕龙店),39.927553,116.304862,北京市海淀区阜成路40号裕龙温泉地下一层,,,1,0c63c212f284686741d63e36
ACE健身-私教工作室,39.897533,116.304831,北京市海淀区吴家场路51号(潞安酒店一层),5d9cf49937b2b5699e82ea28,18410087577,1,5d9cf49937b2b5699e82ea28
京都信苑饭店-健身中心,39.90384,116.318766,什坊院6号京都信苑饭店B1层,a7cef968fd9cd7da35b06c8c,(010)63901166,1,a7cef968fd9cd7da35b06c8c
维斯塔健身工作室Vista Fitness workshop(广安门店),39.894579,116.347747,广安门外大街168号朗琴国际B506室(近希尔顿逸林大酒店),,"(010)63381278,(010)63381276",1,ff8b0efaf49f2c92714b8749
跃华武道健身馆,39.896958,116.303632,莲花桥吴家场路沄沄国际4号楼底商,,,1,6e166aa33d150c3f48cc4a2a
北京易尚诺林大酒店-健身房,39.889182,116.358354,枣林前街145号诺林大酒店,4b5d2e0369b1e9522bb97c51,(010)63551188,1,4b5d2e0369b1e9522bb97c51
跃龙健身游泳工作室,39.913648,116.349585,北京市西城区复兴门外大街19号唐拉雅秀酒店6层,c817bd58c1284a6635b06c7d,(010)58576565,1,c817bd58c1284a6635b06c7d
朴菲特健身工作室,39.875986,116.344543,丰台区三路居路88号院10号楼一层16号门面,,13699142017,1,f0211f6df65b57dd30f71d89
光猪圈健身梦想空间,39.90015,116.31395,北京市海淀区吴家场路1号院3附近,,,1,07ad978961eb65214e3a5968
瑜伽三密院,39.876193,116.354181,菜户营东街甲88号鹏润家园静苑B座B1层,,"18210165520,(010)83909114",1,829364b1710926adad080f0d
TCHMO莫老师减脂健身工作室(首博店),39.909281,116.348961,"北京市西城区白云路西里甲12-3号(首都博物馆南侧,汽北小区东门底商)",,(010)63429425,1,a74cd5d3d904011c81a12e31
巢铁馆健身工作室,39.920964,116.314574,北京市海淀区颐源居11号楼2702,,18500656517,1,46cad65d342a04f895f08c06
凤凰苏源大厦-健身房,39.89581,116.352573,广安门外大街3号凤凰苏源大厦,dacbcc00ef9ab8f58bfc06f6,(010)63267788,1,dacbcc00ef9ab8f58bfc06f6
嘉园健身俱乐部小泥人,39.925882,116.305705,北京市海淀区西钓鱼台嘉园3号楼A01室,f1cf50d80ba61603c5effb85,(010)68797975,1,f1cf50d80ba61603c5effb85
ACE健身,39.897409,116.304856,北京市海淀区吴家场路51号,f17b53965ec0119badb22a3b,(010)57267974,1,f17b53965ec0119badb22a3b
富锦会所(八宝庄店),39.928083,116.298597,北京市海淀区八宝庄小区11号,e59476387cbb29da40ab9ac9,(010)88127777,1,e59476387cbb29da40ab9ac9
中国职工之家饭店-C座健身房,39.912091,116.352196,北京市西城区真武庙路1号中国职工之家饭店C座,9760e40e67567d2ca2d230cd,(010)68576699,1,9760e40e67567d2ca2d230cd
建银饭店-健身房,39.894224,116.328952,西站南路2号,40504ba93f18365f94ec8422,(010)63266633,1,40504ba93f18365f94ec8422
浩沙健身,39.905286,116.352243,北京市西城区月坛街道白云观街7号长安白云大酒店浩沙健身,,,1,289ff430cf8b71acf50e779d
裕龙国际酒店-游泳健身会所,39.929533,116.305125,北京市海淀区阜成路40号裕龙国际酒店负一楼,45bde8f9d59d37529e82ea18,,1,45bde8f9d59d37529e82ea18
万寿宾馆健身房,39.918607,116.298813,万寿路甲12号万寿宾馆A座,0489d10f93382133ae31e5b3,(010)68132266,1,0489d10f93382133ae31e5b3
北京元慧龙健身私教工作室,39.887437,116.354805,北京市西城区南滨河路27号贵都国际中心A座311-312,,,1,3ec7e5bbb3ecf90e715e8089
动感单车室(翠微百货店),39.914411,116.311953,北京市海淀区复兴路33号翠微百货B1,,,1,646db54bff19864d8e7727eb
钓鱼台大酒店-健身中心,39.919453,116.340247,三里河路49,4fc3161a867b39b03a13fd13,,1,4fc3161a867b39b03a13fd13
君力游泳健身,39.904409,116.318384,北京市海淀区莲花桥与莲花池西路交叉口北150米,,,1,20171187a4efe4dc0b1cc7c5
OTB健身房,39.899614,116.334927,广莲路1号建工大厦A座,,,1,87cca191fcd6751b4d776e3a
活动中 游泳健身,39.899604,116.336083,南蜂窝路,,,1,b192505ce426a2ab08f5ebb9
良子健身(万丰路店),39.875726,116.30042,北京市丰台区万丰路300号2号楼A栋1-2层,669b90492500d895f90cad68,(010)52361688,1,669b90492500d895f90cad68
天悦国际瑜伽培训,39.880089,116.300221,北京市丰台区万丰路312号4层,d6ee8724cc54d8f9a8f0cd3a,(010)83693887,1,d6ee8724cc54d8f9a8f0cd3a
良子健身(翠微店),39.914039,116.311914,复兴路29号翠微广场B1西侧,fc7675242eb494e34e776efc,,1,fc7675242eb494e34e776efc
北京印梵西瓦瑜伽,39.886713,116.332944,北京市西城区马连道路19号茶马大厦十层1010室,ea4a3dc904a5f5374f5547a3,"(010)63369702,(010)63364404",1,ea4a3dc904a5f5374f5547a3
梵乐瑜伽,39.893131,116.347661,北京市西城区广安门朗琴园2号楼0605室,b724bff401fff4d188fc06fc,(010)53621127,1,b724bff401fff4d188fc06fc
静之婵热瑜伽俱乐部,39.927673,116.299531,"北京海淀万寿路甲1号恩济花园13号楼二,三层",0f5e5c09b4ad6d63fbf0cbf3,"(010)88117739,(010)88118862",1,0f5e5c09b4ad6d63fbf0cbf3
浩康健身中心游泳馆,39.922173,116.347145,北京市西城区三里河1区-3号院-西门西南70米,ce6e5403e304e7b5b45f1e8e,,1,ce6e5403e304e7b5b45f1e8e
卡莫瑜伽(凯德晶品购物中心店),39.914509,116.304676,北京市海淀区复兴路51号凯德晶品购物中心F3,484d189f180e5d68c356acc2,"(010)88178044,(010)88189318",1,484d189f180e5d68c356acc2
快乐琴弦(万家上品宜购商场店),39.888879,116.333789,北京市西城区马连道路10号万家上品宜购商场F3,a7cddcece7427638ede4a5e6,(010)63396625,1,a7cddcece7427638ede4a5e6
怡梵瑜伽,39.890775,116.333705,北京市西城区马连道路鼎观大厦9楼901号,53cebd5014a922782b02e1bb,13811931108,1,53cebd5014a922782b02e1bb
国宾酒店-健身康乐中心,39.930018,116.356646,北京市西城区阜成门外大街甲9号国宾酒店内,ee96ad3dbbf920a4b21e3645,(010)58585588,1,ee96ad3dbbf920a4b21e3645
中体健身游泳馆,39.927276,116.299604,万寿路甲1号恩济花园31号,fe0d5d111e6352e6f90cadef,,1,fe0d5d111e6352e6f90cadef
北京恒美天地健身有限公司,39.904187,116.356799,北京市西城区莲花池东路西便门西里皇宫烤鸭店,a234cd3e85050f769d82ea83,,1,a234cd3e85050f769d82ea83
鸿坤国际大酒店-游泳馆,39.896434,116.331834,广安路1号鸿坤国际大酒店8层,1cfcfc1199900717ca09f043,,1,1cfcfc1199900717ca09f043
佑安大酒店-游泳馆,39.877692,116.359624,北京市西城区广安门南街70号,dbaf53fc84857556d12dd6e5,(010)83550055,1,dbaf53fc84857556d12dd6e5
浩康健身中心-南门,39.921893,116.347359,三里河北街东150米,faae8ddf3bb969c2980050bd,,1,faae8ddf3bb969c2980050bd
享瘦健身私教中心 (明星),39.877595,116.354548,北京市丰台区太平桥街道菜户营58号财富西环9层903.904,,,1,78bca4078280c2acbea240d5
北京港中旅维景国际大酒店-台球,39.894653,116.360559,广安门内大街338号,3fb93bc070035126cb1b954d,(010)83529999,1,3fb93bc070035126cb1b954d
H国际健身会所,39.714407,116.410126,黄村格林云墅,,,1,7c999103d28d0669f32d83cc
格格健身中心,39.707379,116.362323,王桂路与育才路交叉口西北50米附近,,13716788097,1,4e86d8ff0997d85e28d7ab03
和联胜游泳馆,39.715545,116.410396,北京市大兴区欣荣街格林云墅小区,,,1,388d481cbd17b2dd43afe648
辉祥休闲健身,39.738327,116.432346,西红门镇鼎业路29号,,(010)69282678,1,610643e1a170eb6cc9e33c09
中体腾辉游泳健身,39.747941,116.539969,北京市通州区景盛北三街(融科·香雪兰溪最西边),cd1104e464cc3a7ca0acc465,,1,cd1104e464cc3a7ca0acc465
金色生活游泳健身,39.74537,116.549429,珠江逸景家园228号楼旁,,,1,4d08acae554c6a2dc9e33ca9
速卓健身学院,39.744933,116.571414,景盛中街13号胜利智地企业园6号楼,,4001835008,1,96a793f715a78c5d81a12eda
聚缘休闲健身,39.757292,116.563422,北京市通州区S302(环科中路),,,1,c1cd4ec2c2ecd8800a1cc768
萍水相逢瑜伽,39.745212,116.562677,北京市通州区环科中路,,13311244630,1,d28f7dc99facf86aca09f0ab
金昌健身中心,39.738336,116.587878,马驹桥镇马驹桥小周易辉煌大酒楼,,,1,aaa467b9c3f36b9ee81e9727
赛普健身学院(济民可信校区),39.767729,116.370545,北京市大兴区金星路30号1号楼,ae1cd88b2486001074026911,(010)60211666,1,ae1cd88b2486001074026911
炫力骄阳(新宫店),39.811727,116.373597,北京市丰台区南庭新苑北区17号楼,2720492505b93c4f734b8752,"(010)58463699,(010)58463688",1,2720492505b93c4f734b8752
中福游泳健身,39.814647,116.363648,北京市丰台区中福丽宫品牌基地4号楼,,18811496123,1,68d0882774319c189e9d68fd
新宫体育健身休闲园,39.815507,116.363695,北京市丰台区中福丽宫品牌基地东门,,(010)56537507,1,c6d606dcad1f8c80715e800b
乐刻运动健身(万科旧宫店),39.811282,116.465781,北京市大兴区旧宫东西大街旧宫地铁对面住总万科广场3号楼1层,c32b1116d0c35e18cc06a4a2,4001501866,1,c32b1116d0c35e18cc06a4a2
即刻健身,39.791083,116.488287,三海子五号路枫丹一号一期南门底商(中信新城西区北门),,(010)52477263,1,a913df09342a4557112935e4
英姿阳光健身中心,39.808924,116.427796,北京市丰台区万源路航天部老年活动中心二楼(万源广场旁边),debdf95ee27ca3893be4a680,(010)68755148,1,debdf95ee27ca3893be4a680
绿城阳光游泳健身,39.790412,116.427518,南大红门路101号,f0af54b9f601028cf503b884,(010)58443929,1,f0af54b9f601028cf503b884
星迹健身(旧宫店),39.811769,116.461344,北京市大兴区旧宫富力小区盛悦居旧桥路1号院5号楼4至5层503室,1f94188d312308ffb64f5400,(010)57226610,1,1f94188d312308ffb64f5400
玉园阁休闲健身会所,39.809622,116.460012,旧忠路12号院4号楼速8酒店B1层,943de8f1d612ddd22fb96d0e,,1,943de8f1d612ddd22fb96d0e
万氏颐运康园羽毛球健身会所,39.797636,116.452268,北京市大兴区在旧宫工业区南环路甲43号,c61bd30549bb7571c27da214,(010)87962389,1,c61bd30549bb7571c27da214
亦动健身会所,39.770606,116.517073,北京市大兴区泰河五里18号3层,6f6167fb6078d33bf02d8350,(010)67896617,1,6f6167fb6078d33bf02d8350
东霆健身(亦庄店),39.792667,116.522494,北京市大兴区荣华南路12号兴基铂尔曼饭店B1层,,(010)87228754,1,aa5ec7f48aadfc862b11d112
博康健身(金地格林小镇店),39.800463,116.502597,经济技术开发区天宝园三里111号楼1层1-1号,87baa56c1268d05ec7effb06,18710033286,1,87baa56c1268d05ec7effb06
光猪圈健身(亦庄力宝广场店),39.812025,116.508747,北京市大兴区亦庄经济开发区荣华中路力宝广场3号楼1001室,f9c60313eaf4ec9316948e3d,13901012006,1,f9c60313eaf4ec9316948e3d
倍儿酷健身会所,39.778325,116.507557,北京市大兴区好景国际2号院6号楼,,(010)57743800,1,742f0c61a8faa8c2eee4a56f
猿始部落健身房,39.796289,116.505824,北京市大兴区宝南街4号上海沙龙商业中心H015,3d3b3cd5b38e05386ca3cc39,(010)50987639,1,3d3b3cd5b38e05386ca3cc39
动力磁场健身会所,39.80898,116.497687,大兴区经济技术开发区文化园西路8号院29-33号楼地下车库-1层-110,2e6b188c431108cbaeb22a1c,(010)87797997,1,2e6b188c431108cbaeb22a1c
和禾健身会所,39.78754,116.537685,永昌南路8号D座,24f5449f1b0dc7942fb17e6c,(010)58080378,1,24f5449f1b0dc7942fb17e6c
蓝德国际游泳馆健身房,39.805567,116.50156,天华北街19号大雄商业中心B1层,410506f892ccb21fd72ce207,(010)67892280,1,410506f892ccb21fd72ce207
SPACE T健身空间(林肯公园店),39.812703,116.498431,文化园西路林肯公园C区36号楼111商铺二层(近亦庄文化园地铁站),,"(010)57288734,18515987712",1,eda1dec626555e557c29bdf6
格睿特健身工作室,39.812115,116.497945,北京市大兴区文化园西路林肯公园8号院35号楼102一楼底商,,"18310262476,18701619545",1,b2bd4f4a96afbd0f4d554737
长新阳光游泳健身会所,39.805486,116.506971,天华南街3号院长新花园别墅区,,"13910740880,18510740456",1,a9d7e81e0fb800bb22f01752
瘦米搏击健身运动工厂店,39.80123,116.517713,北京市大兴荣京东街3号,df019864476207bbd0ff23d0,15874169945,1,df019864476207bbd0ff23d0
Elite Fitness毅力特健身,39.813452,116.500415,亦庄文化园西路6号院2号楼102,,"(010)67816081,13522818103",1,be7270d7da632dc89222e051
弘赫游泳健身,39.817536,116.554535,科创东五街7号,,,1,6721ac17a60fc1c2626858e5
体革健身,39.810072,116.508235,荣华中路8号院8号楼2层206室,6d74eef764cad4169122e031,15910634776,1,6d74eef764cad4169122e031
plank私教健身工作室,39.811003,116.500445,北京市大兴区天华东路林肯公园一期c区23号楼2303,06df23a07d7c5e5e21f01749,"(010)52660374,(010)67895502",1,06df23a07d7c5e5e21f01749
伯延健身俱乐部,39.79353,116.500625,北京市大兴区卡尔生活馆南门,6ee010203c4017f653e5c5a9,(010)51065808,1,6ee010203c4017f653e5c5a9
光猪圈健身(林肯公园店),39.812024,116.500577,北京市经济技术开发区文化园西路6号院16号楼一层102,,(010)67896332,1,158c497926b2addfc8213dca
柏润健身中海会所,39.791019,116.505849,北京市大兴区地盛西路6号,42fa740a067b0f3c95ca0725,"18513866960,18201395359",1,42fa740a067b0f3c95ca0725
亦星健身工作室(国锐金顶店),39.795741,116.517014,北京市大兴区文昌大道荣华南路一号院国锐金顶A座104室,1cf5ce5d860f7dd7b320a8a0,(010)53508004,1,1cf5ce5d860f7dd7b320a8a0
磨力健身私教工作室,39.81377,116.503487,北京市大兴区亦庄林肯公园B区8号楼204,,"13811043691,18611343691",1,0144bc82550bc14ba3acc409
四季恒温游泳健身,39.800257,116.502317,北京市大兴区天宝园三里金地格林小镇111号楼1层,,18301356983,1,b8363c678f1c0dd84d3a59f8
快快智能健身(林肯公园店),39.811983,116.497607,经济技术开发区文化园西路8号院36号楼1-2层101之一层,,18618116118,1,99a8ca16e622a385b3077d6d
华御健身,39.762908,116.551942,北京市通州区马驹桥神龙潼关一区(漷马路西),,,1,3e6005ed4b98d8a88936eeb3
巨石私人健身工作室,39.791058,116.502266,经济技术开发区地盛北街1号院42号楼3层302,847d5088441e82ddc7f025af,,1,847d5088441e82ddc7f025af
博大永康社区体育健身俱乐部,39.777505,116.546718,北京市通州区康定街18号院5号楼,d4034eb36805cd88c13644a4,,1,d4034eb36805cd88c13644a4
朝林广场健身中心,39.79877,116.513019,亦庄荣华中路19号朝林广场B座5层,,(010)57396798,1,5b2be94cb1a5fe5487154193
磐狮私人健身工作室,39.790849,116.50212,北京市大兴区荣京西街荣京道A2座302,289926955cd9370f8c1a8986,"13811294782,13552818272",1,289926955cd9370f8c1a8986
速卓健身学院,39.79193,116.508446,北京市大兴区亦庄经济开发区地盛北街5号2幢3层313室,,,1,4480a63557d2fbbfd518b7aa
北京兴基铂尔曼饭店-健身中心,39.792961,116.522377,北京市大兴区亦庄开发区荣华南路12号北京兴基铂尔曼饭店,dec6f571cf73224aae045706,(010)87228754,1,dec6f571cf73224aae045706
潮庭健身,39.798224,116.518137,北京市大兴区亦庄镇大族广场t2座19楼潮庭健身,,,1,7af23a625e79ca8400ec01c8
北京千瑞健身休闲馆,39.807706,116.514195,大兴区宏达北路10号北京万源商务中心2楼C区205室,7a107881f3e3f6471fe9992d,,1,7a107881f3e3f6471fe9992d
动力街区私人健身馆,39.811103,116.501215,天华东路林肯公园B区西门18号楼底商平安银行楼上(木北造型后侧),,,1,cc73598ce8f9fa886fa3ccb8
博大永康商务酒店-健身房,39.777149,116.545675,康定街18号博大永康商务酒店1层,8257cbc0d07a322a95ca0756,(010)87855585,1,8257cbc0d07a322a95ca0756
HH微电健身空间(亦庄国锐金嵿店),39.796778,116.517607,北京市大兴区荣华南路1号国锐金嵿7号楼2806室,,18810615430,1,2121e24b2f06e6d879dbd2a1
祥源健身所,39.815269,116.551125,北京市通州区科创五街辅路,,,1,8692e86f4f20418fbea2409a
中世昱海健身中心(富兴国际店),39.809269,116.507173,北京市大兴区亦庄荣华中路富兴国际2号楼7层,,,1,1da88f9feec6172e210220d8
锦江富园大酒店-健身房,39.805841,116.509827,荣华中路11号锦江富园大酒店3层,5abe983f9cce5d4c29fc48f4,(010)67800888,1,5abe983f9cce5d4c29fc48f4
橙果健身,39.791848,116.506361,经济技术开发区地盛西路6号院BDA国际广场,,,1,ca282a0a10564ae88adb7351
来电(长新阳光游泳健身),39.804098,116.507844,北京市大兴区天华东路与天华南街交叉口东北100米,,,1,64b84bf3d611ec661ef74d56
归位瑜伽馆(林肯公园店),39.810614,116.50197,亦庄林肯公园二期南门102号,,(010)67880021,1,6895159149332c7ab6147f0e
颜婕瑜伽馆亦庄店,39.79676,116.517734,北京市大兴区荣华南路1号院国瑞金嵿7号楼104底商,,"17611259879,(010)56281081",1,551ab6ff738ec04f0e3ddaa9
有时间瑜伽,39.784411,116.525909,北京市大兴区荣昌西街8号附近,,,1,d72b3fbf2205ece2b2077d48
常乐知足健身洗浴,39.762623,116.5509,北京市通州区马驹桥镇神龙潼关二区212号,,,1,42cc426539fbd68f306212d4
简梵瑜伽(荣京道店),39.791858,116.503118,北京市大兴区荣京西街荣京道B1-114,7797e82bf13c345b4054d7df,"4008069700,(010)87520201",1,7797e82bf13c345b4054d7df
深蓝健身运动康复工作室,39.81201,116.508605,亦庄荣华中路8号院力宝广场3号楼802室,,"(010)85407871,18611219623",1,21852f525ac0cfe7601c6795
悠季瑜伽(力宝会馆店),39.81083,116.508691,大兴区荣华中路8号院亦庄力宝广场诗礼庭6号楼202室,,"(010)67868206,13910061758",1,fe4c04fd3920bafb3686f40e
锦江富园大酒店-游泳馆,39.805841,116.509827,荣华中路11号锦江富园大酒店3层,de110483fd4f210ef50e77d1,,1,de110483fd4f210ef50e77d1
北京简梵瑜伽会馆(林肯公园店),39.80949,116.498997,北京市亦庄经济技术开发区林肯公园C区26号楼,f050c1fe2238edd776e5b640,(010)87520321,1,f050c1fe2238edd776e5b640
SYS健身瑜伽舞蹈馆,39.79508,116.514629,北京市大兴区亦庄荣华南路1号院国锐金鼎15号楼B门1层105室,,13718180465,1,5bf834a6a21fa4392bb97c87
梦芭蕾(北京城乡世纪广场店),39.806952,116.54013,北京市大兴区科创五街38号北京城乡世纪广场F3,29a6df1c38058367715e8051,,1,29a6df1c38058367715e8051
北京静悠健身有限公司,39.791057,116.502247,亦庄经济技术开发区地盛北街1号院荣京道41号楼(A3座)3层305室,4b8d518c5016e4a6047ce85e,15801201589,1,4b8d518c5016e4a6047ce85e
卓越龙冠武术散打搏击健身俱乐部(亦庄店),39.802488,116.499077,北京市大兴区亦庄开发区天华西路10号楼底商2102号,,(010)67880607,1,4f8b963bee89f87f96ca07d4
丰大国际大酒店-游泳馆,39.801947,116.515067,荣华中路20号丰大国际大酒店B2层,25848846403ac6dc45e27446,(010)67518888,1,25848846403ac6dc45e27446
DHIYogaStudio,39.800173,116.502559,北京市大兴区天宝园三里111号楼金地格林小镇会所3层,,(010)67869690,1,77e24186dab0d48cbe4842af
丰大国际大酒店-康体中心,39.801948,116.515067,荣华中路20号丰大国际大酒店B2层,21f86a5bf0af44312cb9088c,(010)67518608,1,21f86a5bf0af44312cb9088c
动力街区健身会所,39.767434,116.58976,兴贸三街珠江四季悦城19号楼B1层01号(星悦国际公交站南100米),5d74bfa1c4703e08b54f54ce,(010)88778577,1,5d74bfa1c4703e08b54f54ce
金比特健身中心,39.804369,116.571372,科创九街与经海七路交叉口定海园一里11号楼2楼,,13693587401,1,16337e803eca4b2c22026281
一小时健身营养工作室(亦庄店),39.788273,116.57548,北京市通州区北京经济技术开发区亦庄开发区科创十三街18号院锋创科技园5号楼2层,5e968ec2dbd7a04e5b109309,17737372827,1,5e968ec2dbd7a04e5b109309
金石悦动健身俱乐部,39.786788,116.564482,北京经济技术开发区科创十三街29号院3号楼202,,,1,57202fea52d1b64b2f473355
蛮美健身工作室,39.798348,116.571889,北京市通州区科创十街与经海六路交叉口晶能梦谷B座603,,17777878754,1,fef09239ba71a7b5a21de9c8
百分百超市健身房,39.809572,116.576545,北京市通州区次渠南里百分百超市,,,1,a1734722b8f0fd3da8059d2e
雅俊堂健身中心,39.764142,116.56362,北京市通州区兴华中街天赐宾馆(玉林烤鸭店东北50米),fa1795d7f8bc92f4b320a85a,,1,fa1795d7f8bc92f4b320a85a
千纸坊健身中心,39.764604,116.563359,北京市通州区商业街73号,,,1,3f31522483f99708fea778b2
乐聚堂,39.764759,116.563943,北京市通州区马驹桥金马商场东(兴华中街北),,,1,7451a1ff7d86741588f15df7
北京大鲨鱼龙拳搏击俱乐部,39.809756,116.586868,次渠派出所北门(凉水河畔一号会馆),c177c72547c84c12fea778d3,18511132860,1,c177c72547c84c12fea778d3
壹健身草桥国际健身会所,39.856745,116.36496,草桥东路1号上品折扣草桥店2层,a19968b985f19d62d4851fe7,(010)67566282,1,a19968b985f19d62d4851fe7
欧尼健身(坤乐店),39.872679,116.375419,北京市丰台区开阳二街燕南大厦3层物美超市旁(物美超市),ee6a6358677653d6c4f50ddf,(010)83535155,1,ee6a6358677653d6c4f50ddf
恭圣健身中心,39.848659,116.394979,北京市丰台区马家堡东路108号院-3号楼-106号,637df60a487c166b40afe66b,,1,637df60a487c166b40afe66b
吉刻健身(公益西桥店),39.840472,116.377886,北京市丰台区角门路18号名流未来大厦B1层,,(010)87587226,1,fb5be2c6b84496aa71455b29
赫威游泳健身,39.855816,116.366514,北京市丰台区草桥东路8号院1号楼(南珠苑底商小肠陈旁),,,1,79c27a01d88c37a404fef516
壹健身光彩国际游泳健身会所,39.848099,116.420911,北京市丰台区光彩路51号联宏大厦底商49号壹健身光彩店,ec59de8056a3498488fc06fc,(010)87883200,1,ec59de8056a3498488fc06fc
斯凯伦游泳健身俱乐部,39.869448,116.377835,北京丰台开阳里15号楼昌浩商务酒店B1层,00f03110d04e2d5ba7c75619,15711025933,1,00f03110d04e2d5ba7c75619
东霆健身游泳健身中心,39.861265,116.403371,海户路珠江骏景北区东门,bd64002e4117299c40afe6d6,(010)87806366,1,bd64002e4117299c40afe6d6
隆宇国际健身俱乐部(游泳馆),39.851503,116.371966,北京市丰台区嘉和路天阳亲子广场(角门西地铁站西行200米左侧),bf179a3a06eaf983bd48426b,18518539391,1,bf179a3a06eaf983bd48426b
健酷健身,39.849353,116.371004,北京市丰台区镇国寺北街8号院-15西50米,,"15801559126,18519582450",1,91964b43a1aa8f0cb5f42ff5
环球健身房,39.851531,116.370053,北京市丰台区北甲地路10号院永辉超市2层,,13661104507,1,733f1977bc44891646e27411
力美俊游泳健身(旗舰店),39.866407,116.422389,北京市丰台区刘家窑塔园12号西岸汇商亲子生活城(B1层),dcc5886a7a4846088e772781,15011119946,1,dcc5886a7a4846088e772781
环球健身,39.840612,116.378343,"北京市丰台区角门18号枫竹苑二区2号楼3011底商(星河苑,城南嘉园,蓝光云鼎)",0af8d7f66d86d291d1f49e9a,(010)87888150,1,0af8d7f66d86d291d1f49e9a
运动游泳健身会馆,39.866444,116.398188,北京市丰台区西罗园街道西罗园二区14号楼云顶中心b1云顶游泳健身,9ab53cda97790efedbd89100,,1,9ab53cda97790efedbd89100
欧尼健身俱乐部,39.858138,116.39276,北京市丰台区洋桥马家堡东路71号院2号立业大厦3层,e4960bbde18fab8c58f6be26,(010)51165159,1,e4960bbde18fab8c58f6be26
三人行减脂健身,39.843156,116.377099,北京市丰台区马家堡西路星河苑2号苑27号楼2楼,fee0f89501ad8d8dc2f1cf0b,(010)59459021,1,fee0f89501ad8d8dc2f1cf0b
健酷健身,39.843551,116.394742,北京市丰台区马家堡东路168号海上海花园10号楼,f76f8e54bcdd9a4b970319f6,"18810583043,18519799113",1,f76f8e54bcdd9a4b970319f6
步睿克私人健身工作室(角门东店),39.847672,116.393746,北京市丰台区马家堡东路新天地写字楼A座永辉超市楼上1006室,f480e9dbffcd24a5d518b78b,(010)58032320,1,f480e9dbffcd24a5d518b78b
舒华健身.养身器材(沙子口店),39.871877,116.401133,北京市东城区革新南路盛购文体礼品中心3层,,"(010)87186868,13601385703,(010)87868461",1,2d75ad86ef130039f90cad57
187健身俱乐部(马家堡店),39.856084,116.394613,马家堡东路88号院奇迹广场4层,,(010)53347013,1,f217ebfc1d2518288e772767
IU健身(京港城店),39.846819,116.421023,北京市丰台区光彩路京港城大厦2层西区805号,eab6e23a3c9e59e0932ca3d9,"18601068379,(010)53556911",1,eab6e23a3c9e59e0932ca3d9
我型我秀健身,39.852838,116.377026,马家堡西路15号时代风帆大厦2层203,d05642fa5c0f75d23686f40b,18501169820,1,d05642fa5c0f75d23686f40b
槐房万达健身,39.819174,116.37468,北京市丰台区南苑西路41号,,,1,debd2cde203f84eb343a716d
U Fit Time健身工作室,39.860629,116.374438,北京市丰台区南三环西路16号搜宝商务中心2号楼609,671dae466ae441a2f603b872,"(010)67569260,13811006575",1,671dae466ae441a2f603b872
活荔健身,39.845756,116.420996,北京市丰台区光彩路62号,,15650709900,1,6c7b06f464bca97a4d776e53
润杰国际游泳健身会馆,39.850061,116.369062,丰台区镇国寺北街4号院6号楼,338ae3ccc24ac5eab42655e2,(010)87573209,1,338ae3ccc24ac5eab42655e2
秀动国际健身学院(北京)总部,39.866287,116.422134,北京市丰台区东铁营街道塔园12号9幢B103号，西岸汇商亲子城,63278df81bd729fac9e33c1a,,1,63278df81bd729fac9e33c1a
壹健身,39.858648,116.421247,北京市丰台区光彩路8号附近,,(010)67232456,1,b476fb77dfcfa58cadb22a17
蓝速健身,39.847588,116.394274,北京市丰台区马家堡东路自然新天地写字楼604蓝速健身,,,1,b2b406994b3e3faadb131834
BISHUIYINGCAI游泳健身俱乐部,39.86095,116.390347,北京市丰台区马家堡东路88号院西北90米,,,1,6d9bdaeebd9afec711882483
skl健身会所,39.869392,116.377805,开阳里东巷与玉林南路交叉口北100米,af3e342469e48823abf729c6,(010)57160327,1,af3e342469e48823abf729c6
北京市社区健身活动室,39.867843,116.374049,北京市丰台区玉林南路1号,64fdf09c911187654007c1c1,18811728893,1,64fdf09c911187654007c1c1
百家社区健身健康服务中心(右安门地区分中心),39.867845,116.374088,北京市丰台区玉林南路南50米,2ecda070730111b279dbd211,,1,2ecda070730111b279dbd211
海鸥健身工作室,39.841199,116.392008,北京市丰台区马家堡东路三星庄园1号院1号楼,,18866182000,1,eba137cd2c161e8d250bd059
金辇酒店-健身房,39.864107,116.389529,洋桥西里甲1号金辇酒店2层,940d73435d0eb8241e1d1186,(010)87899900,1,940d73435d0eb8241e1d1186
洋桥o2健身馆,39.859037,116.391125,北京市丰台区马家堡街道洋桥73号院1号楼3单元1102洋桥o2健身馆,,,1,68ea91fc207ee770e9f8531b
PM健身工作室,39.852566,116.377092,马家堡西路15号时代风帆大厦2层203,,,1,022f2d929301912aa5da39df
薄荷瑜伽(花园店),39.843538,116.394437,马家堡东路海上海花园10号楼7底商(南四环集美家居永辉超市),2e6396cb8a32c7b66ea3ccae,"(010)56921663,(010)87201661,13717751444",1,2e6396cb8a32c7b66ea3ccae
桔子瑜伽(公益西桥店),39.845984,116.374976,北京市丰台区星河苑2号院2号楼底商,f0372360539f4daa40e19252,18610830298,1,f0372360539f4daa40e19252
薄荷瑜伽(7克拉店),39.845742,116.392583,北京市丰台区马家堡东路121号院七克拉小区1号楼309室,ea9abf5fa8f607254f6d468a,(010)56921663,1,ea9abf5fa8f607254f6d468a
禅林瑜伽(丰台分馆),39.852549,116.376593,北京市丰台区马家堡西路15,,"18513823227,(010)89040025",1,c0f7b08b09ebaef717b54b9b
拳城热炼,39.843495,116.376934,北京市丰台区马家堡西路36号院-1西90米,,13381257377,1,1d6979d63f6f246bc61b754b
红舞鞋舞蹈(丰台校区),39.842505,116.384834,北京市丰台区西马场南里1区28号楼速八酒店的2层,00961f5825b0017940024561,4001769487,1,00961f5825b0017940024561
初馨瑜伽,39.872378,116.369516,北京市丰台区右安门外大街玉林东里二区1号楼2楼,7bd545d93a1fea9ed6b74ec7,13910311317,1,7bd545d93a1fea9ed6b74ec7
BSYC游泳健身俱乐部(东丽温泉游泳馆),39.861016,116.390207,丰台区马家堡路88号东丽温泉小区内(洋桥南),41572e00859cd6cab45f1e5e,(010)67522337,1,41572e00859cd6cab45f1e5e
槐房滚轴溜冰场,39.821068,116.389455,北京市丰台区槐房路,792eac21bf67a5c4f02d83c3,,1,792eac21bf67a5c4f02d83c3
国家体育总局-青少年体育俱乐部,39.857231,116.420613,北京市丰台区光彩路1号,57a2c35201c3fcbc2fb9087d,"(010)67211026,(010)67210769",1,57a2c35201c3fcbc2fb9087d
美树瑜伽(大峡谷店),39.860816,116.374998,北京市丰台区南三环西路16号搜宝商务中心2号楼5层,896b3bd986c52d1d79b55c2b,(010)87586742,1,896b3bd986c52d1d79b55c2b
璟点台球(槐房分店),39.822842,116.376176,槐房新村2期商业楼33号1-128室,7be4ebfd73a6fd0d0aa8d44a,(010)67937707,1,7be4ebfd73a6fd0d0aa8d44a
菩提缘瑜伽(菩提瑜伽),39.867172,116.371441,丰台区右安门外大街56号鼎立水岸家园1号楼3单元102(南二环外，南三环里),fe5a832cde7342132202209a,,1,fe5a832cde7342132202209a
恒松园瑜伽健身馆,39.864827,116.426261,南三环中路10号院恒松园游泳馆二楼,,,1,657e9221ff93f9b3c51b7582
彩虹城会所,39.845167,116.423168,北京市丰台区光彩路66号院7号楼彩虹城小区一期南门,eef2d5289e5023be3be4a613,"(010)87824026,(010)87824025,(010)87824022",1,eef2d5289e5023be3be4a613
动感单车空中瑜伽,39.851115,116.420951,北京市丰台区光彩路155号,2f9a37d1e4e418232cb17e78,,1,2f9a37d1e4e418232cb17e78
印美伽业,39.84721,116.393544,北京市丰台区马家堡东路106号院-2,,,1,64f80da6f18a0a5772210bd0
大玩家(万达广场店),39.866554,116.363423,北京市丰台区玉林西路145号万达广场F4,fd8052394759aff96ca3cc65,,1,fd8052394759aff96ca3cc65
马博士婴儿游泳(凯德MALL·大峡谷),39.86019,116.37298,北京市丰台区南三环西路16号凯德MALLF6,c6d95f301c7240547369d319,(010)87566582,1,c6d95f301c7240547369d319
街电(恭圣健身中心),39.848606,116.394911,北京市丰台区马家堡东路106号院远洋自然新天地,,,1,49a04013a75daa829e95def7
健之星生活馆,39.870855,116.379983,北京市丰台区开阳里八区7,f7336212092bad1d5fd4fe44,,1,f7336212092bad1d5fd4fe44
大红门射箭场,39.83745,116.416899,北京市丰台区东前街73号(亚联超市),,,1,37997cdc44e635d52e4733c1
马博士婴幼儿游泳馆(银泰百货（大红门店）),39.850983,116.39159,马家堡东路101号院10号楼L3-58银泰百货(三层),,15601272970,1,d273d7ac253fdcaac9291566
大红门国际会展中心餐饮客房温泉游泳,39.852912,116.407369,南苑路46号,04d42bf295768b5d4bcc4a78,,1,04d42bf295768b5d4bcc4a78
北京飞海健身俱乐部,39.843489,116.471229,北京市朝阳区十八里店吕家营15队306号,7488860053c9eb63067ce893,(010)67909119,1,7488860053c9eb63067ce893
威尔士健身会所(北京雅诗阁店),39.869134,116.483468,北京市朝阳区周庄嘉园甲33号楼负1层,a200953308196c555bf6be0e,4000524888,1,a200953308196c555bf6be0e
壹健身新坐标国际游泳健身会所,39.873722,116.451489,朝阳区方庄东路饮马井1号院新坐标小区东门(高新医院斜对面),5e152d5d5b29baa7931fc915,13716947722,1,5e152d5d5b29baa7931fc915
肌源健身俱乐部,39.868444,116.484246,北京市朝阳区西大望南路,,13370137248,1,e38be8edf2325604e81e9732
原健身,39.844412,116.45409,北京市朝阳区成寿寺路240号,,"18515899977,(010)67672772",1,6c5f24b0afe7755cbadf8fd6
TG格斗健身俱乐部,39.856329,116.44437,北京市丰台区方于路58号院一号楼底商二层,,,1,5b8b1f050f5932204d2fdfb6
尤金健身瑜伽·塑型俱乐部,39.865349,116.44885,北京市丰台区紫芳园6区3号楼底商,6e745f742b9e0a94b6147f53,(010)67669980,1,6e745f742b9e0a94b6147f53
斯迈健身(世界之花假日广场店),39.824516,116.428046,久敬庄路与德贤路交叉口世界之花假日广场4层,,(010)67969665,1,eef61563ac9bc0dfc7f50d87
鸿博游泳健身俱乐部,39.83467,116.472911,博大路小红门鸿博家园c区南门,2c2a878d563d7a09882fb5af,(010)57153008,1,2c2a878d563d7a09882fb5af
斯凯普特健身,39.862211,116.433579,北京市丰台区顺三条21号嘉业大厦二期一号楼12a09,b6c0730f90908036b42655c0,,1,b6c0730f90908036b42655c0
菲灵健身(方庄店),39.867817,116.446716,方庄桥北首开璞瑅商业中心3号楼B1(星巴克旁边),68480d7ea56d64c562685861,(010)87639272,1,68480d7ea56d64c562685861
IDUN健身工作室,39.86607,116.451233,紫芳园六区方庄6号小区2号楼北门底商(璞缇方庄桥新业广场分钟寺十里河潘家园劲松),,18614262003,1,0d840805a371f58d1894c635
Mr.X健身工作室(方庄店),39.871635,116.43894,北京市丰台区方庄浦芳路甲8号地下一层,62567acb42e1ade73a221c7d,18101097931,1,62567acb42e1ade73a221c7d
Better Fitness健身工作室,39.825469,116.436504,旧宫镇南场东街德贤公馆,,(010)67998898,1,905e33d92964137d5cd4fe0f
COSMO我健我身国际健身俱乐部有限公司,39.8649,116.434164,南三环东路23号天创盛芳中心B座6层607,da65327cf158e05c3686f49e,,1,da65327cf158e05c3686f49e
宝德龙游泳健身,39.866391,116.487748,十八里店周庄嘉园三期4号院底商,34ebc522850d4635bd48426f,,1,34ebc522850d4635bd48426f
快快智能健身减肥主题店(宋家庄17店),39.85153,116.432847,丰台区宋家庄路71号院扑满山3号楼908室,,(010)80847068,1,ed06a32f7bd2d9ed7adbd2df
极健身(鸿禧阁店),39.856421,116.427046,丰台区贾家花园15号院8号楼鸿禧阁公寓b1,bec9cedd962ff7a558109332,18611347504,1,bec9cedd962ff7a558109332
力美俊游泳健身俱乐部,39.834336,116.480849,北京市朝阳区鸿博西路华创生活广场B1楼,,13467129001,1,406c78fcdbf13f0b465726c7
观筑庭园健身会所,39.843879,116.474849,北京市朝阳区观筑庭园702,af9d2d0e20c8019851e5c563,,1,af9d2d0e20c8019851e5c563
嘉健身私教工作室,39.82493,116.439151,北京市大兴区旧宫镇南场东街2号院4号楼2层,28dc028f9e5f0f1746e27434,18310458502,1,28dc028f9e5f0f1746e27434
帝都游泳健身会所,39.863462,116.44321,北京市丰台区南方庄2号院3,,,1,76f81faa823de0ddfb2213d0
mix国际健身培训学院,39.864166,116.446185,丰台区方庄桥亚胜铂第公馆B座1810,7db8f54253706e564bcc4a80,15291450820,1,7db8f54253706e564bcc4a80
隆宇游泳健身中心,39.833247,116.472632,北京市朝阳区博大路小红门鸿博家园c区南门,4ffc75fba79409c603ff2d7b,17316058489,1,4ffc75fba79409c603ff2d7b
步睿克私人健身工作室(宋家庄店),39.851295,116.438594,政馨园三区5号楼底商(正华影城西20米地铁D口出),61a6d81b4cd881f88605bfd3,"18301038648,13681086844,17600692577,(010)58408003",1,61a6d81b4cd881f88605bfd3
XLifeFitness健身生活馆(方庄店),39.871635,116.43894,北京市丰台区方庄浦芳路甲8-12号地下一层,,18101097931,1,2529e622f13d09ac7369d3e9
步睿克健身工作室(宋家庄店),39.851586,116.438005,宋家庄政馨园三区56号楼之间底商二层,7b281c045888f5fb5a3ac8ba,(010)58408003,1,7b281c045888f5fb5a3ac8ba
迈克斯健身工作室,39.851718,116.433244,北京市丰台区宋庄路71号扑满山商城2层,eb697e58f9bb310b2811d17c,"(010)56073387,13051906669",1,eb697e58f9bb310b2811d17c
悦之兰健身,39.867157,116.483464,周庄嘉园南里1号楼宝诚1号中心附近,5d5474ac2a81dfc84e554706,,1,5d5474ac2a81dfc84e554706
梵灵瑜伽(蒲黄榆店),39.872617,116.430115,方庄蒲方路9号GOGO新世代7号楼804,,"(010)58497436,15321965171,18612712117",1,4329d809a9d13dbd84154191
好特·热温泉酒店-健身房,39.868976,116.441754,北京市丰台区方庄群星路9号,c8e1e20daa35c1d57f29bd4e,(010)67656666,1,c8e1e20daa35c1d57f29bd4e
归位瑜伽馆(方庄店),39.866119,116.451236,北京市丰台区紫芳园6区2号楼4单元底商107,d2058a50e851271228201a21,"18519680861,(010)87557216",1,d2058a50e851271228201a21
颐方园健身游泳中心,39.858826,116.454745,北京市丰台区成寿寺路甲12号,41572e00e274ffadb45f1e13,(010)67686008,1,41572e00e274ffadb45f1e13
青青瑜伽,39.866185,116.485247,朝阳区周家庄中路6号院7号楼一单元103号,6e110109558fa03c72210bbe,15718814531,1,6e110109558fa03c72210bbe
依舞舞蹈工作室,39.846699,116.456219,朝阳区地铁十号线成寿寺138号院一号楼底商,dbc93b24f0813655c7f025bd,18600181934,1,dbc93b24f0813655c7f025bd
蜗牛瑜伽(宋家庄店),39.851389,116.433388,"北京市丰台区扑满山3号楼909(地铁5号,10号,亦庄线宋家庄站H出口)",8518d07e7541bbee246e9841,"(010)67604910,18610469800,18210601955",1,8518d07e7541bbee246e9841
城外城绿色健身广场,39.824364,116.49169,小红门博大路8号,d6f8da953e31b95254bfff5f,,1,d6f8da953e31b95254bfff5f
皮尔瑜伽,39.863688,116.434587,北京市丰台区南三环东路6号嘉业大厦B座19层1902号,a076b022269c047843ab9abc,"(010)67603656,(010)67657400,(010)67654890",1,a076b022269c047843ab9abc
飞海健身俱乐部篮球馆,39.843502,116.471013,北京市朝阳区,b44ed995c589f16207026fa3,,1,b44ed995c589f16207026fa3
金玉流香俱乐部,39.874789,116.47031,北京市朝阳区东三环南路88-2号德润轩大酒家3楼,b393c8585a74ba2d0582c23e,,1,b393c8585a74ba2d0582c23e
卓越龙冠武术散打搏击健身俱乐部,39.864919,116.434007,北京市丰台区南三环东路23号院天创盛芳中心B1层,,(010)67645055,1,ae550dc5f071e2d3c9fa5f80
博康健身(红恩店),39.827565,116.522549,北京市大兴区小羊坊中路100号院,3f826ed39ca4135fd1f49e1e,(010)87397455,1,3f826ed39ca4135fd1f49e1e
海欣游泳健身(垡头店),39.866842,116.522772,北京市朝阳区化工路9号北人户外产业园内,,,1,79dfabf1d191781591114ce9
鹰凰健身,39.872784,116.511913,厚金路金蝉里22号院3号楼华侨广场,,"17710486463,18611696675",1,16397295045d0f1d79b55c94
LEFIT健身,39.863155,116.511878,垡头翠成馨园甲401号永辉超市B1,,13520875807,1,1ac9c88f7b85d31cc5effbee
壹健身,39.863119,116.510836,南杨庄路翠城馨园甲401号四楼,,,1,e832b986dc04acd340afe6be
便民健身园,39.842148,116.528729,北京市朝阳区十八里店王村路老君堂公园便民健身园,b7f0769fa250b7b971210b07,,1,b7f0769fa250b7b971210b07
慧逸游泳健身(永辉超市店),39.863252,116.511788,北京市朝阳区武基街垡头翠城永辉超市四楼,,,1,26965690d3f398892806ceb2
便民健身园,39.866378,116.547073,北京市朝阳区十八里店孛罗营小学南50米,8afe23fbf4ae57d09d9d689e,,1,8afe23fbf4ae57d09d9d689e
和成璟园游泳健身会所,39.83215,116.535451,和成璟园小区12号楼,,,1,09794e0bc6c70c38734b8783
小武基健身中心羽毛球馆,39.870675,116.497661,北京市朝阳区东四环南路大东方宾馆后门,49d959388c5e575ac61e5116,(010)67388990,1,49d959388c5e575ac61e5116
悦健身游泳馆,39.832122,116.535381,和成璟园小区12号楼,,,1,bedf32c6edf398f29f82ea89
小武基体育健身中心-游泳馆,39.870226,116.497643,小武基村231,26a68aa66a8785dad12dd659,(010)67362388,1,26a68aa66a8785dad12dd659
梵钰瑜伽(亦庄店),39.827792,116.522554,北京市大兴区亦庄小羊坊中路1号首农馨德润饭店三楼(北京八中亦庄分校、金色漫香林小区),2cd9ecc6385686a1e31103bb,(010)87334099,1,2cd9ecc6385686a1e31103bb
梵谷瑜伽(维吉奥广场店),39.872501,116.506973,北京市朝阳区金蝉西路维吉奥广场二层,65d85a8ef77dc815ce04ef83,(010)67209802,1,67d5f85da5e1a488601809f8
小武基体育健身中心停车场,39.867636,116.495434,北京市朝阳区垡头路与小武基路交叉口东北100米,49a02a7ada473e432b201a36,15810062496,1,49a02a7ada473e432b201a36
小武基健身中心-南门,39.868917,116.498177,北京市朝阳区十八里店乡小武基体育健身中心南门,668519bb943783cdece4a585,,1,668519bb943783cdece4a585
小武基健身中心-西门,39.868258,116.495578,东四环南路与东四环南路入口交叉口东150米,5f0d5b740fdda5d3eee4a504,,1,5f0d5b740fdda5d3eee4a504
小武基健身中心-东南门,39.867488,116.495523,垡头路与小武基路交叉口东北100米,dcf23eaf06dd3017b13c81bd,,1,dcf23eaf06dd3017b13c81bd
小武基体育健身中心停车场,39.869734,116.498008,北京市朝阳区东四环南路欢乐谷公寓一号院东100米,f6ed4a33bed975dcd13ce37a,,1,f6ed4a33bed975dcd13ce37a
小武基健身中心-西北门,39.868278,116.494422,东四环南路与东四环南路入口交叉口东150米,3b37af4c9205a6718bb9881a,,1,3b37af4c9205a6718bb9881a
朝阳区青少年体育俱乐部(大东方温泉酒店东),39.87005,116.497927,东四环南段小武基桥北小武基体育健身中心附近,,,1,d76c6ab227a6b8683fe231ce
蚁然健身工坊,39.824265,116.593621,北京市通州区东石东四路附近,,,1,94955f6143cbf49aa8f72982
富力又一城朝丰家园游泳健身,39.858371,116.571983,北京市朝阳区天达路朝丰家园小区北门,e24175cec9e857d02bb97c41,,1,e24175cec9e857d02bb97c41
乐刻健身,39.852507,116.562219,豆各庄镇富力又一城C区西门2号公寓楼下,,,1,5aeeff9a6bf6a5f3cbfa5f56
富力又一城健身中心,39.8531,116.567214,北京市朝阳区东五环富力又一城B区会所内(近黄厂路),53a20b8b89dc9efeab175a81,(010)59640077,1,53a20b8b89dc9efeab175a81
WYL健身工作室,39.821837,116.585865,北京市通州区台湖镇泰禾一号街区18地块1号楼906,,,1,0cbf002c294d4af440e19236
青青游泳健身,39.871005,116.582628,北京市朝阳区青青北街,,,1,0d3658bb03eb91216c3e1be4
玩儿健身综合训练馆,39.860788,116.5577,黄厂路3号院附近,,"18301539709,13701037100",1,c472f60d91b2ecae4151c002
阳光国际游泳健身会所(朝丰家园店),39.858491,116.572221,北京市朝阳区天达路朝丰家园8号院25号楼1层101号,4d6a7de221696de75abbbcd6,(010)56241572,1,4d6a7de221696de75abbbcd6
长安俱乐部,39.913687,116.415476,北京市东城区建国门街道东长安街10号,cc788fde778ddf9389fc06bb,(010)65229988,1,cc788fde778ddf9389fc06bb
威尔士健身(东方新天地),39.915908,116.420286,北京市东城区东长安街东方君悦大酒店西侧建筑平台层,b65eabbf857eb85e4c6d46e0,(010)85181816,1,b65eabbf857eb85e4c6d46e0
一兆韦德健身房,39.915174,116.377137,北京市西城区华远街19号楼-地下1层,,(010)58518266,1,c869bba91c07c7f8e21103d7
乐刻健身(新世界百货店),39.902788,116.423557,北京市东城区崇文门外大街8号新世界百货F3,161368534d56afcff7eafcf1,,1,161368534d56afcff7eafcf1
中健银座健身(王府井店),39.921317,116.420053,金鱼胡同王府井东街8号澳门中心B1层,,(010)58138068,1,674075a00ee1d43d2b3a9f22
健身房,39.899622,116.381594,北京市西城区宣武门外大街32富卓商厦4层,108b1cea94080bb53586f41b,(010)63022888,1,108b1cea94080bb53586f41b
青鸟健身(长椿街店),39.905832,116.367191,宣武门西大街127号大成大厦3层,1a6797d62884a3f25abbbc78,(010)66416499,1,1a6797d62884a3f25abbbc78
健身房,39.881754,116.378919,北京市西城区清芷园12号楼底商微客酒店地下一层,d8b186e3fe4c5b3584154151,"(010)63585790,17801155464",1,d8b186e3fe4c5b3584154151
青鸟健身(百盛店),39.914721,116.364512,西城区复兴门内大街101号百盛大厦10层,9f97b1c5b749bf1fb64f541a,(010)66012008,1,9f97b1c5b749bf1fb64f541a
思搏特健身会所(牛街店),39.892616,116.370699,牛街16号绿叶宾馆地下一层,5bc7177e98f3b3204251c009,(010)63511872,1,5bc7177e98f3b3204251c009
力禾健身俱乐部,39.922223,116.418671,北京市东城区王府井大街88号银泰8楼,084f35e8b84e0a8cd92f28ac,(010)56255578,1,084f35e8b84e0a8cd92f28ac
大白鲨健身俱乐部,39.891104,116.391109,虎坊路17-11号(虎坊路陶然北岸金盘子隔壁),3a522ffb91f4ff838415410b,,1,3a522ffb91f4ff838415410b
力动健身工作室(磁器口店),39.900499,116.424765,北京市东城区崇文门外大街11号新成文化大厦A座3层313,38957f474554cf2bb34c4905,(010)67085220,1,9253a3bd424143a8bbbd63c3
东霆北极星健身中心(sogo店),39.902425,116.381792,北京市西城区宣武门外大街8号,,(010)51078907,1,a4853aeee611a1a714b54b25
光猪圈健身(中海地产广场店),39.876717,116.39658,北京市东城区永定门西滨河路8号院中海地产广场1层,,13668659055,1,f55aec6dc2cd391a46572638
优嘉健身,39.930087,116.424239,北京市东城区东四南大街8号3楼,,15910518161,1,2e4a5866ba620f31c03644b1
超级猩猩健身(西单老佛爷全能店·动静店),39.920204,116.381291,北京市西城区西单北大街110号老佛爷百货B1层17-18号,,,1,52c7a1fcc573b6a4f8dc8535
万博阳光国际游泳健身会所,39.87758,116.37245,北京市西城区右安门内大街72号万博苑小区内(近右安门立交桥东北),d53b606c51ebe9055fd4fe9a,(010)57280227,1,d53b606c51ebe9055fd4fe9a
世豪健身俱乐部(新世界一期店),39.904601,116.424156,北京市东城区崇文门外大街3号新世界百货F5,24d0550861e852b612882417,,1,24d0550861e852b612882417
汉跃健身工作室,39.92493,116.36255,北京市西城区阜成门南大街9-5号,6e749c4d8c8b99c1c4f50d01,15810785416,1,6e749c4d8c8b99c1c4f50d01
U-Vista优维斯塔健身工作室(金融街旗舰店),39.9279,116.371919,北京市西城区太平桥大街8-9号,faf2a2e5a98d3608e5e9659b,"15901300870,(010)57189775",1,faf2a2e5a98d3608e5e9659b
锋范健身,39.910071,116.364524,北京市西城区复兴门南大街2号天银大厦B座,58341079b8782f58841541d0,(010)66415628,1,58341079b8782f58841541d0
力美乐健身工作室(金融街一店),39.922894,116.372432,北京西城区太平桥大街丰融园15号楼丰侨公寓底商30-36,,"(010)58542100,15801551965",1,31703c4ad55104849fec2b65
力骏健身,39.899102,116.385218,西草厂街椿树园奥运社区17号楼二层公寓A231号,1c5d6aa895325b39efdfca46,18810776455,1,1c5d6aa895325b39efdfca46
光猪圈健身(月坛中心店),39.919891,116.362035,北京市西城区月坛南街1号院金融街(月坛)中心B1号楼118-119室,,13161825268,1,891a5a7b37c9eb30306212e5
Gustaf高端私人健身,39.892467,116.382935,北京市西城区后兵马街17号,,"18510239895,(010)83403061",1,a230627240937e9bb817e75f
BESTLIFE健身工作室,39.918231,116.368647,北京市西城区复兴门金融街金宸国际公寓2号楼3单元805室,f88c2140ec7c82480582c250,"(010)66570140,13552889669,(010)66014244",1,f88c2140ec7c82480582c250
东方泰悦健身俱乐部,39.894144,116.368265,北京市西城区白广路德泉胡同8号,bf29b7025858688009b93a18,(010)63553330,1,bf29b7025858688009b93a18
拿铁帮·健身工作室(陶然亭店),39.889665,116.388657,北京市西城区南横东街5-12号,,15101618581,1,3bc0851851fdcff42fb17eac
玄武游泳健身俱乐部,39.883395,116.362705,北京市西城区白纸坊西街22-5号,,17710300210,1,18884b213e41574a14948ea0
体育科代表散打搏击健身俱乐部,39.886939,116.396446,南纬路38号院3楼底商103(龙文学校旁边),,18515566815,1,4adbccd95291d7c31d5800d2
郭江龙健身工作室(金融街1店),39.92376,116.373013,太平桥大街丰侨公寓1层5号,,15810705656,1,55977010bcad256088db7396
鑫健身私教健身工作室(金融街店),39.924963,116.364257,金融街洲际酒店6层,,13520919989,1,207a9c3e06a75a81f50e77dc
Keepland运动空间(合景·摩方购物中心店),39.905702,116.423778,北京市东城区崇文门外大街1号摩方购物中心F3,,,1,f62fad639f9eb5ca725e8087
运尚健身私人教练空间(金融街店),39.910282,116.36812,闹市口大街1号长安兴融中心南楼3号楼304,25adf91aad588d1af603b8ba,18210767560,1,25adf91aad588d1af603b8ba
新开的健身房游泳馆(长椿街),39.901742,116.374573,康乐里6号楼,739a5f0d246bdfb746e274ad,18612175130,1,739a5f0d246bdfb746e274ad
T健身运动生活会馆,39.910044,116.389682,北京市西城区西绒线胡同新华街北街昌盛大厦负一层,,,1,59165524e72d28be02897216
成名健身,39.915231,116.378566,北京市西城区民丰胡同31号-516室,,,1,a1c6212feec22f84c236447f
DreamFit健身馆,39.890341,116.382371,中信城锦园一期四合院后5-2号,,"(010)83985995,18511339125,18601359799,(010)83140480",1,f3a4d10f6f973340b45f1eca
浩沙健身(王府井店),39.922968,116.417168,北京市东城区王府井大街201号天元利生体育商厦1层,2800daf6ad14d639c42ba162,,1,2800daf6ad14d639c42ba162
信息大厦专业健美中心,39.895653,116.362521,广安门内大街315号信息大厦,53826f3a4c9aba5908ccdd2e,(010)63691243,1,53826f3a4c9aba5908ccdd2e
青鸟体育(百盛店),39.914151,116.365207,北京市西城区金融大街37号百盛大厦6层,200320afef7d0d37b45f1ebe,,1,200320afef7d0d37b45f1ebe
金鱼池小区-健身园,39.894717,116.414869,北京市东城区天坛路与金鱼池中街交叉口东北(金鱼池中区内),b7ad84437b4517ef54bfff19,,1,b7ad84437b4517ef54bfff19
私体动能体能训练中心,39.898999,116.384147,西草厂街宣武门沃尔玛东侧二百米椿树园十五号楼底商(千禧园球迷餐隔壁四合上院北门对面),59cd3ccbdc4aa2efadcb6609,"13810883214,13311090596",1,59cd3ccbdc4aa2efadcb6609
清芷园会所,39.878403,116.379571,北京市西城区育新街47号,ac31d0f4d84a551185420e5a,(010)83504501,1,ac31d0f4d84a551185420e5a
北京饭店诺金健身中心,39.915085,116.415627,东长安街33号,,,1,9b9d2cab3e6b74aac61b7526
SGFitness超体健身工作室(崇文门店),39.903195,116.419885,北京市东城区崇文门东兴隆街58号Mix北京汇B101,,(010)56025178,1,f3d16a7bc3777747882fb5ad
先农坛体育场-健身房,39.879711,116.40345,先农坛路11号,fc07cdd50c8e1c371d38944f,(010)63010061,1,fc07cdd50c8e1c371d38944f
首都大酒店B座-健身房,39.907735,116.415894,前门东大街3号首都大酒店B座1层,5c296eed84ebe631eedfcaee,(010)58159988,1,5c296eed84ebe631eedfcaee
北京好久不见健身房,39.924943,116.416583,王府井大街99号世纪大厦B516,e74960eed7dec354eb56fa78,13020002789,1,e74960eed7dec354eb56fa78
北京金茂万丽酒店-健身中心,39.927501,116.416742,王府井大街57号北京金茂万丽酒店6层,5dfb7b97bf6578431b94c659,(010)65208888,1,5dfb7b97bf6578431b94c659
北京贵宾楼饭店-健身中心,39.914931,116.413601,东长安街35号北京贵宾楼饭店3层,92b806d20a1401e779b55cd2,(010)65137788,1,92b806d20a1401e779b55cd2
东ting健身新店开业,39.888488,116.380019,陶然亭,1a4610bb5742b58c8bb98885,,1,1a4610bb5742b58c8bb98885
LEFIT健身,39.898889,116.422379,北京市东城区珠市口东大街2-14号附近,,,1,eb6e1519a32ccd4d931fc9b0
新侨诺富特饭店-健身中心,39.907731,116.423222,崇文门西大街1号北京新侨诺富特饭店7层,c8b5cdefef79da1a130daa16,(010)65133366,1,c8b5cdefef79da1a130daa16
北京广州大厦健身中心,39.917391,116.382475,横二条甲3号广州大厦3层,e85e252727b7964a95f08c13,(010)58559988,1,e85e252727b7964a95f08c13
边锋睿健身,39.901493,116.374565,宣武门外大街88号海格国际大厦,,"13121059510,17600998620",1,97a8dc6e0432841a028972bb
华侨大厦-健身房,39.929752,116.417744,王府井大街2号华侨大厦3层,13b4d9d8d15ebc0cca1b95ec,(010)58169999,1,13b4d9d8d15ebc0cca1b95ec
北京速健奇迹SEMS健身加盟总店,39.926259,116.409586,北京市东城区骑河楼街33号二楼,,,1,69dfee84392dd2c78505bfbd
北京梦雨之恋健身中心,39.888279,116.391757,北京市西城区南华里1,828cd93dea433a1ceb56fabe,,1,828cd93dea433a1ceb56fabe
北京饭店-健身房,39.915246,116.41666,东长安街33号北京饭店E座2层,9b01fe75e6b033f8d81318b1,(010)65137766,1,9b01fe75e6b033f8d81318b1
远洋酒店-健身房,39.922666,116.423973,东四南大街189号远洋酒店,7c15d16ab7eab914d72ce2b4,,1,7c15d16ab7eab914d72ce2b4
北京市人力资源和社会保障局健身房,39.879689,116.396743,北京市西城区永定门北京市人力资源和社会保障局,a0d7254051453fda704b8746,,1,a0d7254051453fda704b8746
私教健身,39.903277,116.419612,东兴隆街58-4号附近,5fc5b266305d8af5a1a934d7,,1,5fc5b266305d8af5a1a934d7
Oscar Fitness团操健身馆,39.9213,116.423924,北京市东城区东单北大街1号国旅大厦4层404,,,1,85ff317ec3525644fe0eb05f
易倍健身,39.890903,116.390984,北京市西城区虎坊路21-2号,,,1,4b6a1987ba9fd00c2e4733ff
前门建国饭店-健身房,39.892913,116.392254,永安路175号前门建国饭店2层,0550bdfc63f4893925e0a0e1,,1,0550bdfc63f4893925e0a0e1
西城区环球财讯中心ifitt健身,39.90433,116.379537,北京市西城区上斜街30号附近,,,1,3b6da0cc3dc007878f55ec10
中央音乐学院-教职工健身中心,39.908023,116.365901,鲍家街43号院筒1,faeb8d0c282536f028b97c3c,,1,faeb8d0c282536f028b97c3c
励骏酒店-健身中心,39.921147,116.425282,金宝街99号/92号励骏酒店,187d46a32883938614b54b6f,(010)85113388,1,187d46a32883938614b54b6f
候鸟健身游泳私教工作室(王府井店),39.924281,116.418461,"王府井大街50号5层(近天元利生体育商厦,天主教堂北侧,王府井海港城对面)",,15652839686,1,77c57b587d0a4abdb04c4924
PURE YOGA(王府中環店),39.918796,116.415752,北京市东城区王府井大街269号王府中環F3,,(010)65280990,1,a5f0d3169989bdb682a12e72
良子健身(王府井店),39.921496,116.421222,金鱼胡同18号丽苑公寓东侧二楼,49a02a7a04a95c592a201ab7,(010)65220570,1,49a02a7a04a95c592a201ab7
keepland运动空间(复兴门百盛店),39.914741,116.364891,北京市西城区百盛购物中心复兴门店北楼三层,,,1,5362855dc5f8d2e44afc8dd6
湘莱茵尚城健身休闲会所,39.890274,116.388317,南横东街粉坊琉璃街162-1,e8a11c080c2fd58fc356ac5f,,1,e8a11c080c2fd58fc356ac5f
和一莲瑜伽,39.892343,116.384839,北京市西城区果子巷3号院中信禧园南区底商1-10,d94576962c420d7a36b06cca,,1,d94576962c420d7a36b06cca
梵灵瑜伽(崇文门店),39.903728,116.422171,东兴隆街新怡家园4号楼5单元302,0828c78ba7f013f3fda778e4,"18612712117,17710800278,18612712117",1,0828c78ba7f013f3fda778e4
斯日昆舞蹈健身俱乐部,39.902796,116.425806,搜秀城三楼,,,1,a513d9a4408c9492bca822b5
天桥社区体育健身俱乐部,39.890551,116.403127,北京市西城区北纬路7号,5ccd95b5a06dab048d7727f2,(010)83135437,1,5ccd95b5a06dab048d7727f2
乐刻运动健身(磁器口店),39.898872,116.422266,北京市东城区珠市口东大街2号,,,1,a66f7f8577b8c8a34354d7b3
尚动空间健身私教工作室(王府井店),39.921509,116.420972,北京市东城区金鱼胡同18号附近,,,1,53eeee2916368b46cc06a4a7
北京王府井希尔顿酒店-健身会馆,39.920732,116.419756,北京市东城区王府井东街8号北京王府井希尔顿酒店6层,5a6a7373dd465ce30ab93a67,(010)58128888,1,5a6a7373dd465ce30ab93a67
首都大酒店-游泳池,39.907735,116.415894,前门东大街3号首都大酒店A座1层康体中心内,75036835e80eceb65e0d0213,(010)58159988,1,75036835e80eceb65e0d0213
拳心拳力搏击健身俱乐部(陶然亭店),39.885768,116.394341,北京市西城区太平街富力摩根中心E座521室,2ca7831ecf1e3779cb213d43,"13811372363,(010)59361685",1,2ca7831ecf1e3779cb213d43
北京健身气功协会,39.886763,116.42623,天坛东路13号天坛体育中心院内北京市体育社团办公中心二楼,,,1,4fe626d0e863d35a9f09f732
瑞克斯健身俱乐部-台球房,39.893361,116.380099,菜市口大街1号院2北京开元名都大酒店大堂顶层瑞克斯健身俱乐部,c918716bdb7b3ddf38e4a629,,1,c918716bdb7b3ddf38e4a629
立洋DANCE,39.906175,116.419049,北京市东城区北京市东城区东打磨厂街7号新世界百货B1,,,1,b024daad61b881d4cac3dbc5
好美体健身会街舞(HIP-HOP)培训班,39.921355,116.410127,东华门大街62号东华门文体中心B1层,101bc61b7fa9e8bac42ba10c,(010)65262503,1,101bc61b7fa9e8bac42ba10c
来电(奥瑞莱健身俱乐部西单店),39.917254,116.381676,北京市西城区西单北大街西单新一代商城5层,,,1,6ab5041de68618e9f603b802
北京贵都大酒店-乒乓球室,39.895677,116.374015,广安门内大街217号贵都大酒店B1层,72f948bda33a001be115f9eb,(010)51979888,1,72f948bda33a001be115f9eb
北京国际艺苑皇冠假日酒店-健身中心,39.925404,116.417998,王府井大街48号北京国际艺苑皇冠假日酒店,34e485088948dbfbd8d89113,(010)65133388,1,34e485088948dbfbd8d89113
正心馆,39.917991,116.381785,北京市西城区堂子胡同9号新一代商城五层奥瑞莱健身俱乐部内,d0fb274d812de38bab059df2,,1,d0fb274d812de38bab059df2
摩根大古游戏体验中心(apm店),39.921411,116.41911,王府井大街138号北京APM4楼,,,1,49f7e57cab388b8e6e4760ac
北京东方君悦大酒店-商务中心,39.916069,116.420894,东长安街1号,c76b18c6184aeda8b6147fc2,"(010)65109708,(010)85181234",1,c76b18c6184aeda8b6147fc2
京泰龙国际大酒店-商务中心,39.898422,116.406578,珠市口东大街19号京泰龙国际大酒店1层,f42d5e195c28be2c6f47608c,(010)67075888,1,f42d5e195c28be2c6f47608c
南京大饭店-商务中心,39.920807,116.41525,王府井西街5号,ce634ce4e53ef461a2046414,"(010)65223939,(010)65262188",1,ce634ce4e53ef461a2046414
东霆健身(阳光100店),39.918887,116.481513,朝阳区光华路2号阳光100国际公寓B1楼(近温特莱中心),43b7e8890c09ce7359f6beaf,,1,43b7e8890c09ce7359f6beaf
金吉鸟健身会所(老番街店),39.92723,116.447799,北京市朝阳区怡景园3号公寓,ca002a4b529c2dbf4d776eee,,1,ca002a4b529c2dbf4d776eee
良子健身(潘家园店),39.88163,116.453768,北京市朝阳区潘家园南里27号楼漪龙台大厦一层,f2a9556797e13554fe0eb0fe,(010)87708607,1,f2a9556797e13554fe0eb0fe
壹健身健身俱乐部,39.911237,116.45526,永安里甲3号,f1f1f3e463d28717dc1e5250,13699146030,1,f1f1f3e463d28717dc1e5250
呐咓运动生活体验馆,39.908681,116.476016,北京市朝阳区百子湾路33号6号楼万利中心,22a1c915dfef4759ad31e518,(010)56919973,1,22a1c915dfef4759ad31e518
乐刻运动健身(兆泰馆),39.925416,116.442495,北京市朝阳区朝外西街3号E幢兆泰国际中心一楼底商(外交部南侧),,,1,ce738cd8e69ead34704b873c
良子健身(珠江帝景店),39.894576,116.485485,北京市朝阳区广渠路28号院-215号,4a805063b0b6b7df9cf779d6,(010)69108558,1,4a805063b0b6b7df9cf779d6
乐刻健身(沃尔玛店),39.928776,116.451151,北京市朝阳区朝阳门外大街12号,76afafe3e108194db04c49dd,15010269931,1,76afafe3e108194db04c49dd
良子健身(国贸店),39.914652,116.461183,建国门外大街3号京伦饭店一层,ff7ceda8b2eb4f78af080f1d,(010)65856588,1,ff7ceda8b2eb4f78af080f1d
良子健身(京粮大厦店),39.906136,116.469099,北京市朝阳区东三环中路16号京粮大厦5层,69130523dac2cb11725e8075,(010)65575555,1,69130523dac2cb11725e8075
美菲特健身,39.917492,116.487832,建国路89号华贸会所19号B1,d0b8923fd8b438fbb5f42f04,(010)85888383,1,d0b8923fd8b438fbb5f42f04
宝力豪健身俱乐部(中粮广场店),39.913459,116.436392,建国门内大街8号中粮广场B2号,998e469fc0e593eb4f6d468b,(010)65222008,1,998e469fc0e593eb4f6d468b
壹健身游泳会所(首府店),39.902507,116.486623,北京市朝阳区西大望路甲20号院3号楼复地首府北门,1681815f4e1c3755626858ba,"(010)58706934,18510856668",1,1681815f4e1c3755626858ba
wings团操健身工作室,39.903213,116.46504,双井富力城B区天力街一号(中国银行旁),,13718695845,1,21010b1308dc8359fe0eb083
宝力豪健身俱乐部(IFC店),39.913241,116.459738,建外大街甲8号国际财源中心B1楼,63dfe1fc7e353f3aafee7a14,(010)85660826,1,63dfe1fc7e353f3aafee7a14
菲灵健身(名敦道店),39.897683,116.452776,东城区广渠门外南街广渠家园18号楼(近广渠门桥),e7a49ab2919f2d972b201af1,15201380053,1,e7a49ab2919f2d972b201af1
超级猩猩健身(国贸全能店),39.917377,116.466131,北京市朝阳区建外大街一号(一期)9号楼共享际国贸东楼1层10号楼L103单元,,,1,6dbf7df041e5cea9c33644e7
快快智能健身(双井富力城店),39.90285,116.459777,朝阳区广渠门外大街双井富力城5号院29号楼一层商业09室,7a84fccbfd7974ea1fe9992b,,1,7a84fccbfd7974ea1fe9992b
良子健身(红庙店),39.922803,116.484041,北京市朝阳区金台路新15号楼底商,1265ae233fa6b6ccd22dd686,(010)85996075,1,1265ae233fa6b6ccd22dd686
金吉鸟健身(尼奥店),39.901397,116.442492,东花市南里东区尼奥大厦2楼和3楼,7635e4192cd6276f2806ced1,,1,7635e4192cd6276f2806ced1
光猪圈健身(建国门店),39.910355,116.440695,北京市东城区北京站东街北京万豪中心D座B1层01单元,,17600086215,1,fb3e898199e8b6e8ad31e59c
乐刻运动健身(阳光100优客工场店),39.918908,116.481301,北京市朝阳区光华路2号阳光100国际公寓D座B1层,4b0b3cbb26856a4a2102207d,,1,4b0b3cbb26856a4a2102207d
平衡健身(新瑞大厦店),39.927314,116.46027,北京市朝阳区关东店大街17号,,(010)86465557,1,338a4733d9625ee3aeb22af7
RawFitness,39.91587,116.478035,建国路93号万达广场7号楼B101,,,1,d3313e7213017ae65fbe867c
国家体育总局-训练局健身中心,39.889624,116.434715,北京市东城区体育馆路甲2号,bb1d38e47d933b540c0a7017,(010)87183405,1,bb1d38e47d933b540c0a7017
丽舍服务公寓-健身房,39.910575,116.449881,建华南路17号北京艾丽华丽舍服务公寓,4b1da5c48a0843c3d23ce349,,1,4b1da5c48a0843c3d23ce349
康雅健身(华威店),39.87553,116.478469,朝阳区松榆南路38号(美景东方小区东门京体游泳馆旁),8c58e34ec998f3c44e776eaf,,1,8c58e34ec998f3c44e776eaf
自健身(银河SOHO店),39.926675,116.438797,银河SOHOB座1层20117-20119号,de85227af5247cfe72455b3b,13520017354,1,de85227af5247cfe72455b3b
厘米健身(双井店),39.90256,116.478954,北京市朝阳区百子湾南二路76号院5-9号,44daa0648d849937bea2403d,18519051657,1,44daa0648d849937bea2403d
佰伦斯健身(国贸店),39.920266,116.477768,朝阳区光华路15号院3号楼6层康乐区,0e0cc3667cfe78b8b34c4945,15652088097,1,0e0cc3667cfe78b8b34c4945
跑步猫体能训练中心,39.919448,116.457975,北京市朝阳区光华路SOHO二期A座西入口下沉广场B28(世贸天阶),c56b9e73e135d99bb04c4947,(010)59007139,1,c56b9e73e135d99bb04c4947
能量虎健身,39.929186,116.438079,北京市东城区北竹竿胡同38号西南60米,,,1,6af82d4fb8b9aadf72455bd7
壹健会(现代城店),39.913072,116.481443,建国路88号号院10SOHO现代城D座3层,,(010)52668575,1,8decf25ee4e1fff7d618b7f4
lifegym健身私教工作室(潘家园店),39.884678,116.465496,北京市朝阳区潘家园华威北里23号楼创享空间307室,151dd83667e02f79725e80ce,18610921812,1,151dd83667e02f79725e80ce
RowClub 船屋,39.912612,116.459784,北京市朝阳区建外SOHO西区18号楼2806室,9b5b91360d25bb3a4054d720,,1,9b5b91360d25bb3a4054d720
北京隽体(DNA)健身私教工作室国贸店,39.911049,116.462019,朝阳区东三环中路39号建外SOHO西区15号楼2楼1551室(近国贸地铁站D出口),4edf9fbf5f6de68dcc06a419,"13001055023,(010)58691607",1,4edf9fbf5f6de68dcc06a419
大卫山道国际健身(大望路店),39.895969,116.485003,北京市朝阳区西大望路23号b1,c801bea34d01b86eafee7a05,(010)56157962,1,c801bea34d01b86eafee7a05
凹凸秀健身(崇文门店),39.905372,116.427902,"国瑞北路78号底商(新世界,搜秀,东单,国瑞城,枣园,新景,广渠门)",c8327b7435724a71fbf0cb8f,"(010)56218323,18801080500",1,c8327b7435724a71fbf0cb8f
健身房,39.923074,116.459803,北京市朝阳区东大桥路8号SOHO尚都南塔3层2335-2338室,,"13910182233,13520960601",1,20fab5d82e39fe4b861541a1
肌肉狗健身房,39.92632,116.458499,北京市朝阳区东大桥宫霄国际B2,ba71f26ea9fea116bda24029,,1,ba71f26ea9fea116bda24029
super hero健身工作室,39.925295,116.461069,朝外SOHO.B座3层03017、03018室乘B座电梯(直梯)达3层,0eb86d32bec244b62a201a84,(010)59001231,1,0eb86d32bec244b62a201a84
奥斯特国际健身会馆,39.904702,116.486886,北京市朝阳区西大望路19号院北门,52f9e685e491dadaab0dd890,(010)87756989,1,1eeed546a7819cebb5147f42
君力健身,39.923019,116.447036,北京市朝阳区日坛路一号日坛宾馆君力健身,,,1,b5bc8574e1eb789c2fb90879
健身房,39.923192,116.443355,朝外街道外交路南街京华豪园底商108号,c8cf304e88de2e414d55475e,13810855213,1,c8cf304e88de2e414d55475e
SFITNESS倍力健身(朝阳门店),39.929567,116.432986,朝阳门南小街北京Inn8号楼A座317室,,,1,1bb80a42495a8c269ce32112
北京嘉里健身,39.919696,116.465523,北京市朝阳区光华路1号嘉里商场F2层,,,1,2488c4cd677dfde01188241c
OriginAir原气健身私教工作室(0801国贸店),39.911341,116.464783,北京市朝阳区东三环中路39号建外Soho东区8号楼0801、2801室,e0ffad0897ed113646e27488,(010)57218895,1,e0ffad0897ed113646e27488
荣耀健身,39.899927,116.433303,北京市东城区新景家园东区南门16号楼底商,,,1,fa28b4f8214b2158167643e4
能量健身(1527店),39.9104,116.459513,北京市朝阳区建外soho西区15号楼二层1527,,"15911000109,15010605625",1,54fdacf6acf8759c902ca371
古德菲力健身预售处,39.914656,116.457988,贵友大厦1楼,,(010)65629322,1,df2f51e6c17d3b67100daa43
内衣健身俱乐部,39.924735,116.459135,北京市朝阳区北京市朝阳区东大桥路８号SOHO·尚都F4,187e18be69846587f7e73b78,18601964346,1,187e18be69846587f7e73b78
华强康体健身,39.930719,116.444823,北京市朝阳区华普大厦b1层,7922dcac4144b3782afc4876,(010)65801168,1,7922dcac4144b3782afc4876
爱尚健身游泳培训中心(圣世一品店),39.931406,116.465277,北京市朝阳区向军北里白家庄西里5号院圣世一品小区,77b878291b22df9629fc487f,,1,77b878291b22df9629fc487f
24小时健身房,39.893139,116.482835,北京市朝阳区西大望路63号传奇生活广场外商1层,e8355ca65ae8437e43e192c9,,1,e8355ca65ae8437e43e192c9
派立斯游泳健身(广渠门店),39.897857,116.437062,北京市东城区广渠门内大街36号,,,1,2b0e1b3cdab6df32a2a93477
拳心拳力搏击健身俱乐部(劲松店),39.886177,116.4684,北京市朝阳区农光南里1号龙辉大厦13层1304室,,"13321156135,(010)67336880",1,a212262e4f6157763913fd41
凯旋国际健身会,39.905421,116.465373,双花园南里3区十三号楼底商,,,1,fc9c1286aef92c9dca09f0fb
锐博恩,39.89901,116.443429,北京市东城区广渠门内东方财富1楼107(地铁7号线广渠门内站D口往东50米),,13521062081,1,f0a80685c95f08944251c01a
骏.长安健身俱乐部,39.877408,116.464708,北京市朝阳区华威里27号,552a30125b7cb0bb95f08c3d,,1,552a30125b7cb0bb95f08c3d
壹健身游泳健身(凯旋店),39.905773,116.4653,东三环中路合生国际12号楼底商,,15810986208,1,b58649a1ae99289b87330473
较真健身工作室,39.906133,116.490857,北京市朝阳区后现代城B区4号楼C单元407室,,18600818579,1,330f6839bbcc15450f0a70c2
keepland(财富购物中心店),39.923306,116.466307,北京市朝阳区北京市朝阳区东三环中路7号财富购物中心F2,,,1,f9a4077ecadfc9188415415c
TimeFitness健身,39.898487,116.444433,北京市东城区广渠门内大街长保大厦B1号,,18610291217,1,212d671818f00246d518b751
LEFIT乐刻健身(新世界百货店),39.915001,116.479556,北京市朝阳区北京市朝阳区建国路93号新世界百货F4,,,1,4cdb80356f71c3874afd3fe6
V Lines Fitness(京广桥店),39.926891,116.470243,北京市朝阳区东三环北路院安联大厦负1层,986ed10461a96e9ed518b789,(010)59412996,1,986ed10461a96e9ed518b789
青绳国际健身(国贸店),39.906233,116.471171,北京市朝阳区黄木厂路1号院御宸上院1号楼底商,,(010)58984452,1,92ecdb7da389420f59bbbc53
适能健身工作室,39.930207,116.427145,北京市东城区朝阳门内大街288号院1号,c71f22f8761c528c631c67e9,"13811195001,(010)85173993",1,c71f22f8761c528c631c67e9
悦动汇,39.915956,116.479525,建国路93号院15号楼二楼225,be2f09b11c6ef483eb56fa19,,1,be2f09b11c6ef483eb56fa19
ClubLENZ游泳健身俱乐部(西大望路店),39.895922,116.484986,西大望路23号珠江帝景西门朝阳合生财富广场B1层,,(010)56157962,1,8c7638717c875c2d8605bff6
冠逸健身,39.913714,116.428296,北京市东城区建国门内大街26号-新闻大厦b1,cb684cd92458dec4725e80a2,"(010)65297152,15059796595",1,cb684cd92458dec4725e80a2
北京快乐方舟健身休闲俱乐部,39.902477,116.442318,北京市东城区东花市南里东区4号楼-1层BF10号,87ab2afbf00e3780ca291502,(010)87103676,1,87ab2afbf00e3780ca291502
TIGER健身工作室(潘家园店),39.886187,116.468429,北京市朝阳区劲松地铁站北行500米龙辉大厦1001,,13810796622,1,a140f47b8e49400c2ad7ab15
赛格欧健身(方庄店),39.875138,116.442811,北京市丰台区芳城园一区4号楼北侧底商,57f13e14ccf610dceb12e496,"(010)57182828,15600008088",1,57f13e14ccf610dceb12e496
极健身(劲松店),39.875845,116.478456,朝阳区松榆南路38号美景东方小区东门外泊寓B1,1f6a3d2e8bc15c312fb96d30,,1,1f6a3d2e8bc15c312fb96d30
RAW健身,39.915863,116.478071,北京市朝阳区建国路93号万达广场7号楼101地下1层,8feed07bba53012d6f4760e7,,1,8feed07bba53012d6f4760e7
安太斯健身,39.93065,116.445437,北京市朝阳区朝阳门外大街19号华普大厦B1楼(近外交部),64660eefde31703342d63e63,(010)65801168,1,64660eefde31703342d63e63
美菲特健身房(朝阳门店),39.929415,116.446333,北京市朝阳区朝阳门街道人寿大厦地下一层,930845956a0ed4942902e1e1,,1,930845956a0ed4942902e1e1
星河健身俱乐部,39.909478,116.443112,朝阳区建国门南大街200号,4b36314ae30c81de9d9d6873,,1,4b36314ae30c81de9d9d6873
iFitStar星健身(中国全明星教练概念店),39.913323,116.482174,北京市朝阳区建国路88号SOHO现代城C座6号楼3204,2915a7cf6a18a42746572690,"15001209232,18618219900,(010)85800367",1,2915a7cf6a18a42746572690
双井vlines私教工作室,39.906048,116.472117,黄木厂路一号院1号楼2层,365100216aa99bf5adcb66a4,(010)58427844,1,365100216aa99bf5adcb66a4
燕京Yanjing CrossFit综合训练健身馆,39.925799,116.440084,东二环银河SOHOD座3层50338号,3c71a6c565d0cc9230621223,13552322386,1,3c71a6c565d0cc9230621223
司凯泰思健身游泳会所,39.917323,116.445192,建外媒体楼外交公寓13号楼建外媒体中心-媒体家B2层,10b323760b4fafb42b201a56,(010)85315686,1,10b323760b4fafb42b201a56
SUPER MONKEY,39.910969,116.47723,通惠河北路与通惠河北路入口交叉口西北50米,6db6b401fc2858dd83a00c5e,,1,6db6b401fc2858dd83a00c5e
贝李健身,39.916854,116.483957,西大望路蓝堡国际中心2座2层S-235,29389320d90d92f40c0a7077,17090087090,1,29389320d90d92f40c0a7077
爱尚健身私教工作室,39.900955,116.480813,北京市朝阳区广渠路33号院2号楼石韵浩庭B座12层(双井家乐福后侧)(近乐成国际、乐成公馆、九龙花园、珠江帝景、苹果社区),38ded2b3e54481229de321c5,,1,38ded2b3e54481229de321c5
优漾FitnessUYoung健身工作室,39.890754,116.479614,南磨房路293号旭捷大厦6楼,,13522265469,1,d2ea39f63500ad9129fc48ce
派森健身工作室(珠江帝景店),39.895415,116.487152,西大望路珠江帝景B区221号楼1单元202室(九龙山地铁站),,18600892799,1,7df40f783ec56c01f4eafc9e
燃橙健身(CBD万达店),39.917706,116.477086,北京市朝阳区光华路甲8号和乔大厦A座一层,,,1,e0de6211120b6a7040ab9af6
航宇聚鑫健身休闲会所,39.918313,116.434234,东城区朝阳门内南小街22-6,69e40602c0cf1506c6effb5f,(010)65232849,1,69e40602c0cf1506c6effb5f
VLines私人教练健身工作室(朝外SOHO店),39.925328,116.461308,东三环中路39号院16号楼3层0306室,,13161816382,1,f0d52820c5dbefa5095cb361
乐道精准健身,39.911183,116.459578,北京市朝阳区东三环中路39号建外SOHO西区16号楼二层,96f72b77468816ee902ca37e,"13911248175,18612320037",1,96f72b77468816ee902ca37e
钛渡健身西大望路金港国际店,39.904777,116.486671,北京市朝阳区西大望路甲16号院-1号,,18600516745,1,9006e231505e5dfb4e776e08
国贸大酒店-健身中心,39.917915,116.465283,北京市朝阳区建国门外大街1号国贸大厦78层,940b033f5de9e292a7c75653,(010)85716687,1,940b033f5de9e292a7c75653
爱加健身,39.904514,116.46537,双井街道天力街3号,a7fd41cb03f94d892fb17e38,,1,a7fd41cb03f94d892fb17e38
i Fitness Space私人教练课程,39.927943,116.445613,三丰北里3号悠唐广场二期皇冠假日酒店6层,0cf96310948bcb492fe67b6a,18610359908,1,0cf96310948bcb492fe67b6a
必确(PRECOR)跑步机健身器材旗舰店(国贸店),39.91054,116.464715,通惠河北路建外SOHO东区7号楼商铺3层7303室,e00c252bd384074e5fd4fe19,17778139350,1,e00c252bd384074e5fd4fe19
享健身(金桥国际会所),39.9022,116.448932,北京市东城区广渠门北里55号金桥国际公寓B1层,,13716041514,1,50e10c8988dae60d260bd090
天思国际舞蹈健身学院(SOHO现代城店),39.911453,116.481934,建国路88号SOHO现代城2号楼1601室(近金港国际),c32e318d7070a0c822f0171f,,1,c32e318d7070a0c822f0171f
硬核铁馆(SOHO·尚都店),39.924387,116.459589,北京市朝阳区北京市朝阳区东大桥路８号SOHO·尚都B1,,18501254515,1,e3f7c803fcb07164b8df8fba
Tiger Fitness健身工作室(建国门店),39.913237,116.449646,北京市朝阳区建外大街甲14号广播大厦酒店写字楼七楼707室,439507443fa8a7bb3517dca8,"13810796622,13810957707",1,439507443fa8a7bb3517dca8
英客健身,39.901694,116.448876,北京-崇文区广渠门北里55号金桥国际公寓A座B1层,491a2d14760d9a7bd518b7a5,(010)67137788,1,491a2d14760d9a7bd518b7a5
乔士尼游泳健身俱乐部(双井店),39.901129,116.470712,东三环中路天之骄子小区9号院,4edf9fbf5f57e68dcc06a417,,1,4edf9fbf5f57e68dcc06a417
青鸟健身,39.900495,116.468665,北京市朝阳区双井乐成中心b1座青鸟健身,,,1,2ce20b668fe168fd4f6d4675
易族健身,39.899242,116.443427,北京市东城区安化北里2号院-1号楼,,,1,ebfbbf9eaadbf6c40e3dda06
MIP慕泰格斗搏击健身,39.927604,116.439613,南竹杆胡同2号1幢2层10222,79f23adbfd5ad2529de321af,13910168436,1,79f23adbfd5ad2529de321af
LIFEGYM健身私教工作室,39.879941,116.457844,华威西里甲48号楼杨裕兴面馆2层01室(近同仁堂，北京工业大学附属中学),,13811015767,1,1146f1e7f69230f73517dc76
健身房,39.912965,116.48119,北京市朝阳区建国路88号2605室,3a0edd928222bb1b09a8d455,(010)85806900,1,3a0edd928222bb1b09a8d455
好家庭健身器材连锁,39.888528,116.441034,北京市东城区左安门内大街8号伟图大厦1层,17ae1220f77c5c8009a8d4d0,,1,17ae1220f77c5c8009a8d4d0
very life健身馆,39.911344,116.462013,北京市朝阳区建外SOHO西区11号楼商铺三层1130室,6cc6537aa5d093af96ca073f,(010)59005988,1,6cc6537aa5d093af96ca073f
SUPERNOVA健身工作室,39.901074,116.440795,北京市东城区东花市南里四区1号楼三门106底商,0f7d15e134fb47f379f796db,13126568080,1,0f7d15e134fb47f379f796db
炙晟美学健身工作室,39.898756,116.454251,广渠门外大街名敦道4号楼901-902,,"(010)57420855,18911131087",1,fc538901c487f146a80dd82c
尖峰引力健身工作室,39.893811,116.447124,北京市东城区夕照寺街16号院宝达大厦312,,(010)87878627,1,cf94d231c9e6a47ddeee8b87
康乐健身中心,39.920147,116.477911,朝外街道光华路15号伯豪瑞廷酒店6层,2e99e26f5281703061685812,,1,2e99e26f5281703061685812
万豪vip健康会所,39.911286,116.454941,永安东里甲3号,bca89b15f60cb4dd6f3e1be2,(010)65699622,1,bca89b15f60cb4dd6f3e1be2
自健身24小时计时自助健身房,39.926675,116.438797,北京市东城区东水井胡同银河SOHOB座1层20117-20119号,02324b76a757d545d3ff23f9,13520017354,1,02324b76a757d545d3ff23f9
北京GFT体能训练工作室,39.888666,116.441023,"左安门内大街8号伟图大厦一层(龙潭湖公园,天坛东门)",29a5f5257f01baf06f3e1b88,,1,29a5f5257f01baf06f3e1b88
77健身工作室,39.900791,116.471427,北京市朝阳区东柏街10号院-5,98a328e56a6c7e1e593ac8d2,15910515249,1,98a328e56a6c7e1e593ac8d2
三人行健身(体育馆路店),39.89079,116.443457,北京市东城区光明路11号天玉大厦309室,6f848acb2f6ba7193010af93,(010)57278612,1,6f848acb2f6ba7193010af93
北京瑞吉酒店-健身中心,39.91684,116.446731,建国门外大街21号北京瑞吉酒店,4a68794a05ec1fe85fd4fe55,(010)64606688,1,4a68794a05ec1fe85fd4fe55
奥力健身(日坛国际贸易中心店),39.925877,116.449083,北京市朝阳区日坛北路17号日坛国际贸易中心F4,7da929be51c501ec24d2bb83,(010)85690095,1,5284ce33782be5f02102626a
北京嘉乐健身(夕照寺店),39.894559,116.446632,北京市东城区夕照寺街14号西楼,,,1,72aa76548f06341ea6da3981
梵伯那健身工作室,39.899283,116.438315,北京市东城区广渠门内大街幸福家园4号楼三单元101室底商,,"(010)67125663,18500670408",1,e2535453db457d02bda24097
嘉减法健身工作室,39.909474,116.446723,北京市朝阳区通惠河北路中海枫丹公馆2号楼1层二单元1-6,514d5b537411f6c41811d570,"(010)65287893,13601388168",1,514d5b537411f6c41811d570
北京华彬费尔蒙酒店-健身室,39.911021,116.458463,建国门外大街永安东里8号北京华彬费尔蒙酒店21层,8cbf98707b8129149e9d6847,,1,8cbf98707b8129149e9d6847
阳光健身俱乐部,39.913458,116.444332,朝阳区建国门外大街26号长富宫饭店2层,4ed3c8acca30db69cb213d16,,1,4ed3c8acca30db69cb213d16
子阳健身,39.926951,116.470042,北京市朝阳区东三环北路好世界商业广场B19,5c332a54fd7dd19b2e473370,(010)59412996,1,5c332a54fd7dd19b2e473370
广西大厦-健身房,39.879134,116.463235,潘家园华威里26号广西大厦,284c430b09dd171a2bb97c75,,1,96b672aa538c476cce04ef19
V Power Fitness健身工作室(国贸店),39.912049,116.465682,北京市朝阳区东三环中路39号院-6号楼25层2501室,,"18911564607,15501147377",1,87ae2a2be230a7c66168587f
浩沙健身(优士阁店),39.898716,116.465291,广渠门外大街8号优士阁A座B1层,,"(010)58612667,(010)56612667",1,f938146f712e7fbf4151c0de
首创天喜春分健身会所,39.924737,116.471028,朝阳区北京市朝阳区朝阳路139号院4号楼首创天禧大厦2层春分健身(泰康金融旁边，央视对面，迪拉索家居旁),5d63c7375294d6bdeaf8536e,,1,f9bdcd8b1fd2b924c2f1cfe0
百汐健身房,39.895948,116.48483,西大望路合生财富广场B1,,,1,c4e1dae38e869fc6a30464a2
建国饭店-健身中心,39.914683,116.459512,建国门外大街5号,844a750e123271a0636858a0,(010)65002233,1,844a750e123271a0636858a0
FIT健身馆,39.911948,116.443839,建国门南大街2号北京长安街W酒店3层,f5881ae7c3aa9902d42ce203,(010)65158855,1,f5881ae7c3aa9902d42ce203
国辉健身,39.895076,116.470196,百环家园9号楼1层,,,1,2d3849d7a5cdd21579b55c53
云峥健身(朝阳门店),39.926869,116.447655,北京市朝阳区朝外市场街怡景园西侧二层入口,,,1,f1112a58f8dbfc69aecb66a0
北京市朝阳区高碑店乡八里庄熏皮厂村便民健身园,39.912488,116.491427,京通快速路与京通快速路出口交叉口南200米,b149ea49e16ab7f193114cbf,,1,b149ea49e16ab7f193114cbf
奥美氧层健身,39.922105,116.458657,北京市朝阳区光华路九号世贸天阶南街三层,,,1,1544bab4271df69308ccdd27
河南大厦健身中心,39.878991,116.464187,潘家园华威里28号北京河南大厦3层,8fa14fc39fb63d77f7eafc0c,,1,8fa14fc39fb63d77f7eafc0c
北京工业大学-健身房,39.883703,116.488689,北京市朝阳区思源路,e052cc1f7783326da0acc4c1,,1,e052cc1f7783326da0acc4c1
健身房,39.901544,116.474149,北京市朝阳区双井北汽资产大厦2号楼润佳健身房,,,1,3552ec42ce589fa271210b1e
毅能达健身学院,39.90156,116.442623,北京市东城区东花市南里东区尼奥大厦3楼毅能达健身学院,,,1,8bd47865ed80574a6cc02c97
金吉鸟健身游泳(华城店),39.893035,116.447137,北京市东城区夕照寺街16-10号附近,,,1,3790529f16c435a8abf729c4
劲松中社区-居民健身园,39.885579,116.458604,北京市朝阳区社区服务站潘家园东里社区服务站,372d992ec44207f3e6e96547,,1,372d992ec44207f3e6e96547
富尔顿酒店-健身,39.890365,116.468803,东三环南路58号富顿中心D座106室室富尔顿酒店,112cc28ef56ef425b21e3670,,1,112cc28ef56ef425b21e3670
普拉提,39.901398,116.442625,北京市东城区东花市南里8号楼尼奥大厦3楼欧奕健身(近富贵园小区),5374e118d7e43e8f8c1a8925,,1,5374e118d7e43e8f8c1a8925
复兴爱健国际游泳健身俱乐部,39.929688,116.462258,朝阳北路237号,f766c6a2e5beb2eb2902e175,18411006005,1,f766c6a2e5beb2eb2902e175
北京财富中心-健身俱乐部,39.921707,116.465743,北京市朝阳区呼家楼街道东三环中路财富中心公寓A座三层,ec9866c23ec8e2f52a02e16f,,1,ec9866c23ec8e2f52a02e16f
快马仕科技健身,39.925509,116.461806,朝阳门外大街乙6号朝外SOHOF3层,,,1,c4b5f87185071155b817e776
国际健身气功联合会,39.88054,116.428474,天坛东路13号天坛体育中心院内北京市体育社团办公中心二楼,,(010)87180089,1,4afe6f479f02057943afe62a
九月八体育健身房,39.913188,116.463471,SK大厦B204,,,1,b5fd9ef857df4a21bbbd6315
中国大饭店-健身俱乐部,39.915829,116.465916,北京市朝阳内建国门大街1号B2层,cdef4edf3f6bab5728d7ab24,,1,cdef4edf3f6bab5728d7ab24
磨南社区工大四工作站健身园,39.884853,116.483112,北京市朝阳区潘家园西大望路磨房南里,c9d772bb45a51dc4b14c4953,,1,c9d772bb45a51dc4b14c4953
北京广渠门尼奥店,39.901711,116.442634,东城区东花市南里东区8号尼奥大厦三楼,,,1,8cfc45ebac2f6231c03644b2
劲松西社区-健身场,39.889555,116.457363,朝阳区劲松路5区-517-2号,ac024a8d8f1d268ca1046453,,1,ac024a8d8f1d268ca1046453
King Kong主题健身工作室,39.911986,116.465693,建外SOHO5号楼14层1302室,,"13161009028,13661290933",1,d8bffc757030bc29d1f49e9f
格拉菲娜健身,39.905296,116.491773,百子园17号,,,1,fcd33dc23ebadfe60ab93a9d
北京丽思卡尔顿酒店-健身房,39.916406,116.487435,建国路甲83号北京丽思卡尔顿酒店17层,86c2e9ccc813da2bd42ce206,(010)59088888,1,86c2e9ccc813da2bd42ce206
京广中心-康体部,39.926213,116.467173,朝阳门外大街1号京广中心6楼,5cb516e78443a11da2d230ee,,1,5cb516e78443a11da2d230ee
合生国际健身会,39.905721,116.465132,北京市朝阳区合生国际家园2期,,,1,851065a67296fb7b15c9058b
丽晶苑春分健身,39.913347,116.458324,北京市朝阳区建外街道建外大街乙8号一层,,,1,b97247a006c43b80c72ba1db
A+健身房,39.92345,116.458552,北京市朝阳区金汇路10号世界城D座B1,,,1,901561e8319821ea16c8f6df
康体健身中心,39.93071,116.445389,朝阳门外大街19号华普国际大厦B1层,a46dc7801671de010482c21f,,1,a46dc7801671de010482c21f
环球健身,39.890752,116.443498,北京市东城区体育馆路天玉大厦309三人行,,,1,9998a6b5e23f41b73517dcb2
hightfit健身馆,39.92333,116.458475,中竣世界城D座B1层B109门,,,1,f01361125f8fce85fbdc85ad
My Fitness(金宝汇店),39.921481,116.427289,金宝街88号金宝汇购物中心F7层,,,1,f79d1e1e4e606b3b157643cc
瑜伽健身中心,39.901744,116.448824,广渠门北里与广渠门桥交叉口西150米,,,1,8cc9b0d6fb513ac513293507
魅力游泳健身,39.911391,116.455904,永安里中街与砖厂胡同交叉口东北200米,,,1,ca8216e5a0b80e1f343a7133
凤凰高温瑜伽(国贸店),39.921738,116.461126,北京市朝阳区金桐西路10号远洋光华中心AB座2层,c2594a3ad2eed9f8b05c6a76,(010)51626462,1,c2594a3ad2eed9f8b05c6a76
良子健身(建国门店),39.913866,116.445771,建国门外大街24-6,6113ef77164a8e0d8f7727b7,(010)65155555,1,6113ef77164a8e0d8f7727b7
奥佳游泳培训班(司凯泰思游泳健身店),39.917277,116.444997,北京市朝阳区秀水街1号建外外交公寓媒体中心服务楼13号楼B2,,"(010)57725577,(010)57253258",1,98a5dc44721594ec3913fddb
优胜美地瑜伽会所(公园5号店),39.931284,116.484235,北京市朝阳区甜水西园17号楼公园5号官舍会所2层(金台路14号线e口出和6号线b口出),cdef4edf08e1a05728d7ab5e,(010)65996750,1,cdef4edf08e1a05728d7ab5e
悠季瑜伽中心(日坛公园店),39.922807,116.451538,北京市朝阳区朝外日坛北路6号日坛公园,75d0881a83a944543b04b1ae,(010)85615506,1,75d0881a83a944543b04b1ae
一如言瑜伽会馆,39.903351,116.438612,北京市东城区东花市大街80号,,"13911114244,13810107002",1,0a273ddf762c6bf5c5effb83
良子健身(华贸一店),39.917877,116.485085,北京市朝阳区西大望路甲6号华贸公寓一楼地下一层良子,17c88472c3b1cec440ab9a31,(010)63357777,1,17c88472c3b1cec440ab9a31
北京索菲特大酒店-室内恒温泳池,39.911972,116.443778,北京市朝阳区建国门南大街2号北京长安街索菲特大酒店3层,d72005f0572421b595f08cb7,(010)65158855,1,d72005f0572421b595f08cb7
虎跃堂散打泰拳防身,39.896909,116.470603,朝阳区百环家园4号楼B1楼,a0655bd77c0eb9fd343a7137,(010)67727166,1,a0655bd77c0eb9fd343a7137
FineYoga(梵音瑜伽)双井馆,39.902449,116.466529,富力双子座a座(京城机电大厦)703室(地铁10号线双井站A口出向北500米即到),,(010)58621996,1,5591c2afa23e3b669cec2b21
璞罗瑜伽(朝阳店),39.889865,116.482245,北京朝阳区南磨房路16号禧福汇小区底商(平乐园市场南侧中国银行旁),f75860940fb9eb80fe0eb043,(010)59781887,1,f75860940fb9eb80fe0eb043
东方大班健身中心(温特莱店),39.918446,116.48322,北京市朝阳区西大望路1号温特莱中心b座1层,f4460918620ed973b01e36a0,(010)65388086,1,f4460918620ed973b01e36a0
菲动武道体能(崇文门中心店),39.905642,116.434201,北京市东城区东花市北里西区23号楼二层23-10,,,1,c95509ceb904101ed23ce3ca
甜心豹舞蹈俱乐部(SOHO现代城店),39.913154,116.482138,北京市朝阳区建国路88号SOHO现代城C座二层S-1402号,b0e2dc5341b2de915e0d02bd,(010)85896885,1,b0e2dc5341b2de915e0d02bd
铭翊瑜伽,39.90517,116.49042,北京市朝阳区后现代城6号楼C单元105底商一层,,18548938625,1,6801a415a265e92bd22dd6b9
COMMONSTRENGTH(光华路SOHO),39.918879,116.458196,光华路22号光华路SOHOB1层,1c8fc27b121a5b4ac4f50d6d,,1,1c8fc27b121a5b4ac4f50d6d
VITAL Fitness私教工作室,39.911476,116.469144,北京市朝阳区东三环中路甲10号万科大都会705室(东门进),,"15711328577,17600163360,(010)65661897,13671014806",1,e597eda602d54f841d58002e
梵雅瑜伽,39.902611,116.487345,西大望路甲20号院首府2号楼1层102,567de0b831ea6ef2fda77867,"18518255606,13331102701",1,567de0b831ea6ef2fda77867
北京玉珑健身中心有限公司(玉珑SPA会馆),39.923254,116.443593,北京市朝阳区外交部南街8号-205商铺,76118c8aaed63b2c3586f4eb,(010)84562666,1,76118c8aaed63b2c3586f4eb
候鸟健身瘦身私教工作室(昆泰嘉华店),39.928929,116.44887,朝外大街昆泰嘉华酒店5层,,,1,d78342ac250f4e8b81a12e6a
梵希瑜伽(广渠门店),39.901195,116.452447,广渠门忠实里南街甲1号远洋德邑A座1509室,,(010)61655919,1,1bc720e53575b77920022037
舞极无限舞蹈工作室(双井店),39.898622,116.465818,北京市朝阳区广渠门外大街8号优士阁A座6层612室,f633606ae43d15570b69d9cf,15810855844,1,f633606ae43d15570b69d9cf
威尔仕健身瑜伽馆(英皇集团中心店),39.913489,116.451178,建国门外大街丁12号(英皇集团中心3层),,15321116153,1,56cf4177eda9966d81a12ea3
猫角工作室,39.920635,116.466903,呼家楼街道东三环中路25号住总大厦地下二层B206(近嘉里中心),855b7a278cdde56fe0110306,,1,855b7a278cdde56fe0110306
齐动力儿童网球(国贸中国大饭店店),39.915848,116.465965,北京市朝阳区建国门外大街1号中国大饭店健身中心3层(中国大饭店),2d53c23a14293407eb1e97c9,(010)57726766,1,2d53c23a14293407eb1e97c9
健身中心游泳馆,39.910234,116.459441,建外大街通惠河北路辅路,,13121323351,1,9193be22a91ae7b2a1046493
S.DANCE舞蹈部落,39.927157,116.439348,北京市东城区南竹杆胡同2号银河SOHOA座B座2层20203,3c66829d9a4dca8db817e763,13956065603,1,3c66829d9a4dca8db817e763
北京千禧大酒店-商务中心,39.922706,116.465915,北京市朝阳区东三环中路7号财富中心北京千禧大酒店3层,867ca76058dc5afa8c1a891f,(010)85876888,1,867ca76058dc5afa8c1a891f
桔子瑜伽(日月天地店),39.876377,116.438755,北京市丰台区方庄芳城园17号楼日月天地A座三层304,,18510651175,1,383a0e8074810964e856fa37
义拳格斗馆,39.911155,116.450119,北京市朝阳区建华南路17号B1层北京义拳体育俱乐部,,13718661659,1,3bcc6c0db373e104c61e5192
尚动空间,39.905634,116.477169,北京市朝阳区百子湾路32号,588ff4b97caf583e9e9d68f6,(010)56199509,1,588ff4b97caf583e9e9d68f6
鼎峰迷谷健身休闲有限公司,39.889713,116.473933,南磨房路43号附近,,,1,79677d361a6bc8de3de23154
中国大饭店-网球中心,39.915894,116.465132,北京市朝阳区建国门外大街一号(国贸中心)中国大饭店F3层,aff9bf9d5739b17e9cec2bf8,(010)65052266,1,aff9bf9d5739b17e9cec2bf8
嘉里大酒店-嘉里健身室内网球场,39.919588,116.464706,光华路1号北京嘉里大酒店2层,f77333c419b49ec7a11de95c,(010)65618833,1,f77333c419b49ec7a11de95c
必图搏击健身俱乐部,39.899803,116.479657,北京市朝阳区广渠路31号,a5a67ba787a4a1b7095cb35c,,1,a5a67ba787a4a1b7095cb35c
中国大饭店游泳池,39.915618,116.46584,北京市朝阳区建国门外大街1号,39d43f82c64c3b9fa8059d19,(010)65052266,1,39d43f82c64c3b9fa8059d19
北京长安大饭店-室内日光游泳池,39.877586,116.464735,北京市朝阳区华威里27号长安大饭店3层,803708f10a50f96001897216,(010)67731234,1,803708f10a50f96001897216
丽景湾游泳健身中心,39.921077,116.439689,十里堡新华联丽景湾健身会所,,,1,ccc77a459bf59e91f7b91616
北京金吉鸟健身服务有限公司,39.926996,116.448289,北京市朝阳区老番街怡景园北里3号楼,d84748a48aaf5e1abea2408a,,1,d84748a48aaf5e1abea2408a
维斯塔斯(北京)健身有限公司,39.912345,116.482457,大望路建国路88号SOHO现代城,,,1,bfc900f416aa31b90e3dda0d
北京采辰健身有限公司,39.889126,116.435825,天坛东路50号国家体育总局训练局西院,f889ef021e10b80bc16c14a3,,1,f889ef021e10b80bc16c14a3
Central Park Fitness Club(新城国际会所),39.92384,116.461613,北京市朝阳区朝阳门外大街6号新城国际26号楼,d35f26cb8bdbf0840aa8d480,(010)65979566,1,d35f26cb8bdbf0840aa8d480
鑫海锦江大酒店-游泳馆,39.92204,116.432109,金宝街61号鑫海锦江大酒店康乐中心,f2774246430f0e810782c280,(010)58163388,1,f2774246430f0e810782c280
长安大饭店-乒乓球,39.877429,116.464838,华威里27号长安大饭店3层,f68171d8fb7664370d3dda47,(010)67731234,1,f68171d8fb7664370d3dda47
YOYOGA(双井外企大厦馆),39.90011,116.483723,朝阳区双井外企大厦3号楼A座6层608,,,1,bf58638c40ab2df4715e807b
东四块玉社区健身乐园,39.884694,116.428981,东城区天坛东路与东四块玉南街交叉口东南70米,613120ef87e307d7ebe5827f,"13552447331,(010)67113926",1,613120ef87e307d7ebe5827f
MUSCLE DOG健身俱乐部,39.926248,116.4584,北京市朝阳区关东店大街28号东大桥宫霄国际,916596bb6a16aae229fc488f,(010)53685348,1,916596bb6a16aae229fc488f
北京帆音瑜伽健身中心,39.916922,116.48383,北京市朝阳区西大望路3号院2号蓝堡国际中2座2层S239/16层,bf14f2e65b489806f8dc85cf,(010)85999566,1,bf14f2e65b489806f8dc85cf
Loia jiana,39.916254,116.485934,北京市朝阳区建国路87号北京SKPF5,,,1,ad6159d7721cc017dc1e523d
英派斯健身器专卖(北京旗舰店),39.894737,116.446634,绿景苑甲1号,85f27582eb15e6fc871541dc,(010)87185287,1,85f27582eb15e6fc871541dc
V·美工作室,39.911033,116.459941,建外大街建外SOHO西区16号楼1626-1627,6877efb0260643c0f403b8be,,1,6877efb0260643c0f403b8be
泰弈泰拳CBD会馆,39.916279,116.482622,西大望路3号院2号楼,8ead153ee2ba7616c51b75d9,(010)85997786,1,8ead153ee2ba7616c51b75d9
幸福家园-游泳馆健身房,39.89783,116.437006,北京市东城区广渠门内大街36号幸福家园小区内,,,1,a1661b1b154100a846e27409
国家体育总局训练局健身中心乒乓球馆,39.888264,116.436042,北京市东城区体育馆路2号,122ecf57985a250a931fc9ae,(010)87183370,1,122ecf57985a250a931fc9ae
国贸大酒店游泳池,39.917933,116.46503,北京市朝阳区建国门外大街1号国贸大厦三期7-8层,ef5a3c540bddba2fbb17e7c6,(010)85716687,1,ef5a3c540bddba2fbb17e7c6
海奇健身中心-SPA,39.915967,116.43481,建国门内大街9号北京国际饭店2层,6af7e59f44e286831d580021,,1,6af7e59f44e286831d580021
METLIFE大都会,39.899564,116.469444,乐成中心B座16层,a4392e46925b8a2d72210bbc,,1,a4392e46925b8a2d72210bbc
北京嘉里大酒店-室内游泳池,39.919486,116.465214,北京市朝阳区光华路1号北京嘉里大酒店2层,3e205344fc0f765033621265,(010)65618833,1,3e205344fc0f765033621265
北京千禧大酒店-游泳池,39.922738,116.465467,北京市朝阳区东三环中路7号院5号楼北京千禧大酒店4层,1c7ff2c6007f6b067069d3e6,(010)85876888,1,1c7ff2c6007f6b067069d3e6
合道搏击健身俱乐部,39.9204,116.490942,北京市朝阳区朝阳路辅路英家坟甲6号圣英商务中心西楼106室,f65bd8d8e787ce07ca1b955a,13439400610,1,61a1083b60263a4797031911
欧奕健身俱乐部(尼奥店),39.901667,116.442295,广渠门路东花市南里东区8号楼尼奥大厦3楼,,,1,d1dc25e7a29bcec4b21e3624
街电(碳素24小时健身房),39.911171,116.465049,北京市朝阳区建外大街建外SOHO东区8号楼3层8302室,,,1,8542c83001620e023a13fd2e
北京博仪康体健身俱乐部有限责任公司,39.916612,116.483227,北京市朝阳区西大望路蓝堡国际公寓B座一层S106,dadbec922506fc9a95ca0773,,1,dadbec922506fc9a95ca0773
PC健身私教工作室,39.906114,116.474599,北京市朝阳区双井苹果社区北区3号楼B座1511室,79e188940a1bdddcf82d61a8,,1,79e188940a1bdddcf82d61a8
Life Fitness健身 生活馆,39.904148,116.42741,崇文门外大街18号国瑞购物中心B2层,,,1,28ff900ab7ec3a8ea1a9342a
Kick In2 Shape,39.926374,116.461116,朝阳区朝外大街乙6号朝外SOHO大厦D座0739室,f565cbab2387c79e1d1d1130,,1,f565cbab2387c79e1d1d1130
金港国际健身会所,39.902372,116.486554,百子湾南二路68号,aba8acb315ec460b2e473393,,1,aba8acb315ec460b2e473393
北京工业大学地面公共停车场北京工业大学健身房东北,39.884349,116.48949,北京市朝阳区思源路北京工业大学机械工程训练中心附近,578b8798ee16bca3b75f1eb6,,1,578b8798ee16bca3b75f1eb6
A+FITNESS,39.902752,116.463313,北京市朝阳区富力城1层,66ba5175d325cf14734b8730,,1,66ba5175d325cf14734b8730
国家体育总局训练局健身中心-北门,39.889972,116.434692,体育馆路甲2号,,,1,1bf24ae0ce4c20eea1a93492
全民健身服务部,39.888865,116.432979,东四块玉胡同与体育馆西路交叉口东150米,e7c299f32880f6c52ce67b6f,,1,e7c299f32880f6c52ce67b6f
中国大饭店健身中心-壁球馆,39.915852,116.465965,北京市朝阳区建国门外大街1号中国大饭店B2楼,31f9101b5f2d94a027e0a086,(010)65052266,1,31f9101b5f2d94a027e0a086
中国大饭店-体育馆,39.915618,116.46584,建国门外大街1号北京中国大饭店健身中心,71497acf376a2a1c636858b3,(010)65052266,1,71497acf376a2a1c636858b3
光猪圈健身(传媒大学店),39.923088,116.555917,定福庄西里2号24H齿轮场,2dc6705042c080e6c72ba1ba,17310609939,1,2dc6705042c080e6c72ba1ba
中健健身(北京爱这城店),39.919431,116.513218,十里堡朝阳路首创爱这城甲2号院4号楼,,,1,570b89ace6dd16a2a4c756bf
鸣时健身,39.927252,116.534739,北京市朝阳区黄杉木店路188号院2-1,,,1,3d7037fb89d45b79bd48420c
博康健身(金地名京店),39.916058,116.503169,北京市朝阳区力源里北街2号院6,fdf71ac546a40d642b3a9fad,(010)85723768,1,fdf71ac546a40d642b3a9fad
金吉鸟健身俱乐部(北京八里庄苏宁店),39.922069,116.501202,北京市朝阳区慈云寺北里118号5层,,(010)53559369,1,fee95c5286b9f2e8bfa82209
乐刻运动健身(华膳园店),39.901351,116.549561,北京市朝阳区华膳园文化传媒产业园5号楼B1层,641707cfea323db908ccdd17,17600299296,1,641707cfea323db908ccdd17
爱乐舞健身(传媒大学店),39.910426,116.554089,北京市朝阳区北花园小区3号院5号楼底商,,(010)51078001,1,1ec699309a394572e011036b
超级猩猩健身(慈云寺未来汇店),39.922217,116.497988,北京市朝阳区东四环与朝阳路交叉路口的慈云寺桥东远洋未来汇购物中心B1,,,1,1cf59059fbc292968c1a8981
星迹健身工作室(沿海赛洛城店),39.902442,116.509519,北京市朝阳区石门东路沿海赛洛城一期304号楼1层底商304-06,98a62e04882141b584154138,"17610148373,(010)57224678",1,98a62e04882141b584154138
EVERFITNESS艾威健身私人工作室(青年汇店),39.928529,116.51946,北京市朝阳区朝阳北路青年汇112号楼1层130底商,feccca9eecdecb134d2fdfb1,(010)53608660,1,feccca9eecdecb134d2fdfb1
乐刻运动健身(超级蜂巢店),39.905046,116.554828,文化新大街超级蜂巢A座1层,67b16fe7a066377d2b201ae7,,1,67b16fe7a066377d2b201ae7
锐域健身,39.904078,116.497509,北京市朝阳区东四环中路82号金长安大厦B座2楼,db9dadd3df09f532cac3dba3,(010)52080050,1,db9dadd3df09f532cac3dba3
京城阳光健身会所,39.923266,116.541622,北京市朝阳区朝阳路财满街67号,8a057d1e4d88429e626858b5,(010)52328096,1,8a057d1e4d88429e626858b5
小熊快跑智能健身房(四惠东店),39.917084,116.519545,北京市朝阳区八里庄村陈家林9号院华腾世纪1号楼102室,e125a7a66ca808e975e5b6b7,,1,e125a7a66ca808e975e5b6b7
壹健会(后现代店)高端游泳健身会所,39.905344,116.49322,后现代城A区18号楼底商,01751c019f8f6c2c3be4a602,15810176850,1,01751c019f8f6c2c3be4a602
浩动健身,39.885164,116.505931,南磨房化工路19号惠聚游泳馆二楼,1a48e5ef06cacef87ec87619,(010)67322317,1,1a48e5ef06cacef87ec87619
勤立方健身工作室,39.920824,116.508975,十里堡京港城市大厦5层05E,aed6bce472cbc79a744ff109,(010)65583200,1,aed6bce472cbc79a744ff109
快快智能健身(金都杭城店),39.90669,116.506797,朝阳区百子湾西里103号楼201室,,,1,55177502dc367c6b213bf2ec
奥迈健身(慈云寺店),39.918749,116.499796,朝阳区八里庄西里远洋天地76号楼,c1f5b49e3da2a2e0ca29157f,(010)85865837,1,c1f5b49e3da2a2e0ca29157f
帥武道武术搏击格斗健身俱乐部,39.921241,116.527531,北京市朝阳区高碑店北路718创业产业基地B1,efc98eef7cdb693f8605bf72,(010)85750010,1,efc98eef7cdb693f8605bf72
中体力源游泳健身,39.923954,116.492156,北京市朝阳区延静里中街25号玫瑰东方小区内,1fd10681060a7c0929fc48b6,,1,1fd10681060a7c0929fc48b6
天奥游泳健身(百子湾店),39.904618,116.511772,北京市朝阳区百子湾沿海赛洛城有条斜街三条219号楼底商,766bcdda5d85de043517dca6,18611290414,1,766bcdda5d85de043517dca6
金都健身会所,39.90611,116.50526,北京市朝阳区百子湾西里甲108楼102号,1be7b930c0cc3790e5e9650a,13810948776,1,1be7b930c0cc3790e5e9650a
吉刻游泳健身会所(百子湾店),39.906174,116.505518,北京市朝阳区石门村路1号106室,,,1,fd777f1212dfa0d8465726e1
动力小特工运动馆,39.907365,116.504016,百子湾路15号2层,4e4be67d47648ad66fa3cc8e,"(010)57859387,18201278860",1,4e4be67d47648ad66fa3cc8e
贝蒂安健身馆,39.929624,116.529826,北京市朝阳区朝阳北路朝阳雅筑2号楼9号底商,8805d3425492abd3b8bd6312,,1,8805d3425492abd3b8bd6312
AnytimeFitness24小时健身中心(四惠旗舰店),39.915582,116.502459,力源里北街2号院4号楼金地名京商业街EA311(地铁1号线四惠站E出口),54c76fa92586ff54da2f2887,(010)65503055,1,54c76fa92586ff54da2f2887
思迈菲特健身工作室,39.901566,116.49834,北京市朝阳区广渠路21号院9号楼1层9-01,42cef82488d09913acb22a81,13426368654,1,42cef82488d09913acb22a81
慧逸健身,39.921418,116.527405,北京市朝阳区高碑店北路19号(近兴隆家园西门对面，甘露园，白领家园，青年路，天鹅湾),c4c37ceb3ba274618f55ec8d,"(010)85761114,18518003969",1,c4c37ceb3ba274618f55ec8d
优力健身(爱这城店),39.919335,116.513062,北京市朝阳区十里堡首创·爱这城甲2号院,14ab0e25b3aaa866a8059da1,(010)65576700,1,14ab0e25b3aaa866a8059da1
徐冬梅健身工作室,39.910477,116.54555,北京市朝阳区高碑店东区c段9-7,259b4e5293e249aba6da39a9,"13683643636,13811524348,(010)65503540",1,259b4e5293e249aba6da39a9
ap健身工作室,39.916032,116.510746,北京市朝阳区惠润园7-3,1cc931a4b4811f7e96f08c16,18310515132,1,1cc931a4b4811f7e96f08c16
BANANA私教健身工作室(四惠店),39.915723,116.502655,北京市朝阳区四惠慈云寺远洋天地75号2603,,18510308867,1,5062c002b87f23c543024519
金吉鸟健身瑜伽游泳,39.922024,116.500297,朝阳区朝阳路八里庄苏宁生活广场五楼,adb808ae1eaed47eebe582bd,15201123527,1,adb808ae1eaed47eebe582bd
丽景国际健身会所,39.927269,116.508788,北京市朝阳区十里堡北里28号新华联丽景湾国际酒店B1(近十里堡华堂),4ce10ce67b5685b8441a327d,,1,4ce10ce67b5685b8441a327d
小熊快跑智能健身房(东亿店),39.919984,116.546745,北京市朝阳区朝阳路高井甲8号星立方创意设计中心1层(红星美凯龙商场南门),,(010)85756390,1,858e052a4c2e75d91e580024
快快智能健身(沿海赛洛城店),39.901712,116.513139,朝阳区百子湾东里沿海赛洛城325-5号,898816d80112e1ffeb1e9733,,1,898816d80112e1ffeb1e9733
长安健身,39.91862,116.548376,花园闸路紫檀大厦副楼二层,,,1,5f1be75bc5e304b05d17c38a
远景健身俱乐部,39.878945,116.501611,北京市朝阳区世纪东方嘉园208号楼首层,c14af4802e8e509108f5eb50,(010)87351881,1,c14af4802e8e509108f5eb50
彩虹健身工作室,39.911305,116.542024,北京市朝阳区高碑店东E35-6号,c85e3ede27c9ad2141d63e73,18610490807,1,c85e3ede27c9ad2141d63e73
莱德斯健身,39.927256,116.523368,北京市朝阳区青年汇佳园5号楼1单元103底商,c79cc931e964353000ec019b,18610345622,1,c79cc931e964353000ec019b
STEP速得健身(百子湾店),39.907354,116.503862,北京市朝阳区百子湾路15号永辉超市二楼,,18600215222,1,760dc87b6695de6fa8f729cc
罗马嘉园休闲健身会所,39.930797,116.522682,北京市朝阳区朝阳北路107号院58号,97b4704c38fcb729d518b78e,4006566135,1,97b4704c38fcb729d518b78e
CTC克洛托综合训练中心,39.900508,116.510418,朝阳区百子湾东里403-102,,15811026123,1,e725f6e89dfb4e15157643a4
蓝速私人健身会馆(珠江帝景华腾店),39.893543,116.492323,西大望路珠江帝景E华腾国际5号楼底商,,15011203008,1,9abce335ca405ab6b04c4923
北京辉盛庭国际公寓-健身中心,39.920321,116.497829,东四环中路58号远洋国际中心B座北京辉盛庭国际公寓,a871e7035c583277b6265517,,1,a871e7035c583277b6265517
黑胶健身工作室,39.929818,116.519071,朝阳北路107号44号楼203室,cf295815ec8ad8d67369d3e7,,1,cf295815ec8ad8d67369d3e7
奥力健身美国独资直营式健身俱乐部十里堡店,39.919195,116.513267,十里堡甲2号院4,64ff3be1fb4f27a290114c09,,1,64ff3be1fb4f27a290114c09
惟度健身工作室,39.921236,116.507405,"北京市朝阳区八里庄东区莱锦创业园旁都会国际A座9层B室(都会华庭小区前,莱锦创业园,京棉集团旁)",7f61ef68baaf23c604026ff9,(010)53679421,1,7f61ef68baaf23c604026ff9
FITNEST巢健身,39.903967,116.511339,南磨房镇百子湾东里沿海赛洛城小区三条下沉广场,92af96db54fe9813b1077d16,"(010)67799968,(010)67755310",1,92af96db54fe9813b1077d16
李浩轩健身塑体工作室,39.92717,116.529698,甘露园中街天鹅湾小区北区底商18号楼1二层,4183e7cec99100ba45e2749b,"17718323627,15210205587",1,4183e7cec99100ba45e2749b
Aurora fitness club光巢健身俱乐部,39.931304,116.519236,青年路罗马嘉园11号楼101室,02700a75f58bd71fd5b74edd,18511998740,1,e3997a4cbb29513b7af7961d
丽景湾国际酒店游泳健身会所,39.927088,116.50885,东四环十里堡北里28号丽景湾国际酒店1层,3cfaae2f4a574f0a3686f412,,1,3cfaae2f4a574f0a3686f412
励练健身工作室,39.928712,116.520316,北京市朝阳区朝阳北路青年公社104号楼407室(地铁青年路D口出即到),8cc0aa59e1396f3c2cb17e70,15901552290,1,8cc0aa59e1396f3c2cb17e70
BRAVO健身工作室(慈云寺店),39.917575,116.498852,北京市朝阳区远洋天地65号楼1层底商103室,,18610355411,1,4d95068aedd457f0ab175aa4
First Fitness健身工作室,39.881512,116.498574,北京市朝阳区大柳树路15号附近,f2f486ff935d0635aeb22a37,,1,f2f486ff935d0635aeb22a37
锐泰健身,39.922898,116.518944,北苑北沙滩桥东200米物美超市二层,3288163bab62c96d2a02e1b0,,1,3288163bab62c96d2a02e1b0
超屌健身,39.909751,116.516648,高碑店乡通慧河畔园区龙源文化创意园A座6楼632,7d32d14872a0e19583a00c42,,1,7d32d14872a0e19583a00c42
练TrainingStudio体能健身工作室,39.910905,116.53483,北京市朝阳区高碑店村一区11-4二楼,,,1,b47b0bdb42f4f548d2f49edf
赫健身,39.92679,116.529882,北京市朝阳区天鹅湾南区底商2-105,a4b862985d7c6a5cfd0eb0c4,,1,a4b862985d7c6a5cfd0eb0c4
优森美驰活动营销机构,39.900969,116.518117,北京市朝阳区广渠路115附近,,,1,c0d09265bea8f8c6b2077d7c
金翼Gym,39.900964,116.505865,石门村路1号,,,1,5bd35d7bc85a745615a190e0
便民健身园,39.916361,116.521948,四惠东地铁站B口北150米,fbeb616d9cb468d5c4f02513,,1,fbeb616d9cb468d5c4f02513
清丽雅室健身俱乐部,39.926484,116.53473,北京市朝阳区阿曼寓所(黄杉木店路),8d094b80f4f90a6eeedfca14,,1,8d094b80f4f90a6eeedfca14
搏击健身俱乐部,39.922541,116.50559,朝阳路辅路附近,ea0d00744f3d37312fe67b35,,1,ea0d00744f3d37312fe67b35
金东健身私教工作室(十里堡店),39.928811,116.513241,十里堡北里14号楼一层1-2号,9ec4d5b6fb955953c17da2fe,,1,9ec4d5b6fb955953c17da2fe
便民健身园,39.91083,116.551201,北京市朝阳区S50(远通桥),cf38d28c1b64cbb122022084,,1,cf38d28c1b64cbb122022084
IRON MONKEY淳健身,39.92717,116.529393,北京市朝阳区,,,1,39bfaff2ba2cbe06d6b74e78
官悦欣园游泳健身,39.884336,116.50581,化工路164号附近,08b743a01e5eb6e0a8059db0,13381165845,1,08b743a01e5eb6e0a8059db0
FineYoga梵音瑜伽(大悦城店),39.930495,116.526599,北京市朝阳区大悦城2号楼,30962b7ae853c47bae31e536,(010)85565080,1,30962b7ae853c47bae31e536
桔子瑜伽减脂馆(十里堡店),39.9207,116.512861,北京市朝阳区八里庄街道十里堡乙2号院4号楼4-1,,"15201366568,17300123905",1,dbfe59c42efb4002130daa05
于鹏普拉提,39.893898,116.492422,西大望路大郊亭中街华腾国际写字楼甲3-16,,,1,2b1aba85961b03cf4c3a5931
幽然瑜伽(百子湾店),39.90688,116.50625,"北京市朝阳区百子湾路金都杭城底商102号楼-110室(漫咖啡旁,永辉超市向东100米)",d0ed2eeafbcccf6a3be4a6d4,"(010)87705866,(010)87705766",1,d0ed2eeafbcccf6a3be4a6d4
良子健身(紫檀万豪店),39.918418,116.532506,北京市朝阳区建国路23号万豪紫檀行政公寓1楼(近京通快速),35dc93248cbd8d3bf4b91658,(010)62578888,1,35dc93248cbd8d3bf4b91658
淑悦瑜伽(慈云寺店),39.91929,116.494414,北京市朝阳区东四环慈云寺桥东区国际公寓2号楼303室,,15910522997,1,16a422d019f3c46f2dfaa74c
乐美瑜伽会馆,39.91833,116.497876,八里庄西里61号远洋商务403室,3c0ea7c53c7f2385fbf0cb19,(010)65501225,1,3c0ea7c53c7f2385fbf0cb19
