name,lat,lng,adderss,street_id,telephone,detail,uid
阎村,39.726687,116.103988,833路;836路;839路;901路;901路快车;907路;917路;917路区间;934路;951路;952路;房12路;房13路;房13路支线;房13路支线区间;房15路;房18路;房28路;房2路内环;房2路外环;房31路;房36路;房37路;房38路;房38路区间;房41路;房42路;房42路夜班车;房43路;房46路;房48路;房49路;房50路;黄向专线;快速直达专线32路,,,0,70f03d7259ab80de5abbbce5
良乡西门,39.737543,116.142406,616路;646路;833路;839路;897路;897路区间;901路;907路;934路;951路;952路;956路;971路;993路;f68路;房12路;房13路;房13路支线;房13路支线区间;房18路;房1路内环;房1路外环;房28路;房35路;房36路;房36路支线;房37路;房38路区间;房41路;房42路;房42路夜班车;房43路;房46路;房49路;房50路;快速直达专线140路,,,0,8f4d8f13290410696f3e1bbb
良乡北关,39.749495,116.149031,616路;833路;833路通勤班车;839路;895路;901路;907路;952路;房13路;房15路;房1路内环;房1路外环;房33路薛庄;房34路;房41路;房42路;房42路夜班车;快速直达专线177路,,,0,b61882184009014dfa42b2ed
良乡大角,39.737275,116.147313,616路;895路;901路;907路;934路;951路;956路;971路;993路;f5路内环;f5路外环;f68路;房12路;房13路;房15路;房18路;房1路内环;房1路外环;房28路;房33路北白;房33路薛庄;房34路;房35路;房37路;房38路区间;房42路;房42路夜班车;房50路;黄向专线;快速直达专线140路;快速直达专线177路,,,0,195d69e8c2fde3117c29bd82
良乡东关,39.738121,116.154135,646路;896路;934路;951路;956路;971路;993路;f5路内环;f5路外环;房1路内环;房1路外环;房27路;房39路;黄向专线;快速直达专线140路,,,0,2eecac7fe4167a6b601809e5
良乡北关北站,39.755949,116.148463,616路;616路高峰快车;895路;897路;897路区间;901路,,,0,1605bc96893ad7af79dbd27e
北潞园,39.743349,116.138862,616路;616路高峰快车;901路;房13路支线;房13路支线区间;房1路内环;房1路外环;房27路;房39路,,,0,3b4850e04fdd22ca4f3a595f
西潞园,39.740481,116.142546,616路;833路;839路;897路;897路区间;901路;952路;房13路;房13路支线;房13路支线区间;房2路内环;房2路外环;房36路;房36路支线;房41路;房46路,,,0,993d71096bcc155ffbf0cbf6
良乡火车站,39.747163,116.156993,646路;896路;951路;971路;993路;房28路;房2路内环;房2路外环;房35路;快速直达专线140路,,,0,9e3d990ce79c68e917948ed9
送变电公司,39.755065,116.16075,646路;896路;951路;971路;993路;房28路;房2路内环;房2路外环;房35路;快速直达专线140路,,,0,f50fe1d578d0cfade81e978c
苏园,39.734529,116.125828,646路;839路;901路;951路;952路;房12路;房2路内环,,,0,0269ba6cb559a98825d2bba8
苏庄,39.736926,116.130308,房12路;房18路;房2路内环;房38路;房38路区间;房43路;房48路;房49路,,,0,a6037b7205ac63181fe9993b
良乡医院,39.742504,116.148503,616路;895路;901路;907路;房12路;房13路;房15路;房18路;房1路内环;房1路外环;房28路;房33路北白;房33路薛庄;房34路;房35路;房37路;房38路区间;房39路;房42路;房42路夜班车;房46路;房47路;快速直达专线177路,,,0,33a15f0df76c3ea41329356a
行宫南门,39.753911,116.152896,房2路内环;房2路外环;房33路北白;房33路薛庄;房37路;房38路;房38路区间,,,0,4e8decb59346d2668715419d
良乡妇幼保健院,39.735781,116.134699,房35路;房36路支线;房50路,,,0,befb56eed328c40aea56fa5e
良乡三中,39.731991,116.134512,f5路内环;f5路外环;房2路内环;房2路外环;房35路;房36路;房36路支线;房50路,,,0,feec2c0100dcfe4feaf8535f
肖庄,39.711964,116.130648,房27路;房35路;房39路;房43路;涿州19路,,,0,b41377f68af1f7a96d20b97b
良乡伟业嘉园,39.737426,116.166301,895路;896路;934路;房1路内环;房1路外环;快速直达专线176路,,,0,17fd63c3fff1c846a8059d54
地铁苏庄站,39.729258,116.129752,833路;897路;897路区间;907路;934路;971路;f5路内环;f5路外环;f68路;房13路;房13路支线;房13路支线区间;房15路;房1路内环;房1路外环;房28路;房2路内环;房2路外环;房31路;房35路;房36路;房36路支线;房37路;房41路;房42路;房42路夜班车;房46路;房50路;黄向专线;快速直达专线177路;涿州19路,,,0,311057941f88a90e4e554797
地铁良乡南关站西,39.730888,116.142535,833路;897路;897路区间;956路;f5路内环;f5路外环;房13路;房13路支线;房13路支线区间;房15路;房1路内环;房1路外环;房27路;房28路;房2路内环;房2路外环;房31路;房37路;房39路;房41路;房42路;房42路夜班车;房43路;房46路;房48路;房49路;涿州19路,,,0,caf039e0080864372efaa76d
炒米店路口,39.726843,116.110816,房12路;房15路;房18路;房28路;房2路内环;房2路外环;房31路;房36路;房37路;房38路;房38路区间;房41路;房42路;房42路夜班车;房43路;房46路;房48路;房49路,,,0,277e736e520f79b82b06ce03
地铁良乡南关站,39.729432,116.146292,956路;f5路内环;f5路外环;f68路;房15路;房39路;黄向专线;快速直达专线177路,,,0,58adb16a1bb083266fc02cb6
良乡阎村桥,39.731858,116.120693,646路,,,0,e023470422f117d2db131859
黑古台,39.711846,116.155952,房33路北白;房33路薛庄;房48路;房49路,,,0,e0c90a2972a9333ba6da39da
良乡肖庄,39.712215,116.130439,993路;f68路;涿州19路,,,0,fe37a20eb10d0c73028972f2
首发物流,39.728814,116.121617,971路;f5路内环;f5路外环;f68路;房1路内环;房1路外环;房27路;房36路支线,,,0,77c6915d80a4868b8605bf01
良乡机动车检测场,39.719103,116.136635,房27路;房39路;房43路;房48路;房49路;涿州19路,,,0,1b69a42eda6c20e452e5c5ee
苏庄东街北口,39.736954,116.134154,646路;839路;907路;934路;951路;952路;971路;993路;房12路;房18路;房1路内环;房1路外环;房2路内环;房2路外环;房35路;房36路;房36路支线;房38路;房38路区间;房43路;房48路;房49路;房50路;快速直达专线140路,,,0,8915a765f30a7d132cb17ef7
地铁良乡大学城西站,39.729824,116.163604,895路;f5路内环;f5路外环;房1路内环;房1路外环;房34路,,,0,cae54ed4fa28263df503b8d1
市政交通一卡通,39.741439,116.134158,月华大街西100米,76cb5ee7cd3132732b06ce16,,1,76cb5ee7cd3132732b06ce16
良乡北关(北),39.750418,116.148555,房2路内环;房2路外环;房33路北白;房33路薛庄;房37路;房38路;房38路区间,,,0,7d5444980c84dae0eae582d6
良乡西路,39.736999,116.131391,646路;839路;951路;952路;房1路内环,,,0,962119d99009ea0e21022009
安庄,39.756913,116.127775,房36路支线;房47路,,,0,64505747d2c73bb683a12e39
瑞雪春堂,39.724564,116.156335,956路;f5路内环;f5路外环;房50路,,,0,53c5d31c1295084a3517dc95
渔儿沟村,39.752873,116.142543,897路;897路区间;房1路内环;房1路外环,,,0,39eb3ad2d7be22b7bbbd6376
拱辰南街,39.73347,116.148601,895路;f5路内环;f5路外环;f68路;房15路;房1路内环;房1路外环;房33路北白;房33路薛庄;房34路;房38路;房38路区间;房50路,,,0,b8a37eb949e09ae012293568
房山法院,39.753854,116.145488,房1路内环;房1路外环,,,0,62b8a654e61ec903d7851fa6
前沿村,39.729655,116.10424,房43路;房48路;房49路,,,0,666401b2eb212fe92fb96d4e
616公交总站站自行车租赁点,39.741873,116.135341,北潞春家园南门616公交总站,a64484d39e2d86f3c5effb23,,1,a64484d39e2d86f3c5effb23
区政府,39.753928,116.150731,房2路内环;房2路外环;房33路北白;房33路薛庄;房37路;房38路;房38路区间,,,0,9e468b64f1895fdc51e5c55c
良乡东关新村,39.737388,116.159892,896路;f5路内环;f5路外环;房1路内环;房1路外环,,,0,03b6c246ae8f2fc6cf06a493
西潞南大街,39.733474,116.142605,833路;897路;897路区间;956路;f68路;房13路;房13路支线;房13路支线区间;房1路内环;房1路外环;房27路;房28路;房2路内环;房2路外环;房31路;房37路;房38路;房38路区间;房41路;房42路;房42路夜班车;房43路;房46路;房48路;房49路,,,0,c4d35002209a4f4bb15c6a57
良乡大南关村,39.721125,116.138431,f68路;房27路;房39路;房43路;房48路;房49路;涿州19路,,,0,0a48ca56376a13b54e55473f
送变电公司路口西,39.756615,116.160127,833路;839路;907路;952路;房15路;房18路;房2路内环;房2路外环;房31路;房33路北白;房33路薛庄;房34路;房37路;房38路;房38路区间;房41路;房42路;房42路夜班车;快速直达专线177路,,,0,24af15fe8331bd88fa0cad16
苏庄大街,39.730219,116.130122,907路;934路;971路;993路;f5路内环;房35路;房36路;房36路支线;快速直达专线140路,,,0,adf0d80b0819d815d92f281d
昊天嘉园,39.729565,116.15494,895路;956路;f5路内环;f5路外环;房1路内环;房1路外环;房33路北白;房33路薛庄;房34路;房50路,,,0,3ff9af22ece36ac2471a32d6
苏庄中路,39.732332,116.131346,907路;934路;971路;993路;f5路内环;f5路外环;房36路;房36路支线;快速直达专线140路,,,0,a975730b8368c6bbaccb664e
行宫南门路口,39.752351,116.153514,833路;839路;907路;房13路;房15路;房18路;房1路外环;房2路内环;房31路;房34路;房41路;房42路;房42路夜班车;快速直达专线177路,,,0,6159468e40ae2ceac91b95c2
良乡伟业家园,39.737419,116.166162,黄向专线,,,0,e3058651fcecc354b0077d93
行宫东门,39.756164,116.156409,房33路北白;房33路薛庄;房38路;房38路区间,,,0,988c01936fcfe8351d1d1187
月华小区,39.738917,116.131764,901路;房1路内环;房1路外环,,,0,9eda7d7eb24192ec17c8f65a
苏庄西街南口,39.729119,116.126821,833路;907路;971路;f5路内环;f5路外环;f68路;房13路;房13路支线;房13路支线区间;房15路;房1路内环;房1路外环;房28路;房2路内环;房2路外环;房31路;房36路;房36路支线;房37路;房41路;房42路;房42路夜班车;房46路;房50路;黄向专线,,,0,6385dd664977167716c905bb
房山区政府,39.753924,116.150608,房1路内环;房1路外环,,,0,d9f00055e63e23382fb17eab
市政交通一卡通公交充值点,39.741439,116.134158,北潞春家园(东南二门)附近,829c51ea63bbe594a5da3970,,1,829c51ea63bbe594a5da3970
苏庄东街南口,39.729696,116.135127,833路;897路;897路区间;f5路内环;f5路外环;f68路;房13路;房13路支线;房13路支线区间;房15路;房1路内环;房1路外环;房28路;房2路内环;房2路外环;房31路;房37路;房41路;房42路;房42路夜班车;房46路;涿州19路,,,0,37f4948631e9d8cb843304e6
芳菲小区,39.760804,116.124699,房36路;房36路支线;房47路,,,0,47f2eff23eb30598c17da284
黑古台北,39.716135,116.155801,f5路内环;f5路外环;房33路北白;房33路薛庄;房48路;房49路,,,0,8b0a24c56ed32ca543e19268
西路南大街,39.733277,116.142521,房41路,,,0,b9664b000e385ebda7c7566b
行宫小区南门,39.753932,116.153171,952路;房1路内环;房1路外环,,,0,db0757b4ad68bee3dbd891ba
昊天温泉家园,39.741719,116.154081,646路;896路;951路;956路;971路;993路;房12路;房27路;房28路;房2路内环;房2路外环;房35路;房39路;房46路;房47路;快速直达专线140路;快速直达专线176路,,,0,f93598f8a4a98a33fea77869
良乡体育中心,39.749279,116.14102,897路;897路区间;房1路内环;房1路外环,,,0,e331e9e072eac247f7231093
多宝路,39.743542,116.162923,956路,,,0,38211fe641787f8d990050da
富庄,39.716017,116.146524,f5路内环;f5路外环;房48路;房49路,,,0,889d57bb1a28944e0bf5ebc0
地铁良乡南关站北,39.730983,116.148736,房33路北白;房33路薛庄;房39路;房50路;黄向专线,,,0,1df6b20a91c39cd282a12ec9
北潞园东门,39.748817,116.138389,833路通勤班车;房36路;房36路支线;房47路,,,0,c19526af95ae4eb36e20b9d0
揽秀南大街,39.722365,116.157863,956路,,,0,fdcef88a08d4a119cae33c30
翠柳大街,39.720689,116.1302,993路;f5路内环;f5路外环,,,0,527d559963fb89e14e2fdfd9
良乡西门(南),39.736821,116.142476,房27路;房28路;房2路内环;房31路;房37路;房38路;房48路,,,0,5e7675f00c2d51eb441a32f9
良乡大角(西),39.737286,116.147947,房12路;房18路;房27路;房28路;房2路内环;房31路;房37路,,,0,0443b7c8516968f709a8d4db
南上岗村,39.745641,116.114717,房50路,,,0,8290af334ffaaadc4f6d462c
太平庄明慧家园,39.739175,116.12539,房39路,,,0,03c7e58dc838880f047ce8af
良乡大角(北),39.737769,116.148581,房13路支线;房13路支线区间;房15路;房2路外环;房31路;房34路;房35路;房38路,,,0,daaeb04f20ec2a9afbf0cbac
东沿村新村,39.736953,116.117018,房50路,,,0,1df32a5724909dbbede4a5b0
肖庄南站,39.705655,116.124411,房27路;房35路;房39路;涿州19路,,,0,2568977fe3e3f3c2b54f5463
地铁良乡南关站东,39.730201,116.149031,895路;956路;房1路内环;房1路外环;房33路北白;房33路薛庄;房34路;房50路,,,0,0750a636f9d4b83a9fec2bcb
北京公交驾校(良乡体验中心店),39.74196,116.14324,北京市房山区北关西路24号,,,1,1f489b824e9e4046f503b8e9
佳世苑小区,39.727435,116.130148,f5路外环;房35路,,,0,39442d56ff1b7fa6cf06a4a1
揽秀北大街,39.735025,116.163881,f5路内环;f5路外环,,,0,e01648c62a9d5d16ebe58286
南关西路,39.732655,116.145964,616路;房38路;房38路区间,,,0,f50cd9490dc1ab14631809d9
良乡大角(东),39.737227,116.150031,房27路,,,0,9dc18ed914a38e9d01294fdd
梅花庄西,39.744472,116.164926,房12路;房46路;房47路,,,0,aa09aa633807380b1b11d585
华冠购物中心,39.742147,116.145781,房27路;房2路内环;房2路外环;房39路;房46路;房47路,,,0,2392fa1d9c07b429725e80fe
太平庄通尚苑,39.73937,116.128966,房39路,,,0,793dbf2934862a75b21e367c
良乡医院(东),39.742242,116.149787,房27路;房2路外环;房35路,,,0,5de6aaea7c07d1d12d47334a
阎村桥,39.729396,116.118881,房12路;房15路;房18路;房28路;房2路内环;房2路外环;房31路;房36路;房37路;房38路;房38路区间;房41路;房42路;房42路夜班车;房43路;房46路;房48路;房49路,,,0,8afe5fe444b55e71c07da24b
良乡西门(东),39.737157,116.143734,房13路支线;房13路支线区间;房27路;房2路外环;房31路;房35路,,,0,f5ab88d126829f66cc06a4fc
良乡西门(西),39.737205,116.141304,房12路;房18路;房2路外环;房38路;房43路;房48路,,,0,8c5a0e8e824bb277daeced52
常庄路口,39.724506,116.156314,房33路北白;房33路薛庄,,,0,a846c726c635bd76f50e77f3
肖庄村南,39.711497,116.134087,房43路,,,0,75b400fab2ecbe1e2806cee2
良乡大角(南),39.736092,116.148528,房33路北白;房33路薛庄;房38路,,,0,31dc707a6e89bb06f7e73b10
太平庄路口,39.73889,116.131743,房27路,,,0,d018caf5e3b934036c3e1bc2
区政府第二办公区,39.729288,116.139167,房1路内环;房1路外环;房2路内环;房2路外环;房37路;房42路;房42路夜班车;涿州19路,,,0,969d178bea4f4d61626858b6
西潞北大街,39.743792,116.142584,房27路;房36路;房36路支线;房39路;房41路;房47路,,,0,8eea249c96d34368744ff106
固村村口,39.755113,116.129898,房36路;房36路支线;房47路,,,0,9c6547290c19ca50a2d230bf
北京凯捷风公交客运有限责任公司,39.725562,116.119157,北京市房山区良坨北路,7f762d2385dfcfec3a13fda8,,1,7f762d2385dfcfec3a13fda8
阎村车辆段,39.734298,116.113535,房50路,,,0,61a5cdf31668cdccae31e507
良坨路口,39.745909,116.143376,897路;897路区间;房1路内环;房1路外环;房27路;房36路;房36路支线;房39路;房41路;房47路,,,0,698b38c0bdf8bae8b6f42fbf
阎村路口,39.726507,116.102059,房43路,,,0,05afc37b58d387fdaecb66f7
东关新村,39.736915,116.159685,北京市房山区良乡东路,7e313e365d8c5c74ae080ff8,,1,7e313e365d8c5c74ae080ff8
苏园路口,39.734749,116.12609,房12路;房18路;房27路;房2路外环;房38路;房38路区间;房43路;房48路;房49路,,,0,5a3bb0ce45f55246c8213db2
黄辛庄东里,39.76112,116.156477,房33路北白;房33路薛庄;房38路;房38路区间,,,0,61cf6d9f2d71b4e68bfc06da
良乡北关(南),39.747725,116.14853,房13路;房18路;房2路内环;房2路外环;房31路;房33路北白;房33路薛庄;房37路;房38路;房38路区间;房42路,,,0,9292dcafd6a24388871541d7
太平庄明慧嘉园,39.739188,116.125348,房13路支线;房13路支线区间,,,0,e56f90f5384596412fb90882
安庄村,39.757003,116.127692,833路通勤班车;房36路,,,0,5330aa03ddae820f2902e137
良乡西门(北),39.737911,116.142539,房2路内环,,,0,3d7ae4e9f758a79ef8221334
蝶翠苑,39.733882,116.124874,房12路;房18路;房27路;房2路外环;房38路;房38路区间;房43路,,,0,60c510580187b81c5bf6be8c
良乡医院(北),39.742686,116.148598,房13路支线;房13路支线区间;房15路;房2路内环;房31路;房34路;房38路,,,0,0c63f775de75e322b1077da5
良乡工业开发区东门,39.724721,116.141616,房27路;房39路;房43路;房48路;房49路;涿州19路,,,0,09f4dca3ac2fc38d2d473366
建鑫园,39.732321,116.131216,907路;房2路内环;房2路外环;房35路;房36路;房36路支线;房50路,,,0,28b362a165df78a85a10935d
良乡北关(东),39.748735,116.149048,房13路;房13路支线区间;房15路;房18路;房31路;房34路;房42路;房42路夜班车,,,0,aeb9d94751bc85c6a0acc4d4
太平庄东里,39.738166,116.125547,房39路,,,0,3a8408bb7e7d89660c0a7086
良乡医院(南),39.741631,116.148495,房12路;房18路;房28路;房2路内环;房31路;房33路北白;房33路薛庄;房37路;房38路,,,0,2ad850144080598029fc482f
地铁良乡大学城西站,39.729738,116.163245,黄向专线,,,0,3c8ebf708005debcaeb22a8b
良乡北关(西),39.747694,116.148666,房13路支线,,,0,9e68b3595680a5bf4e554703
良园二路东口,39.718063,116.134875,f5路内环;f5路外环,,,0,b0a5f1057af12663ffa77874
良园二路,39.717983,116.131345,f5路内环;f5路外环,,,0,0fafa1834a2c87b214c8f6ff
金鸽园小区,39.74518,116.108397,房50路,,,0,09025ef842910ec745e274f4
西安新村,39.741875,116.117158,房50路,,,0,2f070794943a5e46f8dc85fb
地铁良乡南关站西(南行),39.728577,116.142525,f68路,,,0,0f64e22972700112bca24040
地铁良乡南关站西(北行),39.730641,116.142615,f68路,,,0,6bb2ba5f2277907fa8175a90
地铁良乡南关站西(东行),39.729302,116.143284,f68路,,,0,b2a8183c85ee18222bd7ab11
长虹小区,39.732655,116.146038,房38路区间,,,0,12bbe6b6acd387ed601c6765
地铁良乡南关站西(西行),39.729409,116.141784,f68路,,,0,55aa0ef5a0b1de368f55ecca
阎村路口(临时站),39.726611,116.102035,房49路,,,0,edaffa5ad29564d9c26c1410
朱岗子村,39.740024,116.228203,832路;房42路;房47路;房51路,,,0,08e852c923f9a151c9e33ceb
葫芦垡,39.710103,116.219524,934路;房12路;房34路;黄向专线,,,0,905cc37ecdf4a434bc484276
梨村,39.710882,116.191317,832路;895路;896路;956路,,,0,b4078acea31edcaca3acc48e
长阳一村,39.758908,116.177545,956路;房28路;房2路内环;房2路外环;房33路北白;房33路薛庄;房34路;房35路;房38路;房38路区间;房51路,,,0,26dead0e084d0e0bf23cba0c
碧波园,39.756745,116.186921,956路;房28路;房2路内环;房2路外环;房33路北白;房33路薛庄;房34路;房35路;房38路;房38路区间;房51路;快速直达专线187路,,,0,1ec88c83880a8149f7b916ce
葫芦垡村,39.713015,116.221064,832路,,,0,53e0ded07a3df57a3fe231c6
阎仙垡客运站,39.726785,116.225185,房42路;房47路;房51路,,,0,f1879f0cbc711b8938221c66
闫仙垡村口,39.7334,116.226793,832路,,,0,dfb0fc1a6034ae7cb020a845
保合庄,39.745849,116.21452,房46路;房47路,,,0,730ee508e6db7c17ee74f81a
水碾屯新村,39.740691,116.196098,房1路内环;房1路外环;房46路;快速直达专线93路,,,0,3b41e9459b888c57d92f28aa
良乡开发区,39.713727,116.21121,934路;房12路;房34路,,,0,f4ec03020e5b3447a0046460
阎仙垡村口,39.7337,116.227089,房42路;房47路;房51路,,,0,5bc0368d9c01661d210262b6
燕保阜盛家园,39.72029,116.198078,快速直达专线176路;快速直达专线93路,,,0,f953be33a7c87a73cbe33c44
地铁良乡大学城站,39.729424,116.184191,896路;934路;房1路内环;房1路外环;房34路;黄向专线,,,0,149eaa768bd899da593ac86f
智汇城创业园,39.740517,116.190169,房12路;房1路内环;房1路外环;房46路;房47路,,,0,0e0e12b87d867820f32d830e
地铁广阳城站北,39.756742,116.189846,956路;房28路;房2路内环;房2路外环;房34路;房38路;房38路区间;房51路;快速直达专线187路,,,0,5e09df4fcdd99b3a7ec8764c
地铁广阳城站,39.756317,116.190135,房33路北白;房33路薛庄;房35路;快速直达专线93路,,,0,26f6c060a72ae492fd0eb0ea
长海化工厂,39.750851,116.227603,房42路;房51路,,,0,a194152a0511a34fb5147f8f
梅花庄新村,39.745647,116.170613,956路;房12路;房46路;房47路,,,0,2b28734f5ba7078708ccdd1b
北京中医药大学(良乡),39.719619,116.173134,895路;956路;房1路内环;房1路外环,,,0,31647629b05a963ee5073843
知兴东路,39.72659,116.197459,934路;房34路;快速直达专线176路;快速直达专线93路,,,0,85cb9d7de3c84806028972d4
长阳滨河公园,39.756832,116.195059,房38路;房38路区间;房51路,,,0,d35673ea86f4a0503904b171
中国社会科学院(良乡),39.743297,116.185936,房12路;房1路内环;房1路外环;房46路;房47路,,,0,25552cf17f40cea96d20b9d6
地铁大学城北站,39.737591,116.190005,房46路,,,0,933ea73a141c3bd99122e01b
地铁良乡大学城北站,39.736425,116.190065,房12路;房1路内环;房1路外环;房46路,,,0,a9d0ff7adfd013a4f4eafc36
半岛广场南门,39.758474,116.219571,832路;956路;房38路;房38路区间;专93路,,,0,e0a0a68d3ade9a8fc5effb1c
首都师范大学西门(良乡),39.72027,116.180959,房1路内环;房1路外环,,,0,84f704cd2a4b45e5a1d23036
首都师范大学良乡校区,39.716104,116.183834,895路,,,0,caa89e6ef991698f43ab9ab5
天骄骏园小区,39.757332,116.182621,房2路外环;房33路北白;房33路薛庄;房38路;房38路区间;房51路,,,0,7d8985f4963d1f271ee9997c
北京工商大学(良乡),39.724485,116.173184,895路;房1路内环;房1路外环,,,0,bfc194ccbf7fa3ec902ca3ec
东羊庄,39.729593,116.17161,房1路内环;房1路外环;房34路,,,0,14f471904c8996aff82213bb
天骄俊园小区,39.757326,116.182637,956路;房28路;房2路内环;房34路;房35路,,,0,87d33da6ab3c0dd1d8eced96
西悦雅居,39.758487,116.215897,956路;房38路;房38路区间;房42路夜班车;房51路,,,0,285b74b070215e57dc1e521e
阳光南大街,39.729629,116.173148,895路;房1路外环,,,0,39f51febc97e095989f15dd3
东羊庄新村,39.737275,116.171731,895路;896路;934路;房1路内环;房1路外环,,,0,cbfb78d36748e9692b11d1ca
理工睿府,39.729055,116.179161,896路;房1路内环;房1路外环,,,0,1d552b849f5405058bb9881b
金地朗悦,39.737278,116.195744,房46路,,,0,36ebbb6fd91e416cf23cba53
杨庄子,39.759984,116.226031,832路;房38路;房38路区间;房42路,,,0,5984ab3fff9bd87eae31e590
半岛广场东门,39.761333,116.221417,956路;专93路,,,0,bc6e639394a83c38a2a93406
北京中医药大学良乡校区,39.720523,116.173234,895路,,,0,6ea5e809cd84c10b4054d766
北京工商大学良乡校区,39.725286,116.173247,895路;高校春运专线3线;高校春运专线4线,,,0,83fb04458a45ab0b213bf2b3
水碾屯新村北,39.743129,116.194534,房1路内环;房1路外环;房47路,,,0,d9739f94d6da70c62fb17e8b
张家场村口,39.757214,116.207174,912路;956路;房38路;房38路区间;房51路,,,0,03b1711c7c456e3f96f08c0a
北京理工大学(良乡),39.737342,116.176618,房1路内环;房1路外环,,,0,fcbe4716a23ff2527af796c5
葫芦垡路口北,39.713062,116.22107,房51路,,,0,8185ce11382c63ba71210b05
朱岗子村北,39.746889,116.227815,房47路,,,0,dc3822d660d4afddc91b9555
牛家场,39.749209,116.2096,房47路,,,0,10c689696e27be6bd22dd60d
拱辰街道社会福利中心,39.711021,116.189015,832路;896路;956路,,,0,6e6622b215c7f8f901897259
梨村路口,39.718883,116.197759,房12路,,,0,c873ad08ba4ff3ac4354d792
长阳一村,39.758844,116.177714,956路,,,0,84eee005b8ef5b47715e809b
长阳滨河公园南,39.756839,116.195082,912路;956路,,,0,799a675999d59a3b07026f46
首都师范大学(良乡),39.716076,116.183101,895路;956路,,,0,a2c6990910ec0789b5147f09
金地郎悦,39.737273,116.195793,房1路内环;房1路外环,,,0,f9bc9dd40eceaa1109b93a8b
半岛广场西门,39.758845,116.215838,832路;912路;快速直达专线93路;专93路,,,0,f8f7d5601cf195b2bd484268
葫芦垡东,39.706393,116.220344,房12路,,,0,25067302209a4f4bb15c6a60
葫芦垡路口南,39.708736,116.220669,房51路,,,0,a1be55f5c6af9c6a4afd3fa9
水碾屯西口,39.743142,116.19095,房47路,,,0,921e3f61bb2ba1fb2b201af4
北京理工大学良乡校区,39.73728,116.176895,高校春运专线3线;高校春运专线4线;黄向专线,,,0,2b1ff3eb565b08dd8a36eea5
地铁良乡大学城站东,39.729764,116.189899,房12路;房1路内环;房1路外环,,,0,28043e60626f2c74cd04efeb
学园南街南口,39.716281,116.181297,房1路内环;房1路外环,,,0,6865b02e04ba3fc616c90515
长阳路东口,39.759353,116.226873,房42路;房51路,,,0,6c3687aa574fd2bd1811d53b
辛瓜地路,39.746116,116.195142,快速直达专线93路,,,0,34fe09716ea472f4d0ff2303
保合庄东站,39.746394,116.216436,房46路,,,0,17a6b5b969c9376a6e20b9b4
长阳国际城南,39.759615,116.225173,房38路;房38路区间,,,0,a23cffef6ddfa882a80dd8ea
长阳滨河公园西,39.76109,116.193091,房2路内环,,,0,183268db54b435ca2cb908d8
阎仙垡小学,39.733065,116.231754,房42路,,,0,be7d6d6b182c6bdb593ac86d
阎仙垡水站(临时站),39.730366,116.231605,房42路,,,0,7c2fc3a226f0382bb320a8bf
阎仙垡水站,39.730647,116.231594,房42路,,,0,31f620f457042a3606fef580
大兴一职,39.729326,116.293732,954路;957路;兴22路;兴25路,,,0,a8d9760a8a3d3ac08bdb738a
太福庄,39.718689,116.295091,兴53路,,,0,7ae2d56908c397452fe67b06
前辛庄,39.725118,116.277278,兴25路,,,0,24167cd7878d51b0d6b74eb9
六合庄,39.714906,116.256579,兴25路,,,0,cdfdb3c63f74769828201a4b
郝庄子南,39.759311,116.284586,840路;947路;兴33路,,,0,18c225e788e092dfc056ac74
鹅房,39.757686,116.276097,兴33路,,,0,dea9c8020f6779494afd3f27
前辛庄南站,39.723675,116.277925,兴25路,,,0,c46d8d0eb71fae12f82d6100
芦城西口,39.759014,116.291889,840路;947路;兴33路,,,0,00ad00fbe8e949dbb220a8c1
周村,39.715024,116.29591,兴53路,,,0,18fdf27607d9989488fc06bb
逸仙学院,39.727144,116.28477,兴25路,,,0,05658da8fc94eeebabf72965
周村西口,39.713518,116.296206,兴22路;兴53路,,,0,d81d6458bdeb6544e011038a
太福庄东口,39.71881,116.295065,兴22路,,,0,80754a88171d29560aa8d4ad
大兴一职路口,39.729371,116.293937,兴53路,,,0,3c6aa0680b6b9d9dc1f1cfa4
周村南,39.712232,116.296421,兴53路,,,0,b5ef29b1ed86755d740269c0
前辛庄东,39.725878,116.279706,兴25路,,,0,30c93061bbe2e8c01b94c6be
前辛庄西站,39.722402,116.273366,兴25路,,,0,9d1472ce6d6d88b760180940
南湖公寓,39.726489,116.282041,兴25路,,,0,74b36b2978e65613b7265565
一职路口,39.729316,116.293867,兴25路;兴53路,,,0,c494bd7365d2bc24b1077dfa
芦城,39.757443,116.297189,840路;947路;兴33路,,,0,474493c640b965d2d12dd6f1
海子角,39.725722,116.354947,848路;934路;968路;969路;海子角通勤快车;快速直达专线173路;兴27路,,,0,c28957d296b48a70d13ce300
大兴宋庄,39.730573,116.30121,954路;957路;兴22路;兴25路;兴61路,,,0,e456c4e7a04c9541c356acca
黄村,39.731602,116.352682,366路;366路快车;369路;679路;827路;840路;842路;844路;848路;849路;937路;943路;947路;x105路;凤河营通勤班车;桂村通勤快车;海子角通勤快车;黄向专线;兴11路;兴13路;兴14路;兴15路;兴16路;兴19路;兴21路;兴23路;兴24路;兴26路;兴27路;兴28路;兴29路;兴30路;兴31路;兴31路区间;兴52路;兴54路;兴61路;兴940路,,,0,e2b5105de09498c7b75f1e05
大兴桥东,39.727658,116.354475,679路;848路;934路;947路;969路;x105路;凤河营通勤班车;海子角通勤快车;快速直达专线136路;快速直达专线173路;兴19路;兴20路;兴26路;兴29路;兴31路;兴31路区间;兴35路;兴57路;兴940路,,,0,9d526be9feac0b5f1d38942c
王立庄,39.706896,116.360204,兴14路;兴17路;兴18路,,,0,60bee8a64ba2aa5cd3ff2306
大兴桥,39.727954,116.350926,兴14路;兴15路,,,0,58f5496e684208f81e5800fd
黄村东大街东口,39.737556,116.35121,840路;842路;844路;848路;937路;957路;x105路;北京密码黄村线;大兴环一线内环;大兴环一线外环;凤河营通勤班车;黄向专线;兴11路;兴14路;兴18路;兴19路;兴20路;兴21路;兴25路;兴26路;兴28路;兴29路;兴31路;兴31路区间;兴52路;兴54路;兴61路;兴940路,,,0,edd9d618564392b61ef74d8d
化纤俱乐部,39.741906,116.339227,456路;631路;631路快车;829路;947路;954路;968路;x105路;凤河营通勤班车;快速直达专线188路;兴13路;兴14路;兴28路;兴31路;兴31路区间;兴35路;兴37路;兴48路;兴54路;兴55路;兴57路;兴66路;兴940路,,,0,e36ce81ca5d0ac0d43ab9ac0
黄村西大街,39.736776,116.339208,456路;631路;631路快车;829路;840路;947路;954路;968路;x105路;北京密码黄村线;大兴环一线内环;大兴环一线外环;凤河营通勤班车;快速直达专线175路;快速直达专线188路;兴45路;兴48路;兴52路;兴61路;兴66路,,,0,7c7bc308e071f52341d63e0f
大兴桥北,39.729061,116.352451,679路;827路;840路;842路;844路;848路;849路;937路;943路;x105路;凤河营通勤班车;桂村通勤快车;海子角通勤快车;黄向专线;郊81路;郊87路;快速直达专线173路;兴14路;兴16路;兴19路;兴21路;兴23路;兴24路;兴26路;兴27路;兴28路;兴29路;兴30路;兴31路;兴31路区间;兴52路;兴54路;兴61路;兴940路,,,0,f29a65e27c238ed99ff77904
大兴桥西,39.727966,116.350103,366路;366路快车;369路;827路;840路;934路;947路;968路;969路;桂村通勤快车;郊81路;兴13路;兴15路;兴16路;兴17路;兴18路;兴20路;兴21路;兴35路;兴52路;兴57路,,,0,1ac0867fc6feac7e00ff2da2
大兴长途站,39.735895,116.353601,郊87路,,,0,067624664b7b565054bfff77
清源路东口,39.748512,116.351818,366路;366路快车;679路;827路;841路;849路;943路;桂村通勤快车;海子角通勤快车;郊81路;团河北村通勤快车;兴15路;兴23路;兴24路;兴27路;兴30路;兴47路;兴48路;兴59路;专23路,,,0,91cc2606216c8d61c9fa5f1f
团河路西口,39.742537,116.352308,366路;366路快车;369路;679路;827路;841路;849路;943路;957路;桂村通勤快车;海子角通勤快车;郊81路;兴15路;兴16路;兴23路;兴24路;兴25路;兴25路支线;兴27路;兴30路;专23路,,,0,f022f7a93ef564adeb12e441
清源西里,39.749999,116.339045,456路;631路;631路快车;829路;841路;954路;968路;969路;x105路;凤河营通勤班车;快速直达专线175路;快速直达专线188路;兴13路;兴33路;兴35路;兴37路;兴53路;兴66路;兴940路,,,0,acccc4d7c57fee6aa9175a49
永兴庄北,39.749637,116.311112,840路;947路;兴33路;兴53路,,,0,f3e029ea81e9b40cafcb66d0
大兴小营,39.759045,116.338858,410路;631路快车;829路;841路;842路;937路;954路;968路;x105路;凤河营通勤班车;快速直达专线175路;兴47路;兴66路;兴940路,,,0,de08a4ec539275d0e9f853f1
海子角北口,39.727375,116.361071,679路;848路;934路;947路;968路;969路;x105路;凤河营通勤班车;桂村通勤快车;海子角通勤快车;郊87路;兴19路;兴20路;兴26路;兴29路;兴31路;兴31路区间;兴35路;兴57路;兴940路,,,0,4cb6f24eed5c738331f71d22
大兴影剧院,39.737429,116.343592,840路;947路;x105路;凤河营通勤班车;兴13路;兴14路;兴20路;兴22路;兴28路;兴37路;兴45路;兴46路;兴52路;兴54路;兴57路;兴59路,,,0,24eafa86a799f3519ee3218c
站前环岛东,39.72822,116.341579,366路;366路快车;369路;631路;934路;947路;957路;968路;快速直达专线188路;兴12路;兴15路;兴16路;兴18路;兴20路;兴21路;兴22路;兴25路;兴45路;兴46路;兴55路,,,0,1762be113d81fee2f8f0cb39
新安里,39.742451,116.359376,369路;841路;957路;郊87路;团河北村通勤快车;兴16路;兴25路;兴25路支线;专23路,,,0,79edc99993f3806e45e274fc
大兴桥南,39.72637,116.351205,842路;844路;849路;937路;943路;黄向专线;兴23路;兴24路;兴27路;兴28路;兴30路;兴54路;兴61路,,,0,40c94cf648eb3ad9b6f42ff3
三合南里,39.738093,116.33329,840路;969路;兴11路;兴17路;兴19路;兴25路支线;兴45路;兴52路,,,0,248906766f72d9d404fef50c
富强路,39.742469,116.346044,842路;844路;848路;937路;大兴环一线内环;大兴环一线外环;黄向专线;兴12路;兴14路;兴26路;兴59路;兴68路,,,0,569e256577ea1424b5147f4c
康庄路52号院,39.76021,116.318148,大兴环二线内环;大兴环二线外环;大兴西环线内环;大兴西环线外环;兴37路,,,0,92cc9d96fbbcc5a8e115f9a0
黄村火车站,39.727536,116.337954,366路;366路快车;369路;631路;631路快车;大兴环一线内环;大兴环一线外环;郊81路;快速直达专线136路;兴21路;兴22路;兴29路;兴59路,,,0,f910410004522fe8f4b916cd
黄鹅路,39.753913,116.297331,840路;947路;兴33路,,,0,d3879e1fc4d9e29586420e5e
仁和医院,39.747071,116.345986,841路;842路;844路;848路;937路;黄向专线;兴12路;兴14路;兴59路;兴68路;专23路,,,0,c404aebd0875ef7aa8059daa
念坛公园,39.713038,116.327837,456路;934路;快速直达专线175路;兴15路;兴16路;兴37路,,,0,1e8e587e9cf9035c85420ee9
大兴中医院,39.750424,116.345969,842路;844路;848路;937路;黄向专线;兴12路;兴14路;兴47路;兴68路,,,0,08d64176e7bc47605af6be52
枣园地铁站,39.759072,116.337156,大兴环二线外环,,,0,19317c4dd02776f7940319fd
清源西路,39.749232,116.328666,840路;947路;969路;兴33路;兴53路;专23路,,,0,e8404c394ade88814afd3f2b
大兴区医院,39.73747,116.340997,兴11路;兴14路;兴17路;兴19路;兴22路;兴29路;兴31路;兴31路区间;兴35路;兴55路;兴57路;兴61路;兴940路,,,0,66c0ffdb8bb717f04c776e38
林校路,39.728162,116.344672,366路;366路快车;369路;827路;829路;840路;934路;947路;968路;969路;黄向专线;郊81路;兴11路;兴15路;兴16路;兴18路;兴20路;兴21路;兴52路;兴68路,,,0,26d11c3367a6beb3ab175ace
丽园小区,39.756294,116.329375,410路;631路;969路;兴11路;兴13路;兴35路,,,0,71b47cf55515957842afe62a
福苑东区,39.761551,116.361021,434路;快速直达专线109路;兴11路;兴37路;专24路;专67路;专84路,,,0,bbdf9eb1b92be99fa8059d80
丽园路公交场站,39.756104,116.317806,410路;841路;844路;969路;x105路;凤河营通勤班车,,,0,b44e28dd393a0b7a1776435f
清源西里北站,39.752938,116.344935,842路;844路;848路;937路;黄向专线;兴12路;兴14路;兴47路;兴68路,,,0,fc66461fe607daa8c9c3dbc3
三中巷,39.738764,116.346032,842路;844路;848路;937路;黄向专线;兴12路;兴26路;兴59路;兴68路,,,0,1d1cb9fc6305e4200482c246
滨河西里,39.756485,116.344528,842路;844路;848路;937路;大兴环二线内环;大兴环二线外环;黄向专线;兴12路;兴14路;兴47路;兴68路,,,0,fc965e33c8872725a3acc4a5
丽园路,39.755899,116.330414,631路;969路,,,0,edc1e331cfc38d627adbd22c
海子角东口,39.72456,116.361756,848路;934路;968路;969路;海子角通勤快车;快速直达专线173路,,,0,5f9dd8f0f67a8d3e88db7324
福苑小区,39.760338,116.353136,434路;兴11路;兴37路;专24路;专67路;专84路,,,0,76d3573290dbad8cca09f018
兴华园,39.754971,116.338928,631路;631路快车;829路;841路;842路;937路;954路;968路;x105路;凤河营通勤班车;兴13路;兴47路;兴66路;兴940路,,,0,fc15d20558d0505ef4eafc8c
大兴七街,39.724892,116.344009,827路;829路;840路;兴11路;兴21路;兴52路;兴68路,,,0,e5037e3fdd17b5ee83a00c26
大兴二中,39.755051,116.347968,大兴环二线内环;大兴环二线外环,,,0,fd4712d46e52eccfae31e597
大兴宾馆,39.732713,116.346175,兴12路;兴13路;兴17路;兴21路;兴22路;兴25路;兴35路;兴45路;兴46路;兴55路;兴57路;兴68路,,,0,6daa78bf76b2673e873304ac
地铁义和庄站,39.718567,116.325805,456路;934路;快速直达专线175路;兴15路;兴16路;兴25路;兴37路;兴45路;兴46路;兴48路;兴55路;兴66路,,,0,192d4a285601556471210b11
马赛公馆,39.750966,116.318561,大兴环二线内环;大兴环二线外环,,,0,04d53f6d0eaea4029a0050f7
黄村东大街东口南,39.73514,116.352494,366路;366路快车;369路;679路;827路;842路;844路;849路;937路;943路;947路;x105路;凤河营通勤班车;桂村通勤快车;海子角通勤快车;郊81路;快速直达专线173路;兴11路;兴14路;兴15路;兴16路;兴19路;兴20路;兴21路;兴23路;兴24路;兴26路;兴27路;兴28路;兴29路;兴30路;兴31路;兴31路区间;兴52路;兴54路;兴61路;兴940路,,,0,149fd2d827d56df00aa8d4c2
黄良路东口,39.712082,116.340335,827路;829路;840路;842路;844路;937路;黄向专线;兴11路;兴21路;兴23路;兴24路;兴27路;兴28路;兴30路;兴52路;兴54路;兴68路,,,0,22705c69fd0d775049fd3f06
兴政街西口,39.733091,116.338265,456路;954路;957路;969路;兴22路;兴25路;兴46路;兴48路;兴61路,,,0,d5f45ea8a616e9644154d72a
观音寺,39.732582,116.355719,大兴环一线内环;大兴环一线外环,,,0,f399e8302f8f7e95b6147f1c
王立庄北站,39.70898,116.358843,兴14路;兴17路;兴18路,,,0,a1e9e2cc20a04589fbf0cb87
滨河东里,39.752868,116.351296,366路;366路快车;679路;827路;849路;943路;海子角通勤快车;团河北村通勤快车;兴15路;兴59路,,,0,50fd3dfca993829689b988fd
枣园小区,39.755884,116.335635,631路;969路;兴13路;兴25路支线,,,0,19391ba2a533f0182ffaa7c5
义和庄北口,39.729543,116.328758,456路;954路;957路;兴22路;兴25路;兴46路;兴48路;兴61路,,,0,ce19da0891be585133870a0e
大兴七街桥南,39.718805,116.340372,827路;829路;840路;兴11路;兴21路;兴52路;兴68路,,,0,84151b8b16a9bd5816a190c1
大兴一中,39.731886,116.350585,大兴环一线内环;大兴环一线外环;兴11路,,,0,fcc0be4a39706cc6c27da2f1
兴丰街南口,39.729966,116.346199,631路;957路;兴11路;兴12路;兴13路;兴17路;兴21路;兴22路;兴25路;兴35路;兴45路;兴46路;兴55路;兴57路;兴68路,,,0,bb18d7a6bb0fb33fb21e363d
念坛村,39.705181,116.316661,829路,,,0,528135b99e8f576959bbbc15
兴盛街189号院,39.757494,116.324478,兴53路,,,0,a188d766509f6270deee8bb7
物资局小区,39.720656,116.353064,兴14路;兴17路;兴18路,,,0,f05c58e6fbe5fe527ec876a1
枣园路西口,39.758749,116.314318,841路;969路;x105路;凤河营通勤班车,,,0,d1a9c80694e237e3354aae48
黄村公园,39.7481,116.337606,456路;631路;631路快车;829路;947路;954路;968路;x105路;凤河营通勤班车;兴13路;兴26路;兴28路;兴35路;兴48路;兴54路;兴940路,,,0,3091e6e0daa0c7c695ca0785
黄村火车站北,39.730802,116.339278,631路快车;829路;947路;968路;969路;北京密码黄村线;大兴环一线内环;大兴环一线外环;快速直达专线175路;兴18路;兴20路;兴25路;兴29路;兴37路;兴59路;兴66路,,,0,1d93cf079cd5202721f01711
大兴宋庄东站,39.730331,116.304547,954路;957路;兴22路;兴25路;兴61路,,,0,dc6d38419e861d17aecb66a3
大兴辛店村,39.716195,116.355147,兴17路;兴18路,,,0,27ef717c1c1aa5cb08f5eb9f
滨河西里北区,39.759895,116.343753,848路;兴12路;兴14路;兴68路,,,0,c6665898d771a4ab78f796f4
星城商厦,39.735979,116.346059,957路;兴12路;兴13路;兴17路;兴18路;兴21路;兴22路;兴25路;兴35路;兴37路;兴45路;兴46路;兴55路;兴57路;兴68路,,,0,8ec6b4cb9fc2ba949222e01d
盛源桥北,39.707376,116.331126,456路;827路;829路;840路;黄向专线;兴11路;兴21路;兴46路;兴52路;兴68路,,,0,d6d6ff3461af26ceb5f42fe4
漪景园,39.714492,116.337785,827路;829路;840路;兴11路;兴21路;兴52路;兴68路,,,0,da85dbb506edf6b2fea77853
天水街北口,39.706416,116.324752,829路;840路;934路;黄向专线,,,0,14dd129e7b279ebd15c905d0
清源西里南门,39.748369,116.340818,841路;大兴环二线内环;大兴环二线外环;兴23路;兴24路;兴25路支线;兴27路;兴30路;兴48路;专23路,,,0,4a68fbe49cf92e9cd7851f92
新源大街北口,39.707535,116.328843,兴15路;兴16路;兴37路;兴45路;兴66路,,,0,89f081b99cf7cc6a1d1d1188
埝坛公园东门,39.713359,116.327786,兴55路,,,0,8eea5872ccf58eb0c9e33cf2
科技学院,39.752556,116.325771,兴26路;兴28路;兴53路;兴54路;兴55路,,,0,3c83d465351a08e87dc8767f
地铁枣园站,39.759053,116.337378,410路;844路;大兴环二线内环;大兴西环线内环;大兴西环线外环,,,0,c6f67ae1f637235202294f07
海子角收费站,39.723818,116.351288,兴23路,,,0,27b7a8d7fa3e295d3617dc7d
兴盛街187号院,39.757042,116.324354,兴53路,,,0,6d2c6a3fa581252b7dc87692
三合庄,39.744975,116.330849,840路;969路;兴11路;兴25路支线;兴55路,,,0,765fb18889c64261d81318d8
黄村东大街东口北,39.738454,116.352641,366路;366路快车;369路;679路;827路;849路;943路;957路;桂村通勤快车;海子角通勤快车;郊81路;快速直达专线173路;兴15路;兴16路;兴23路;兴24路;兴25路;兴27路;兴30路,,,0,4573e997d17a8f7d26e0a0ad
联港嘉园,39.706788,116.297716,兴22路;兴37路,,,0,4d1ec23761979f7022022086
海子角南里,39.722914,116.351961,兴14路;兴17路;兴18路,,,0,e5ba5bb9de1f0ace71210ba1
清城小区,39.743265,116.334642,大兴环一线内环;大兴环一线外环;兴31路;兴31路区间;兴55路,,,0,c9196a94d09ea7a8bca822b8
康复中心,39.71133,116.337353,829路;兴11路;兴21路;兴52路;兴68路,,,0,4489fdafb48b68345b10936d
大洼村路口,39.729392,116.318647,954路;957路;兴22路;兴25路;兴61路,,,0,08390a137280ac4c41d63e32
广茂大街,39.761504,116.355074,434路;快速直达专线109路;兴37路;专24路;专67路;专84路,,,0,01756f41c1796becdbeced3d
大兴党校,39.735073,116.297664,兴53路,,,0,f4e478d6831de3a5ce04ef14
清源北路,39.751984,116.333278,456路;兴33路;兴35路;兴37路;兴53路,,,0,e508106e230279ea83a00c64
埝坛村,39.705145,116.316556,829路;840路;934路;兴37路,,,0,9126674df431e392246e9838
佟鑫家园,39.731075,116.320525,兴25路;兴25路支线,,,0,3eb659ef41afffe78c1a8937
枣园路口北,39.759647,116.329323,456路;631路;大兴环二线内环;大兴环二线外环;快速直达专线188路;兴11路;兴13路;兴35路,,,0,7329f9ba89a5ea2b4e2fdf49
矿林庄,39.714181,116.342536,兴23路;兴24路;兴27路;兴28路;兴30路,,,0,53c56b58b83e49e44d2fdf0f
黄村镇政府,39.748226,116.347329,大兴环二线内环;大兴环二线外环;兴23路;兴24路;兴27路;兴30路;兴47路;兴59路,,,0,308a3e1d8755da95e6e96514
清源公园北门,39.749913,116.303012,840路,,,0,0476bf3a40afb07a87420e69
首开康乃馨,39.755316,116.320821,大兴环二线内环;大兴环二线外环;兴26路;兴54路;兴55路,,,0,6be9430e00f5b375f4b9164d
三合路,39.742638,116.326291,兴45路,,,0,94e9804980037b10a6da39dc
北京交通学校,39.750336,116.348605,大兴环二线内环;大兴环二线外环,,,0,61eb1a61aeaf84d66a49f3b8
大兴二小,39.737246,116.332666,大兴环一线内环;大兴环一线外环,,,0,648f505c819b56e67369d358
行政学院,39.750754,116.329349,兴11路;兴26路;兴28路;兴33路;兴54路,,,0,be8f51023368df4887154186
印刷学院南门,39.7485,116.336308,大兴环二线内环;大兴环二线外环;兴26路;兴28路;兴33路;兴53路,,,0,cc91a26c963b31f1b04c49c3
大洼路口,39.729217,116.319276,兴22路,,,0,5c1e7cea4ba61fb97adbd2e5
念坛公园东门,39.713331,116.327797,兴15路;兴66路,,,0,2d218971f90d1c03afee7a31
辛店桥北,39.717862,116.354399,兴14路,,,0,9943b024c6414c7eafee7a30
成庄巷路口,39.756001,116.321589,410路;969路,,,0,589baf548fd078164207c1f0
锦华园小区,39.722358,116.33542,兴12路,,,0,c6f5ae2c6c3b0e5e08ccddeb
时代龙和北门,39.74329,116.348611,大兴环一线内环;大兴环一线外环,,,0,917edf743f76fe1feb56fa21
三合北里,39.740166,116.332501,兴45路,,,0,5a7b491bf4db82620bf5eb2f
怡兴园小区,39.73744,116.336486,兴19路,,,0,df9aa17fb18bfa450b69d98c
圣合巷,39.752608,116.322163,兴26路;兴37路;兴54路;兴55路,,,0,8404c867bb2d1805336212d9
康居小区北门,39.73862,116.329558,兴17路,,,0,b02392b869b3c2d4246e9878
枣园东里,39.759138,116.341871,844路;大兴环二线内环,,,0,474fdc0e7969fc7af4eafc85
芦城南口,39.749953,116.297946,840路;947路;兴33路;兴53路,,,0,fa831d42f98afe422cb17ef9
大兴桥南,39.726368,116.351203,849路;943路;兴23路,,,0,7ccba4a8823b00bebca822b0
回收公司,39.712876,116.356796,兴14路,,,0,faf2b2e4236e74219222e00f
海子角收费站,39.724186,116.351283,兴30路,,,0,af2d960c84df40c728b97c5d
三合南里北区,39.740175,116.332557,兴11路;兴45路,,,0,c0d6d93ba308bada3a13fdbc
丽园小区北站,39.758844,116.325854,844路,,,0,bbd602980de838f872210bcc
辛店村南,39.71213,116.357181,兴17路,,,0,84b279410529a293354aae8f
观音寺小学,39.736228,116.355367,大兴环一线内环;大兴环一线外环,,,0,ce513943a9d02b4933169b17
枣园路口南,39.757762,116.329331,410路;456路,,,0,e16ecf905739141395ca0770
滨河西里北站,39.751902,116.345137,黄向专线,,,0,a7133a2f78094f7db9df8f60
枣园东路,39.759148,116.341674,大兴环二线外环,,,0,345c1c787f30f4a514b54b7d
怡兴园,39.73743,116.336045,大兴环一线内环;大兴环一线外环;兴11路;兴17路;兴45路,,,0,23ff6902209a4f4bb15c6a7b
丽园路口北,39.75638,116.32941,410路;456路,,,0,6d8450c4eb3108e2c8e33ce3
兴业大街南口,39.733791,116.334695,969路,,,0,df6529b1f0a080c93ce23172
丽园路西口,39.756443,116.315536,841路;969路;x105路;凤河营通勤班车,,,0,583747624525bbe9c5f50dd9
三合庄社区,39.742658,116.326772,大兴环一线内环;大兴环一线外环;兴31路;兴31路区间;兴52路,,,0,f865f586621744d8b05c6a5e
国家高级教育行政学院,39.750728,116.32939,兴11路,,,0,2694fbe6876da9e78415413d
黄村,39.730602,116.35236,兴23路,,,0,e3b7fd35772cec63d23ce397
枣园东巷南口,39.758804,116.33314,410路;大兴环二线内环;大兴环二线外环;大兴西环线内环;大兴西环线外环,,,0,aa9cffb8ef83ca57873304e3
丽园路口南,39.755188,116.329328,456路,,,0,3e4a83610a95d5d5471a32ee
圣和南巷东口,39.751915,116.324483,专23路,,,0,0e8b66e5b4687fadc4f50dd7
圣和巷,39.752607,116.322182,大兴环二线内环;大兴环二线外环;兴37路;兴55路,,,0,64636e5b7009036e0f0a7041
清源西里南门,39.748373,116.341903,兴23路,,,0,02aa7d13b9935f21b34c493b
兴华园,39.754776,116.33891,631路快车;829路;841路;842路;937路;954路;968路;x105路;凤河营通勤班车;兴13路;兴47路;兴66路;兴940路,,,0,54103512fd43d7d0f119374e
清城行政中心,39.743242,116.337603,大兴环一线内环;大兴环一线外环;兴31路;兴31路区间;兴55路,,,0,67eec9363a1e3f02734b87f8
大兴辛店南,39.71309,116.356668,兴18路,,,0,37d7d2c71003a249c51e51e0
丽园b区,39.758838,116.325878,大兴西环线内环;大兴西环线外环,,,0,e39786178fc12de5a2a9347a
观音寺北区,39.73761,116.354428,大兴环一线内环;大兴环一线外环,,,0,d99f9a8c10ea5dc3f60e7747
天键广场,39.75896,116.320943,大兴西环线内环;大兴西环线外环,,,0,17e68ceeddcdf7f0ab175aa2
枣园路西口,39.759024,116.314355,841路;969路;x105路;凤河营通勤班车,,,0,c0cb00187d050cdc31870ab8
大兴区医院西门,39.735405,116.339317,北京密码黄村线;兴22路;兴29路,,,0,3ddb24ce5f5367553310af3d
团河路西口,39.74211,116.351936,兴23路,,,0,42a75f87d032e417e8e582df
公交公司小区,39.761168,116.354497,广茂大街与科苑路交叉口西南50米,,,1,6a4c8c16aa84ae8a26e0a0ac
辛店村,39.717323,116.354622,兴14路,,,0,6d9238e33c9717643fe2315c
宋庄路口,39.730846,116.297983,兴53路,,,0,a822e2c7832c70bf08f5ebf3
永华北里,39.739271,116.328896,大兴环一线内环;大兴环一线外环,,,0,9b912ae077a151c54251c0f3
三合庄北,39.751104,116.329307,专23路,,,0,8527fb1bf1cbf2a9430245c2
驾校备考站,39.741041,116.297733,兴53路,,,0,f5d268dcfa60a5724557265e
辛店南站,39.713627,116.356399,兴17路,,,0,314d7d189d24bdfff42310a2
时代龙和东门,39.740846,116.350547,大兴环一线内环;大兴环一线外环,,,0,07246589ac003a0615948eeb
锦华路,39.72534,116.328438,兴25路,,,0,5885ef18b22c12022efaa7bd
附属实验学校,39.743119,116.329646,大兴环一线内环;大兴环一线外环,,,0,1ec4407f12b8721b88db73f6
清源北路西口,39.752569,116.325156,兴37路;专23路,,,0,526712d4821d549e8bdb7324
康复中心(临时站),39.711333,116.337355,840路,,,0,3f448ab3f4ff36843686f44e
科技大厦,39.733287,116.342299,大兴环一线内环;大兴环一线外环,,,0,45a5024d4417b17008ccdd3e
仁和医院南,39.747084,116.345845,兴68路,,,0,146302f493966220d72ce224
海子角北口,39.726747,116.361454,848路;934路;968路;969路;海子角通勤快车,,,0,5d6f37401fba0ff538e4a66a
佟鑫家园d区,39.730963,116.322019,兴46路,,,0,192b3912f4a47c77c2f1cf1b
首开康乃馨(临时站),39.756633,116.320781,兴37路,,,0,ae410bb4bd2b97a60b1cc769
首开康乃馨(招呼站),39.75536,116.32081,兴37路,,,0,a813eb5197c777bb0189722b
黄良路东口,39.708984,116.338045,兴23路,,,0,1fee5ef0ee00b5c2373a71a6
云岗,39.816411,116.166232,339路;356路;356路区间;458路;459路;550路;565路;830路;897路;951路;978路;983路;快速直达专线23路;快速直达专线24路;快速直达专线25路;朱家坟通勤班车;专100路;专57路,,,0,5291dfb9321db961dcee8b02
黄辛庄,39.763671,116.165005,646路;839路;896路;907路;951路;952路;971路;993路;房33路北白;房33路薛庄;房34路;房38路;房38路区间;快速直达专线119路;快速直达专线120路;快速直达专线129路;快速直达专线140路;快速直达专线151路;快速直达专线176路;快速直达专线177路;快速直达专线187路;快速直达专线24路,,,0,8f833a17a91b6a87b8bd6309
怪村,39.799302,116.105673,978路;房47路,,,0,d1a4386df35285eb85154155
贺照云村,39.779839,116.149071,897路;897路区间,,,0,1f467dd9febb6d35a11de901
良乡机场路口,39.761914,116.148652,616路;895路;901路,,,0,f4b48b69ce38df2f32f71d4f
西王佐,39.815857,116.136779,830路;978路;朱家坟通勤班车,,,0,3764fdd347c4583ea4da391c
南宫,39.810894,116.162367,321路;458路;459路;951路;983路;快速直达专线24路,,,0,f7956c116f2a781d240bd02d
王佐,39.814437,116.148609,339路,,,0,dfd8765e87c95b53a0acc47c
王佐卫生院,39.817407,116.135872,356路;356路区间;550路;快速直达专线23路,,,0,4e8150290bef68f078f7968e
东王佐,39.814623,116.153096,339路;550路;830路;897路;978路;朱家坟通勤班车,,,0,13882a22842326821ef74de0
王佐汽车站,39.799276,116.151227,897路;897路区间;983路,,,0,fde7a952720dfee1157643c6
南宫南站,39.800673,116.148723,321路,,,0,44593cca4bcc7172badf8f38
王佐学校,39.815177,116.144796,356路;356路区间;550路;830路;978路;快速直达专线23路;朱家坟通勤班车,,,0,90008e8e554487dd09a8d42e
怪村村委会,39.807978,116.135733,830路,,,0,201b1012b7b49b72bfa8225b
南宫北站,39.815719,116.161002,321路;339路;356路;356路区间;458路;459路;550路;830路;897路;951路;978路;983路;快速直达专线24路;朱家坟通勤班车,,,0,af73a4aad306cbe7e856fa80
芦上坟,39.781234,116.115939,房47路,,,0,60270f27a3e1a5fd2b06ce38
魏各庄,39.812778,116.121805,978路;朱家坟通勤班车,,,0,126e87166d6bfbac4afc8d24
怪村公交场站,39.798309,116.11223,830路;978路,,,0,4a396b6422d53c29c42ba1f4
南宫迎宾路,39.794726,116.16273,458路;459路;951路;快速直达专线24路,,,0,2fe81a665816ac0ad4851f30
大苑村,39.771737,116.11083,833路通勤班车;房36路;房36路支线;房47路,,,0,60e8273f729943969eec2b63
北刘庄,39.765094,116.117951,房36路支线;房47路,,,0,2414a6c3f483c3855b10938f
世界地热博览园,39.799183,116.162507,458路;459路;951路;快速直达专线24路,,,0,d139bc4f8e659d189e9d680f
黄辛庄路口,39.763806,116.16601,房15路;房18路;房28路;房2路内环;房2路外环;房31路;房35路;房37路;房41路;房42路;房42路夜班车;房51路,,,0,befd550223e487e1d1ff2379
庙儿岗,39.773861,116.103885,房36路;房36路支线,,,0,579a441997bc63a057bfff6d
山坡村,39.78837,116.150017,897路;897路区间,,,0,826aae36fe0574244d554792
鑫湖家园,39.802946,116.135555,830路,,,0,26280ea6ab472061210220bc
天路通,39.811863,116.113617,978路;朱家坟通勤班车,,,0,ba7bc9fb19be31d3ad31e54e
南宫迎宾路南站,39.787979,116.163079,458路;951路;快速直达专线24路,,,0,eb6949aa8af6725ab1077d55
北洛平村,39.812179,116.104409,978路;朱家坟通勤班车,,,0,65a313f985c3ae7185420e26
王佐镇政府,39.806673,116.161951,458路;459路;951路;快速直达专线24路;专100路,,,0,47ee35c46a9bf94481288ab5
王佐桥西,39.799422,116.121429,830路,,,0,0b3d8fe2a39fcd52f7eafc99
小苑村,39.768863,116.113479,房36路;房36路支线;房47路,,,0,ec53dbd282e57f532f473339
北京公交集团云岗场站,39.816297,116.16575,云岗路与文西路交叉口西50米,,,1,0f43b206d6edc9cfe9f853b3
庄户村,39.792705,116.150412,897路;897路区间,,,0,dd025a72f610bedafda77803
贺照云村南,39.770721,116.149774,897路;897路区间,,,0,96ab4eb7f09a1df46fc02ca0
成教中心,39.763962,116.162583,房33路北白;房33路薛庄;房38路;房38路区间,,,0,e186a5df27d66e36fea77803
南宫滨河路,39.806999,116.150574,897路,,,0,b25eb230db48295b167643ac
良三路南口,39.762929,116.149245,897路;897路区间,,,0,f360037ee6223974e8e5827b
东王佐北,39.818005,116.154726,专57路,,,0,8f194f4ed76287ff4e6d4680
龙华苑小区,39.763821,116.159877,房33路北白;房33路薛庄;房38路;房38路区间,,,0,f6003cca7fe932a17069d32a
崇辛庄,39.791675,116.118063,房47路,,,0,11f38ee71cae2b60b31e3639
南宫新苑小区,39.805417,116.157538,321路;983路;专100路,,,0,2796bbe3b55d2ddec8e33cf7
公交驾校(云岗报名中心),39.815682,116.166362,云岗镇云岗百货侧商业街雨丝书店内,,,1,7c0bd086fedca147adb22a62
北刘庄村,39.765112,116.117908,833路通勤班车;房36路,,,0,9790c66c5f7c52d16e20b903
洛平,39.813579,116.102793,房47路,,,0,64961ff4944dab71abf72974
东王佐,39.802412,116.153881,339路;550路;830路;897路;978路;朱家坟通勤班车,,,0,b4894f651dec879e97031912
南洛平村,39.808467,116.104396,978路,,,0,44272e1124ba5204f42310de
芦上坟北,39.784719,116.116439,房47路,,,0,4053b6b89c664a9231f71da8
鑫湖家园,39.799147,116.120256,830路,,,0,8a3c74fed0a5c61b16a190e0
大苑村东,39.775049,116.117945,房47路,,,0,dcd4b2120cb72fc78f55ecf7
云岗砖厂,39.816952,116.161527,专57路,,,0,e4a548bdf907ccd6c51e5175
北京公共交通控股(集团)有限公司第三客运分公司,39.816292,116.165742,北京市丰台区云岗路3号附近,,,1,4ea563249d10405a26e0a05b
南宫路,39.803755,116.166239,专100路,,,0,a3ca111fcd599d8bf9f0cb59
朱家坟,39.814281,116.196971,321路;321区间;329路;339路;459路;897路;983路;快速直达专线25路;快速直达专线3路;朱家坟通勤班车,,,0,7e718cdb0767164ac7f50df4
长阳环岛南,39.774028,116.173701,646路;839路;896路;907路;951路;952路;971路;993路;房18路;快速直达专线119路;快速直达专线120路;快速直达专线129路;快速直达专线140路;快速直达专线151路;快速直达专线176路;快速直达专线177路;快速直达专线187路;快速直达专线24路,,,0,c1c4c80855ca1902ad080fac
南岗洼,39.798485,116.198393,896路;952路,,,0,7da3fe14159b7be01329354c
赵辛店,39.816768,116.20807,321路;321区间;329路;339路;459路;897路;983路;快速直达专线25路;快速直达专线3路,,,0,4a4e7cc8160dbf4332870a7f
云岗北区,39.816797,116.169454,321路;339路;458路;459路;565路;830路;897路;951路;978路;983路;快速直达专线135路;快速直达专线25路;快速直达专线3路;朱家坟通勤班车;专100路,,,0,f8203f13ebf3ff0d4002456f
北岗洼,39.804054,116.19985,896路;952路,,,0,dcb0df8b6cc136f190114c8c
佃起村,39.814594,116.176135,321路;339路;459路;565路;897路;983路;快速直达专线25路;快速直达专线3路;朱家坟通勤班车,,,0,7f7df520f7b1800ad23ce3e5
长阳路口,39.767505,116.168585,646路;839路;896路;907路;951路;952路;971路;993路;房18路;房42路;快速直达专线119路;快速直达专线120路;快速直达专线129路;快速直达专线140路;快速直达专线151路;快速直达专线176路;快速直达专线177路;快速直达专线187路;快速直达专线24路,,,0,52d4e61e4c1e9a9b3ce231ec
篱笆房,39.770956,116.193442,646路;907路;951路;993路;房15路;房2路内环;房2路外环;房42路;房42路夜班车;房51路;快速直达专线119路;快速直达专线120路;快速直达专线129路;快速直达专线151路;专92路,,,0,8f7c475b46ee1eb14e6d4688
加州水郡,39.774042,116.173942,房15路;房18路;房2路内环;房2路外环;房31路;房37路;房41路;房42路;房42路夜班车;房51路,,,0,5360ec172f25114bd42ce282
大宁山庄,39.812873,116.216814,391路;832路;房53路;快速直达专线151路,,,0,e92907da9a251f096cc02c63
地铁长阳站,39.769869,116.219489,646路;832路;912路;956路;993路;房42路;房42路夜班车;房51路;快速直达专线119路;快速直达专线120路;快速直达专线129路;快速直达专线151路;快速直达专线93路;专93路;专94路,,,0,b53634a6018fa9fab320a819
张家坟,39.811291,116.188333,339路;459路;897路;983路;朱家坟通勤班车,,,0,3abe09fa41828759e6073890
黄管屯,39.786083,116.184245,896路;952路,,,0,5c98f3ca784252dd7369d345
长阳环岛东,39.777213,116.178213,646路;907路;951路;993路;房18路;快速直达专线119路;快速直达专线120路;快速直达专线129路;快速直达专线151路,,,0,e346c4057a1258e6b020a8ca
长阳碧桂园,39.767498,116.168591,房15路;房18路;房2路内环;房2路外环;房31路;房37路;房41路;房42路;房42路夜班车;房51路,,,0,7a6dfc71101d9a89f60e77c5
军留庄,39.769924,116.212306,646路;993路;房42路;房42路夜班车;快速直达专线119路;快速直达专线120路;快速直达专线129路;快速直达专线151路,,,0,336f966c772eccf023f01700
二老庄,39.814466,116.192949,329路;565路,,,0,1cd1670eb79bf49dc1f1cfce
奥特莱斯,39.768369,116.192485,房2路内环;房2路外环,,,0,382cb48d87bb8584d6b74e67
赵辛店村,39.813423,116.202972,896路;952路,,,0,e83497c397f731ee28d7ab01
稻田村南,39.780311,116.227176,391路,,,0,092e886fd74d453aeb1e9711
长阳环岛北,39.779653,116.178667,896路;952路,,,0,7929345c60254b9b08ccdde0
长龙苑小区,39.813085,116.221367,房53路,,,0,3afe94badbc70617f33cba61
长阳国际花园,39.778051,116.197807,专92路,,,0,18db7c66c97348e528b97c22
独义村,39.801637,116.217945,832路;房53路,,,0,9a66146f01d13711374aae5f
地铁篱笆房站,39.766821,116.195296,907路;912路;房15路;房2路内环;房2路外环;房51路;快速直达专线187路;快速直达专线24路;专92路,,,0,46b7c588eb5f9cb30bccddc3
西营,39.772097,116.228798,391路,,,0,45cf18514846ff1ab54f5461
地铁稻田站,39.800542,116.225844,房53路,,,0,261c781705cce4201ce999e0
高佃村,39.806412,116.221684,391路,,,0,38780c7d84e70d9a220262cf
北京农业职业学院,39.777062,116.227814,391路,,,0,f2f95760e4834ba6d8eced72
悦都新苑一区,39.777865,116.194735,专92路,,,0,134af22c5c210553d813183b
长阳半岛北区,39.76694,116.215217,832路;912路;956路;快速直达专线93路,,,0,8743ee46e6e7cd903f9a5e52
原香小镇,39.761888,116.17081,房28路;房2路内环;房2路外环;房33路北白;房33路薛庄;房34路;房35路;房38路;房38路区间;房51路;快速直达专线151路;快速直达专线187路,,,0,8975fbed0590685e46e27481
碧桂园,39.768103,116.169121,房15路;房51路,,,0,82d5e9e323676d444251c069
长阳卫生院,39.772361,116.220342,房38路;房38路区间,,,0,ca13eb20d785482022f0171d
地铁稻田站北,39.801742,116.225924,391路,,,0,4f4164c0645f02fd1d5800f5
长阳镇政府,39.770149,116.223439,房38路;房38路区间;房42路;房51路,,,0,cebb9a9cfa2e3ec959bbbc6a
九州溪雅苑,39.780624,116.180142,房41路,,,0,25569a1b04e2a484f02d8301
长泽北街,39.774433,116.215221,专94路,,,0,e2bb25cebf794c8f5fbe863f
稻田村,39.783116,116.227017,391路,,,0,37a4fd96256c17b24f3a5971
篱笆房枢纽站,39.767106,116.194636,907路;房15路;房51路,,,0,70965214333ec708138824ac
稻田村北,39.792349,116.22667,391路,,,0,48d52d71468ecc425e17c391
长政北街,39.774474,116.220339,专94路,,,0,632abcda2a9c626c90114ca4
长阳周转房东区,39.776093,116.218263,房38路;专94路,,,0,39e73999deb2f2109de3211c
篱笆房(西区周转房),39.779577,116.196147,房18路;房31路,,,0,4bc6a0b1f4a3d2231fe99953
长阳国际城东口,39.764038,116.226269,房38路;房38路区间;房42路;房51路,,,0,776a0001d0e53f3896f08c70
九州溪雅苑南,39.777205,116.17819,房15路;房18路;房2路内环;房2路外环;房31路;房42路;房42路夜班车;房51路,,,0,a0c6b32f9eb741ea9868b43b
长泽南街,39.767174,116.215222,专93路,,,0,48d480ba801f4c6a88b9880f
长政南街,39.765241,116.220938,专93路,,,0,ed268876b5cf4e63901fc97c
半岛广场北门,39.764473,116.2184,956路,,,0,4baf24a1692bd9e2eb56fa52
长阳西街,39.776525,116.193713,专92路,,,0,ead3c937b5dc76183fe23116
大宁山庄北,39.816583,116.215409,391路,,,0,1255d02d01b786364bcc4a0e
长阳镇温馨家园,39.780554,116.223952,832路,,,0,37c81cd850cd9288e812e4e5
大宁山庄西门,39.81634,116.215875,391路;房53路,,,0,3ed74618fd0a811ddbecede5
温庄子家园,39.81484,116.223372,房53路,,,0,74e676848937b17fd618b776
篱笆房(北行),39.770759,116.189593,房2路外环,,,0,f59f8462d6640bf8d6b74e3d
地铁长阳站(临时站),39.769025,116.215114,专93路,,,0,d3643eac5178c9806b49f3a4
靠山居,39.812741,116.218988,房53路,,,0,e22c4134645f32e6d23ce3d8
长泽北街南口,39.772446,116.215097,专94路,,,0,4c6d120ebc5ec046bfa82217
独义村北,39.802639,116.21751,房53路,,,0,37fede159ea4673b17948ee2
长阳半岛南,39.76453,116.218898,房42路夜班车;房51路,,,0,eacb65e0878d6691c4f025ab
地铁稻田站南,39.799177,116.227204,391路,,,0,8f5a658eb297a17388fc0649
云岗北区西里,39.817853,116.16896,专57路,,,0,3cc921ccb0a930811ef74d2e
徜徉集东,39.762557,116.215503,房42路夜班车;房51路,,,0,e97e381e593733a3b726550e
长阳国际城西口,39.765113,116.220981,房42路夜班车;房51路,,,0,d1439f13d78cc75b364aae20
长阳西街南口,39.774294,116.192157,专92路,,,0,1c7cacc50e1567e686420e6c
首开熙悦山小区,39.776108,116.218761,房38路区间,,,0,2f9ea5109dc7af9a5a3ac8e8
长政北街南口,39.771896,116.220414,专94路,,,0,f2c5fbf303ece095077ce8b9
徜徉墅小区,39.762838,116.215487,912路;专93路,,,0,abdd5be4b2b5a14cc26c141c
迎宾东路北口,39.814317,116.172117,专100路,,,0,945c1b2868627a0a1c38947b
迎宾东路,39.810143,116.172054,专100路,,,0,f0ec811b9b93a082077ce87e
领秀翡翠山小区,39.805558,116.172175,专100路,,,0,2047075bd375a40100ec01ec
北京公交驾校,39.797283,116.294525,北京市大兴区芦花路临28号,040f0cdbd09b4f304d776e99,(010)83701668,1,040f0cdbd09b4f304d776e99
立垡村,39.77559,116.264545,646路;912路;993路,,,0,6c0c6c8328620e292ce67b38
北京市公交高级技工学校,39.780877,116.238644,北京市房山区长阳镇稻田南里3号,fc767524aea114fa4e776ef6,(010)80359348,1,fc767524aea114fa4e776ef6
公交驾校,39.796286,116.292994,480路;840路;912路;967路;969路;快速直达专线30路;兴14路;兴14路区间;专97路,,,0,96cbf7cb153f24599cec2b75
狼垡西,39.782737,116.296525,646路;840路;912路,,,0,50243ccd9103aeeb94031946
芦求路北口,39.775624,116.280099,646路;840路;912路;947路;993路;兴33路,,,0,54420493d9222d4531f71d83
长丰园一区,39.79142,116.296253,480路;840路;912路;967路;969路;快速直达专线30路;兴14路;兴14路区间;专97路,,,0,c83b0df63b02ce4a6c20b9c6
郝庄子,39.763464,116.283437,840路;947路;兴33路,,,0,5a5d5d1eccd89be12b3a9fe2
北京公交驾校-西南门,39.796043,116.293443,芦花路28号,,,1,a20d90e6ea3d39260c0e6be6
小葆台,39.81028,116.292647,480路;840路;912路;967路;969路,,,0,795e19322715aef40c0a701f
高家堡,39.790887,116.274589,947路,,,0,0cffcfebe379034052e5c528
地铁大葆台站,39.812702,116.29519,480路;840路;912路;967路;969路;快速直达专线110路;快速直达专线30路;快速直达专线64路,,,0,3467f7ca761e81505fbe8651
芦花中路,39.798954,116.292648,480路;840路;912路;967路;969路,,,0,82fe949af318c1ec95f08c3a
公交卡充值服务,39.791058,116.296207,北京市大兴区芦花路临57号附近,faa4541296195b5c28b97cff,,1,faa4541296195b5c28b97cff
狼垡公交驾校技能鉴定定所,39.796469,116.293401,北京市大兴区狼垡二村公交驾校a座4层,,,1,1d1e4dafa1cb135bb64f54a7
公交考试场,39.795761,116.295518,北京市大兴区黄村镇芦花路28号,5a206ece9ccfaf18a8175a1b,(010)83701668,1,5a206ece9ccfaf18a8175a1b
西营村,39.772144,116.232333,646路;912路;993路;快速直达专线119路;快速直达专线120路,,,0,0185acefcc1733349b68b4ca
公交驾校-地上停车场,39.795868,116.293853,北京市大兴区黄村镇狼垡,,,1,aab4c294a93fcecf7c29bd9e
马厂村,39.774022,116.237553,391路;646路;912路;993路;快速直达专线119路;快速直达专线120路,,,0,49cc91934d0826122bb97cbe
北天堂,39.811002,116.271394,313路,,,0,64c9e05f6a82e35a9603192d
北京公交驾校-报名中心,39.796102,116.293419,北京市大兴区芦花路临28号,11613bf1b697a73bc72ba146,(010)51650830,1,11613bf1b697a73bc72ba146
北京市公共交通高级技工学校-西门,39.779797,116.238293,北京市房山区长阳公共交通高级技工学校西门,163989c40392182642d63eaa,,1,163989c40392182642d63eaa
芦西路口,39.77585,116.274871,912路;947路,,,0,cd76bbc496968ce03f9a5e80
稻田村南口,39.779643,116.237904,391路,,,0,c37265b618ca93bb5a109353
永立桥西,39.775243,116.244486,646路;912路;993路,,,0,2da5eeb2e37617bc0f0e6b89
大王庙,39.804634,116.271868,313路,,,0,d22987cd4cb36e33102935f5
卢沟桥农场,39.817958,116.268886,313路,,,0,404f5824c058c9a61f389431
小葆台南,39.808003,116.293911,969路,,,0,8ba03e28aa756aed4bcc4ae1
立垡村,39.775883,116.282078,646路;912路;993路,,,0,de8d36b58e984181ad31e56b
郝庄子北,39.768113,116.282147,840路;947路;兴33路,,,0,12d9e9585d77a3dd40e192f2
公交驾校报名处(芦花路),39.796606,116.293437,北京市大兴区芦花路20号,154cae2817cbfb267ec87675,(010)51650830,1,154cae2817cbfb267ec87675
高米店,39.769991,116.349627,366路;366路快车;410路;434路;631路快车;679路;827路;848路;849路;849路快;943路;943路快;954路;968路;海子角通勤快车;郊81路;快速直达专线173路;团河北村通勤快车;文安专线;兴11路;兴14路;兴15路;兴37路;兴59路;专24路;专84路,,,0,43df1aa9cab60a06c056ac6f
狼垡,39.785896,116.303648,480路;646路;993路;兴14路;兴14路区间;专97路,,,0,82d20f58ba5ce87cd92f289d
西红门医院,39.798508,116.351079,欣旺北大街通勤快车;专169路,,,0,94922fcbe7fc47a288fc0698
西红门,39.798272,116.361269,366路;474路;676路;827路;829路,,,0,9f885db949e09ae012293501
西红门南站,39.788832,116.351774,366路;377路;410路;679路;827路;兴12路;专84路,,,0,f2038db6a995dddf49fc8d4a
长丰园二区,39.78862,116.298343,480路;840路;912路;967路;969路;快速直达专线30路;兴14路;兴14路区间;专97路,,,0,6df8c9ce30143b8a902ca3cb
东方时尚驾校南门,39.769706,116.30983,842路;969路,,,0,860c6995df61a3b00782c2a8
明春苑,39.788075,116.305404,423路;477路;480路;快速直达专线107路;快速直达专线75路,,,0,3c17a003d327cb7527d2bbc6
陈留村,39.814719,116.345001,423路;483路,,,0,c3ad82b49e6d23e0095cb3de
宏福路,39.796319,116.336907,381路;454路;474路;483路;646路;993路;兴13路;兴14路;兴14路区间;兴66路;专169路;专84路;专97路,,,0,1b62bc1e6219d2b192114c11
洪村,39.762548,116.338789,410路;631路快车;829路;841路;842路;937路;954路;968路;x105路;大兴西环线内环;大兴西环线外环;凤河营通勤班车;兴12路;兴37路;兴47路;兴66路;兴940路,,,0,e57d507ce52f5aa7601809ae
芦花路,39.801096,116.297418,480路;840路;912路;967路;969路,,,0,cc669a0ad1f80c4ac9fa5fd6
宏福路东口,39.795994,116.349469,474路;631路;646路;829路;西红门西站通勤快车;夜22路;专169路;专84路,,,0,4609a7b533b58367e856fabe
狼垡东桥北,39.786549,116.300015,480路;840路;912路;967路;969路;快速直达专线30路;兴14路;兴14路区间;专97路,,,0,1412977d2e2bce8caa059d29
西红门北,39.799861,116.354789,377路;410路;631路;646路;676路;679路;西红门西站通勤快车;夜22路,,,0,b9caacbd806575a6dc1e5241
九龙山庄,39.809332,116.352534,377路;381路;410路;631路;646路;676路;679路;夜22路,,,0,d3f88c4d574436859e9d6855
高立庄,39.79966,116.328085,423路;646路;993路;快速直达专线131路;快速直达专线75路;兴14路;兴14路区间;专97路,,,0,4e717732617b30365cbe861b
西红门公交场站,39.796101,116.329934,381路;470路;474路;专169路,,,0,e8afb2fd1841627532f71d15
骏城小区,39.76414,116.324078,631路;x105路;大兴西环线内环;大兴西环线外环;凤河营通勤班车;兴11路;兴53路,,,0,1eb3eafa885a32a8843304f1
地铁西红门站,39.79567,116.335301,381路;470路;474路;993路;快速直达专线131路;快速直达专线75路;兴13路;兴53路;专84路,,,0,37e175c9ebdaac40c6f50ddd
西红门西,39.788146,116.337518,377路;454路;483路;631路;西红门西站通勤快车;兴14路;兴66路;夜22路;专84路;专97路,,,0,eb7e7d742c0a977d0b69d988
康顺园小区,39.765152,116.347154,410路;631路快车;848路;954路;968路;兴14路;兴37路,,,0,08bb4e4c3152de45e81e97bc
宏康路,39.788913,116.340881,454路;483路;631路;西红门西站通勤快车;兴13路;兴14路;夜22路;专97路,,,0,cb44dec71003a249c41e5111
泰中花园,39.76784,116.354697,434路;954路;兴11路;兴15路;兴37路;兴59路;专24路;专84路,,,0,2d63c633bd8202e11e1d11a8
郭公庄东口,39.818023,116.319607,845路,,,0,f1bbdf9d0f6f921dfb221359
康盛园小区东,39.767861,116.323453,631路;x105路;大兴西环线内环;大兴西环线外环;凤河营通勤班车;兴11路;兴53路,,,0,0b1f24d358c21b436d47601d
欣旺北大街,39.806109,116.346665,381路;欣旺北大街通勤快车;专169路,,,0,69029af59c264a1a4afc8db3
兴康家园,39.762367,116.316914,844路;大兴西环线内环;大兴西环线外环;兴12路;兴35路;兴47路;兴940路,,,0,2e8c3ca9225808181d1d1138
金星西路,39.768959,116.335531,大兴西环线内环;大兴西环线外环;兴11路;兴13路;兴53路;专24路,,,0,e9496f1092c8b81eb6f42f77
康庄路东口,39.764856,116.348416,366路;366路快车;410路;631路快车;679路;827路;849路;943路;海子角通勤快车;郊81路;兴59路,,,0,22c86df6ff21c79dfa42b247
高鑫家园,39.798272,116.311618,470路;477路;快速直达专线131路,,,0,cd0761b519443528bda2402c
地铁高米店南站,39.768374,116.338388,937路;快速直达专线131路;快速直达专线175路;兴11路;兴53路;兴66路;专24路,,,0,f714b5a53fa5f448f2193743
三利工业园,39.775523,116.34853,兴14路,,,0,6d72e0609b2cd84beedfcad2
郭公庄西,39.818167,116.305909,470路;497路;627路,,,0,75a42848047f5d80db1318c9
大兴八中,39.762653,116.326656,631路;841路;842路;x105路;大兴环二线内环;大兴环二线外环;凤河营通勤班车;兴11路;兴12路;兴35路;兴37路;兴47路;兴940路,,,0,c72f8497acad23eaf423108d
纸箱厂,39.768421,116.361318,兴15路;兴59路,,,0,1f776f5215502732b45f1e66
福苑北区,39.766728,116.35997,434路;专24路;专84路,,,0,12c7cc1675a99206d0ff231c
樊羊路口东,39.796573,116.322972,423路;646路;993路;快速直达专线75路;兴14路;兴14路区间;专97路,,,0,3a07d4c7131e374a17764367
郁花园,39.780265,116.348328,366路;410路;679路;827路;兴14路;专84路,,,0,2428c2b5dc51b80a931fc9ff
兴海公园,39.796318,116.339843,381路;474路;631路;646路;西红门西站通勤快车;兴13路;兴66路;夜22路;专169路;专84路,,,0,1d92d879f35ef99da11de9a8
羊坊村南口,39.793165,116.317325,423路;470路;646路;845路;993路;快速直达专线75路;兴14路;兴14路区间;专97路,,,0,526f494dc5ca916b2b201a98
西红门镇政府,39.795874,116.35661,兴12路,,,0,2a24be1c20d0ee8d4afd3f22
福苑市场,39.761921,116.354976,兴11路,,,0,3ff0c2f313665fe4ad080fc2
青岛嘉园北门,39.778589,116.33538,631路;兴12路,,,0,f95eef94b18fc62257bfff26
香园路口北,39.780229,116.329018,456路;快速直达专线188路,,,0,f37493c28b4d52af9d82ea4f
陈留村南口,39.80433,116.335753,423路;454路;483路,,,0,8fd7168e6076a5acc9e33c62
北京市公安局公共交通安全保卫总队郭公庄站派出所,39.818039,116.318794,北京市丰台区樊羊路89号,7fc7fadd4747e3eea6da3937,(010)60831576,1,7fc7fadd4747e3eea6da3937
骏城小区南,39.762584,116.323547,841路;842路;大兴环二线内环;大兴环二线外环;大兴西环线内环;大兴西环线外环;兴12路;兴35路;兴37路;兴47路;兴940路,,,0,940b5e9cc67777cb2102206f
郁花园一里,39.781943,116.346093,377路;兴12路;兴14路;兴34路,,,0,94e2fd9950077fbf42d63ed0
郁花园二里,39.782486,116.339752,377路;829路;郊81路;兴14路,,,0,0b6ec49b4cfba8a986420edf
康和园小区,39.769148,116.33062,兴53路;专24路,,,0,c89a87946a0f0d1812882468
康盛园小区北,39.769266,116.321427,x105路;凤河营通勤班车;兴12路,,,0,4e117b4810e6b7e0740269ea
东方时尚驾校北门,39.776726,116.308334,842路;969路,,,0,299223efe7ac491cbea2403e
理想城,39.798485,116.35105,兴13路,,,0,ee5804dd0abf457a8f1a89b0
423路公交车总站-东北门,39.787944,116.305417,优龙路临5号附近,,,1,efecd131a4b3e283213bf246
亿发工业园区,39.779937,116.305543,842路;967路;969路,,,0,4f75b796faf892c74354d76b
金星桥东,39.768726,116.351921,兴37路,,,0,e2e46a24c2b9274c1b94c66c
青岛嘉园,39.774823,116.337686,兴13路,,,0,f2d30fc60f97c7c41c38945e
京开康庄路口,39.764286,116.349999,团河北村通勤快车;兴15路;兴59路,,,0,0aa88659f6e3b25f4f6d4621
宏业路,39.79057,116.347915,快速直达专线75路,,,0,1a6c7303ef7f77a505026fa1
首邑上城小区,39.762697,116.342793,848路;兴12路;兴14路;兴68路,,,0,f3d65425dd38fccecf06a409
西红门北站(南行),39.7998,116.354154,欣旺北大街通勤快车,,,0,6825660b6f4d6fe3461a324d
羊坊村,39.792289,116.313304,470路,,,0,ab950eab89c01891260bd008
地铁高米店北,39.780424,116.337431,631路;快速直达专线131路;兴13路;兴34路;兴53路;兴66路;兴微26路,,,0,c499921ea8a6e39141e19262
欣和街,39.79365,116.339707,454路;483路;631路;829路;快速直达专线75路;西红门西站通勤快车;兴13路;夜22路;专97路,,,0,f21a69b2110e50d4921fc92e
康盛园小区,39.76927,116.321383,专24路,,,0,6f9ecacdc791f7b695ca07c2
高立庄村东,39.807043,116.320319,845路,,,0,166534751246b9fa734b87a7
兴海学校,39.796159,116.343508,381路;474路;631路;646路;西红门西站通勤快车;兴13路;兴14路;兴66路;夜22路;专169路;专84路,,,0,b8ac4f159982457a3310af51
兴海家园,39.797973,116.34556,381路;欣旺北大街通勤快车,,,0,ec2a82ecade05c80a4da3949
丰葆路东口,39.813054,116.30566,470路;477路;692路,,,0,9f2bde21fa9c41f28af15d30
安装大厦,39.762876,116.330724,兴12路;兴37路;兴47路,,,0,061c1d039af6024c5bf6bedf
金惠园北门,39.77887,116.330844,456路;631路;大兴西环线内环;大兴西环线外环;兴12路,,,0,a156b31bc5f0d35717a19062
欣荣北大街,39.800254,116.351356,专169路,,,0,ac7073356483352f9ee321a6
宏康路西口,39.788419,116.333798,381路;470路;474路,,,0,cb947c570b370c70a7c756c6
兴都苑小区,39.803539,116.346361,381路;欣旺北大街通勤快车;兴13路,,,0,8c58054bcf598975e8e5829a
公交驾校(西红门报名处),39.78839,116.3369,大兴区西红门宏康路12号,3a519412553a776331f71dd1,"13681561427,(010)56290148",1,3a519412553a776331f71dd1
宏旭路西口,39.793862,116.336479,829路;快速直达专线75路,,,0,d6f3bb3c670d7be5eb12e4f3
北程庄东路,39.762655,116.31717,841路;842路,,,0,778677f79772163649fc8d3c
欣荣南大街,39.792229,116.350219,快速直达专线75路,,,0,d8553c451b87ce334102457b
康和园小区南,39.763063,116.333601,841路;842路;x105路;凤河营通勤班车;兴940路,,,0,3c6d4abab2f72dc828d7ab37
高鑫公园,39.802219,116.310396,470路,,,0,e03f6881a594fd6cfbdc8568
宏大北园,39.805344,116.346589,兴13路,,,0,d92cbc5b0d323a3b283a9f04
康庄路西口,39.762137,116.329251,兴13路,,,0,63022ffd23345173118824fc
宜家南门,39.791161,116.332636,兴53路,,,0,e37cd18115a8f502ad0457f9
金星路西口,39.769338,116.317679,兴12路,,,0,a1d404474217bc1a0869d998
香留园小区,39.777441,116.323397,631路;大兴西环线内环;大兴西环线外环;兴12路,,,0,e24bff2d3f4019a5601c6725
金星西路口南,39.767809,116.328698,456路;快速直达专线188路,,,0,1ead27e5dd821bb46b49f34c
兴华桥南,39.784027,116.336896,631路;829路;兴13路;兴14路;兴53路;兴66路,,,0,55706fa165df78a85a109362
北京市公交汽车驾驶学校有限公司,39.79521,116.298489,芦花路临28号,2e00c5dd59f58d1cd7851fe7,(010)83701668,1,2e00c5dd59f58d1cd7851fe7
明春苑东门,39.792001,116.306568,快速直达专线107路,,,0,9590dbce8a7d07dee81e97af
高立庄村,39.797596,116.320384,845路,,,0,a7d7424bc29fea4480a00c0c
青岛家园,39.776757,116.337785,兴13路,,,0,0a94acaed620d7f9ebe582f6
京良路口,39.802999,116.333785,兴14路;兴14路区间,,,0,c54fb39d1b45b25a2bd7abd8
双星桥东,39.781746,116.349976,兴34路,,,0,f0d211b96e35e7a1b917e745
华堂商场,39.763927,116.345964,兴14路;兴37路,,,0,aaa3823544771b53d23ce362
郁花园三里,39.776818,116.341646,829路;兴53路;兴68路,,,0,f3824599fd76160d1894c62b
缤纷城,39.770425,116.341784,829路;兴53路;兴68路,,,0,045474f15c2c39f3882fb57e
青岛嘉园西门,39.776827,116.333988,456路;大兴西环线内环;大兴西环线外环,,,0,ef214b38741c43beea1e972b
康庄西路口东,39.76258,116.320238,大兴环二线内环;大兴环二线外环;大兴西环线内环;大兴西环线外环;兴12路;兴35路;兴37路;兴47路,,,0,8050ddfdd17f78d588f15d3d
宏盛家园南,39.797324,116.345493,兴13路,,,0,82931b0eb008bc151f38942e
宏盛家园,39.801649,116.346092,381路;兴13路,,,0,167364f768b039602bfc4811
423路公交车总站,39.788341,116.30496,优龙路临3号,,,1,43d9efac54ca88bf9f09f7af
西红门北站(北行),39.799858,116.354818,欣旺北大街通勤快车,,,0,c8e72f87852f374e58109364
香留园小区北,39.778929,116.325806,631路;大兴西环线内环;大兴西环线外环;兴12路,,,0,89786538741c43beea1e9762
宏旭路东口,39.793442,116.343615,829路;快速直达专线75路,,,0,7af091c474d7b18225e0a061
兴涛社区,39.772553,116.33023,兴13路,,,0,e4062747a6f36313c5effbbb
金星西路西口,39.769326,116.317645,专24路,,,0,850e6d25a4dbe3bfe50738e0
理想城四期,39.801703,116.351627,兴13路,,,0,b2e5c101cd48ddfc28fc481d
理想家园,39.789523,116.345793,兴66路,,,0,ce30b27223feeab59ff77955
原生墅小区,39.764019,116.329089,兴13路,,,0,a4332511226f2174c6effb32
郁花园二里东门,39.780447,116.341638,829路;兴12路;兴68路,,,0,4a28b61795a9877d0a5cb395
欣美街路口西,39.789782,116.326604,470路,,,0,2f721b4b14815c7a4f3a5940
金星桥东,39.768714,116.351573,兴11路;兴59路,,,0,d746e2151d6435a22811d1cb
首邑上城小区北,39.764625,116.342217,829路,,,0,e75e302d11369101276e9860
九龙家园,39.805864,116.35152,兴13路,,,0,8fb1de3cf118cf14a8f0cd13
月桂庄园,39.791136,116.340835,兴13路,,,0,5fd9b1e176bbe34a72455b29
黄村兴盛街,39.773617,116.323438,631路;大兴西环线内环;大兴西环线外环;兴12路,,,0,1e838ece973c1f33b64f5423
翡翠城小区,39.767933,116.315604,专24路,,,0,0700b7ebd9fdfbfab6147f08
双高花园小区,39.776994,116.341606,兴53路,,,0,22ca9602665a498a72455b3b
欣旺南大街南口,39.790953,116.345368,兴14路,,,0,658e52583b960d46e6e965c9
郭公庄路北口,39.793551,116.320494,470路,,,0,9892a6be726f77c2eb1e9717
双高路口南,39.774816,116.328869,456路,,,0,6885be0fe8deebada0acc48f
欣旺南大街北口,39.794999,116.345388,829路,,,0,c11969efe57d5e76b34c4984
幸福泉幼儿园,39.775292,116.323447,兴12路,,,0,01de5328aea3f13ea1a93462
欣旺南大街,39.791745,116.345588,快速直达专线75路;兴66路,,,0,bd09c9f3a536fe96c51b75c2
郁花园二里南门,39.778304,116.339972,兴12路;兴53路,,,0,080bf58f62e05dfd6168581c
乐园路口南,39.771335,116.328769,456路;兴13路,,,0,ab4956bc0c36061f744ff120
双高路口,39.775977,116.337741,兴66路,,,0,229845b43d238fbc2efaa780
黄亦路泰中花园,39.768793,116.353829,兴11路;兴37路,,,0,9155243b4747c19dd23ce3f0
高立庄,39.799635,116.328025,423路;646路;993路;快速直达专线131路;快速直达专线75路;兴14路;兴14路区间;专97路,,,0,75d471c72b7be48145e27403
兴涛社区东门,39.771095,116.334378,大兴西环线内环;大兴西环线外环,,,0,a004eb003d0b55fad42ce247
欣荣北大街北口,39.80317,116.351934,专169路,,,0,9f65438382aff830a4c7568c
巴布童话小镇,39.798284,116.329124,兴66路,,,0,1f714939bdcdfe82a1acc454
423路公交车总站-东北2门,39.788345,116.305249,优龙路临3号附近,,,1,ef9b060c98b22ee371455be0
康和园小区北,39.769157,116.330605,兴11路,,,0,1c20149b961501f12bb97c4a
大灰厂,39.859594,116.120162,356路;574路;843路,,,0,7c429b34580a65a942d63ef4
小店,39.846546,116.112819,356路区间;550路,,,0,30fb79c7472d17ae5cd4fe2c
沙锅村,39.842693,116.130499,356路;356路区间;550路,,,0,d29eb98c643081909ee32186
大灰厂村,39.859592,116.134235,574路;843路,,,0,ff282b97dbf2de4d15c90530
白草洼西,39.859512,116.166845,309路,,,0,258e19ce3c8288a22fb17ee1
下庄,39.827857,116.136268,356路;356路区间;550路,,,0,3a993d3dc7740e94ae045756
北宫森林公园,39.863615,116.141171,574路;843路,,,0,791aafdce1b94802715e80ea
太子峪陵园,39.852551,116.162217,309路;专126路,,,0,6569f8be11bbd93ec8213d96
丰台区李家坟,39.857483,116.127255,356路;574路;843路,,,0,529b799a1c555b5508ccdd5e
庄子,39.85438,116.166081,309路,,,0,edb722f0ee71d5cd96f08c0c
李家峪,39.841946,116.159228,329路,,,0,2da8483b352827db4bcc4a3f
后甫营,39.847236,116.106563,356路区间;550路,,,0,6a9024073808c99446e27423
丰台区辛庄,39.866237,116.153762,310路;574路;843路;专126路,,,0,8eabc7403c9b37236d20b95b
沙锅村南站,39.839217,116.132112,356路;356路区间;550路,,,0,a852ca82b6f2d35bac31e502
大富庄村,39.825677,116.103816,快速直达专线23路,,,0,559a1852b352b0e615764316
侯家峪,39.831207,116.136188,550路,,,0,40dd8a3fb28c4567d3ff2385
云翔苑小区,39.823193,116.159721,专57路,,,0,9ebd223c0679024617948e6f
大灰厂西站,39.860439,116.116297,356路;843路,,,0,d5d6afc151b36b804557269f
民族苑路,39.819434,116.118247,快速直达专线23路,,,0,855153e6512faa1c400245a9
辛庄东站,39.868488,116.161566,310路;574路;843路,,,0,447040154ba4066a6ca3cca0
云岗北里,39.821502,116.164554,专57路,,,0,410f7cb4a49b3dcd00ff2d27
李家峪南,39.839209,116.16355,329路,,,0,89cd7b38365191db28fc4826
云岗一〇一所,39.824011,116.153936,专57路,,,0,815e45c963eac47140afe6f3
西王佐北,39.82228,116.135914,356路;356路区间;550路;快速直达专线23路,,,0,ade6774cb93d6c92ac080fe8
下庄村,39.826146,116.132736,快速直达专线23路,,,0,5f39b1efcf514ce22806cecc
北宫养老院,39.846134,116.156696,329路,,,0,c824ef00b295aad1c3364441
丰台瓦窑村东口,39.825055,116.123735,快速直达专线23路,,,0,429d4298d07b621f00ff2dbf
栗园村,39.819253,116.11094,快速直达专线23路,,,0,a02c586c952af136e31103be
太子峪陵园,39.852661,116.162239,太子峪陵园长椿街专线;太子峪陵园老山专线,,,0,7ca5b14dec2e559dd618b7b4
丰台区李家坟南,39.852214,116.124462,356路,,,0,664718463bf889f44e6d46e1
李家峪北,39.848484,116.155728,329路,,,0,776b23bf28be1f1b6fc02cb5
云岗南里,39.820135,116.162865,专57路,,,0,6a7ee3ab2a4badff9cec2bba
长兴路北口,39.863006,116.14834,专126路,,,0,ae10257c814336ceeaf8531c
辛庄南路口,39.853819,116.153418,专126路,,,0,6ccd8a6e206cb8985cbe8689
杜家坎,39.84985,116.217505,309路;309路区间;310路;329路;339路;458路;459路;624路;843路;896路;952路;983路;快速直达专线25路;快速直达专线97路,,,0,fe0dc49b3c5466ca8505bff4
二七厂,39.838355,116.204778,309路区间;专65路,,,0,e917e329b40a0de1e5073857
崔村,39.844968,116.208748,309路;309路区间;458路;978路;快速直达专线97路;专65路,,,0,1a154352985b727985420ecd
长辛店,39.832324,116.216364,459路,,,0,1603b0e9ed16c2bf256e98b9
长辛店医院,39.826096,116.215182,339路,,,0,eb3d2e33e1f04507220262a5
装甲兵干休所,39.848524,116.210561,310路;624路;843路;专65路,,,0,1c1349ca8d52dd7ce215f9b6
槐树岭,39.867995,116.177176,310路;327路;574路;843路;951路,,,0,64f0d488348b348beddfca17
北京十中,39.821114,116.21441,329路;339路;391路;459路;896路;897路;952路;983路;快速直达专线25路,,,0,072cddc6092ba4f60c0e6bfe
留霞峪,39.845109,116.195244,309路;458路;978路,,,0,747f7732899441f3d4851f03
太子峪,39.850163,116.179506,309路;565路;830路,,,0,a8f2e97b4e501d9aae045762
长辛店南口,39.828344,116.216161,329路;339路;391路;459路;896路;897路;952路;983路;快速直达专线25路,,,0,fd3c1a5503a5bc5cbc484200
白草洼,39.85999,116.171637,309路,,,0,405ff3c850b54eaa43e192a7
张郭庄小区东,39.853516,116.207806,310路;624路;843路;专65路,,,0,0ed25e29a32ac37e7adbd2ac
长辛店北口,39.83785,116.21627,329路;339路;391路;459路;896路;897路;952路;983路;快速直达专线25路,,,0,7adfdafd7c346d6d58109335
吕村北,39.84069,116.180647,458路;565路;830路;951路;978路,,,0,85bf2d616c8329aa96ca0730
二七厂北,39.843123,116.206273,309路;309路区间;458路;978路;专65路,,,0,11b5a48ac649a207902ca334
南营,39.871225,116.169012,310路;327路;574路;843路;951路,,,0,f227bb3f2978584beaf853bc
辛庄路口,39.824968,116.179493,329路;458路;830路;951路;978路,,,0,759819a315f7134fc2f1cfe0
张郭庄,39.861361,116.194059,310路;624路;843路;专65路,,,0,1c4b6ceb447ede70283a9f34
白草洼东,39.859595,116.176628,309路,,,0,24b024df26841e251d1d11d9
崔村西,39.841126,116.201561,309路;458路;978路,,,0,a4aa834d1a2588c138221c80
镇岗塔路,39.819323,116.172379,458路;830路;951路;978路,,,0,a867626d1e1f2ebe26e0a088
地铁园博园站,39.867565,116.209136,391路;565路;574路;830路;897路;978路;994路;专33路;专55路;专55区间,,,0,a0cc18594b9624cb81a00cb3
张郭庄小区北,39.858311,116.203807,310路;624路;843路;专65路,,,0,56c826b7d34631c7095cb3f1
地铁张郭庄站,39.864033,116.193372,310路;565路;574路;830路;专65路,,,0,2e644796d1164818100daae1
杜家坎南,39.84772,116.215506,391路;459路;896路;897路;952路;983路,,,0,0029bcbeb4a0ee4d047ce80c
张家坟北,39.822035,116.182491,329路,,,0,64204ebfa2d897f8cafa5f91
吕村,39.836803,116.181802,329路;458路;565路;830路;951路;978路,,,0,a68aad4b8dbe4ec4c6effb11
太子峪北,39.852229,116.17956,309路;565路;951路,,,0,ceaebf56390dc1789d82ea63
珠江御景小区,39.823854,116.187259,565路,,,0,c78017d6f3e7ece7fa0cad25
槐树岭南,39.864898,116.187226,310路;574路;624路;843路;951路,,,0,24783f493252e3a58b36ee36
太子峪南,39.847411,116.181006,458路;565路;830路;951路;978路,,,0,65ee778a3428c7342fb908d7
太子峪陵园南门,39.842167,116.172104,329路,,,0,953f96b0e6d920b78e55ecb5
镇岗塔路北口,39.827112,116.18247,329路;458路;830路;951路;978路,,,0,0708bf1213367be6b817e7ec
杨家坟东口,39.841179,116.17961,329路,,,0,966ea3297fa0c167d4851f8e
张郭庄小区,39.856448,116.205941,624路,,,0,d381fd7028d408ffc4f0254a
吕村南站,39.831926,116.183283,458路;565路,,,0,b01076b1d38ea88d2811d15d
玉皇庄小区,39.842975,116.212873,专33路,,,0,5823007e900db25d128824a4
槐树岭公交场站,39.867286,116.181566,327路;624路,,,0,341c336d7a005d94931fc955
张家坟北(珠江御景小区),39.82344,116.186588,321区间,,,0,dc2a24b423a769d72de67b7e
北京园博园专线/接驳公交停车场,39.868127,116.204977,北京市丰台区射击场路15号北京园博园,b0b59b3c0b2cc66e12882424,,1,b0b59b3c0b2cc66e12882424
董家坟,39.823934,116.179549,329路,,,0,ed867cd5faee09f4b23c81b7
马家坟,39.825452,116.172446,329路,,,0,edf1068b186da3d41b11d5d8
二七通信工厂,39.832887,116.208435,专33路,,,0,dfdc64f47988c9a733169b4d
杜家坎北,39.850501,116.215234,978路;专33路,,,0,2a2973f07f6ed2dc9cec2b67
珠江御景小区东门,39.827106,116.18495,565路,,,0,458c5e7da3f9224d96f08ceb
德善里,39.835062,116.210176,专33路,,,0,87647a50c39e49fe6c3e1b02
长辛店公园西门,39.837505,116.212091,专33路,,,0,aa2976aaca29bd40c9fa5fc7
玉皇庄路北口,39.845348,116.21094,专33路,,,0,c20680347adaef253686f448
花园北里,39.84026,116.21323,专33路,,,0,f841f12ffe469f588bb9887d
南营东站,39.869344,116.172312,310路;327路;574路;843路;951路,,,0,8f6a05e62a53fba38f55ecfd
北大地,39.862972,116.289428,77路;83路;323路;349路;351路;480路;602路;627路;694路;736路;740路内环;740路外环;740路外环公益西桥;840路;845路;967路;969路;998路;特7路;特9路内环;特9路外环;夜36路;运通115线,,,0,e5645c9a2898755142d63ec2
五里店,39.86594,116.261728,96路;97路;133路;458路;546路;973路,,,0,0db76b001bbaf05c41e1925c
西道口,39.860454,116.244531,77路;96路;97路;133路;309路;309路区间;339路;452路;458路;459路;624路;839路;843路;896路;952路;971路;983路;快速直达专线145路;快速直达专线45路;快速直达专线97路;夜16路;专17路,,,0,94dd40635318fcd643afe645
抗战雕塑园,39.854378,116.239322,77路;96路;97路;133路;309路;309路区间;310路;329路;339路;452路;458路;459路;624路;843路;896路;952路;983路;快速直达专线145路;快速直达专线161路;快速直达专线45路;快速直达专线97路;夜16路;专17路,,,0,2f974b0ea08987c2932ca31f
正阳桥北,39.857192,116.290079,77路;83路;323路;349路;351路;480路;602路;627路;694路;736路;740路内环;740路外环;740路外环公益西桥;840路;845路;967路;969路;998路;特7路;夜36路;运通115线,,,0,70afdb8c1cffb08efd0eb0be
看丹桥,39.845696,116.292514,83路;323路;353路;395路;470路;477路;480路;546路;694路;740路内环;740路外环;740路外环公益西桥;840路;967路;969路;快速直达专线112路;快速直达专线179路;特7路;特9路内环;特9路外环;夜36路;运通115线;专68路,,,0,fbe3975770f96091f8f0cb17
丰台火车站,39.85502,116.295165,395路;459路;477路;678路;夜16路,,,0,1796c49dade3f4fd40ab9a0f
程庄路,39.861658,116.273207,390路;452路;546路,,,0,c533537c1c1aa5cb09f5eb2a
大井,39.871038,116.272324,96路;97路;133路;338路;390路;458路;830路;973路,,,0,d48b0c4c4a33d1dc02897204
六圈,39.827921,116.296513,477路;480路;692路;840路;912路;967路;969路;快速直达专线110路;快速直达专线112路;快速直达专线119路;快速直达专线131路;快速直达专线25路;快速直达专线30路;快速直达专线64路;快速直达专线95路,,,0,3fb4330e819e8b5dbbbd63a6
永合庄,39.823622,116.275488,678路,,,0,a733f79283104a4b0c0a70db
晓月苑八里,39.839832,116.249792,97路;329路;快速直达专线161路;夜16路;专17路,,,0,b4e8cb751494bcd17ec87678
五里店西站,39.862542,116.252976,133路;458路;546路;973路,,,0,b30297e3404c6e3c631809c0
南五里店,39.856628,116.264408,77路;349路;390路;452路;459路;678路;998路;夜16路,,,0,6803ea01d05b25b9a1a93483
富丰桥西,39.84241,116.291768,323路;353路;395路;470路;546路;快速直达专线107路;快速直达专线119路;夜36路;专63路;专68路,,,0,5038d33efcf3c51d9e9d6816
丰台西站,39.842906,116.258742,349路;专68路,,,0,787044ae85846336fbf0cb38
卢沟新桥,39.852618,116.234369,309路;309路区间;329路;339路;458路;459路;624路;952路,,,0,c7374ce6ef59dcbf15a190ff
岔路口,39.869429,116.290208,83路;335路;351路;480路;602路;627路;694路;736路;740路内环;740路外环;740路外环公益西桥;840路;967路;969路;998路;特7路;夜36路;运通115线,,,0,afec234c9e60d721a0a93483
田何庄,39.822865,116.296784,477路;480路;692路;840路;912路;967路;969路;快速直达专线110路,,,0,d5e426a9ec3f3c2bc7f50dcf
晓月苑一里,39.848291,116.243501,77路;96路;97路;133路;310路;329路;452路;快速直达专线145路;快速直达专线161路;快速直达专线45路;夜16路;专17路,,,0,d18862e2d3e01c395fbe863d
富丰桥南,39.841452,116.293739,477路;480路;740路内环;740路外环;740路外环公益西桥;特9路内环;特9路外环;运通115线;专63路,,,0,a9ef1a77b905a6d476026905
西洪泰庄,39.854895,116.257543,349路;678路,,,0,050243c8210ef240744ff1ef
科丰桥南,39.833978,116.296193,477路;480路;692路;840路;912路;967路;969路;快速直达专线110路;快速直达专线22路;快速直达专线95路,,,0,2e0d3e2cf7da427171455b21
北大街,39.865655,116.292228,77路;323路;335路;349路;845路,,,0,5850397d13c7015a79b55cb6
晓月苑小区,39.842282,116.245988,77路;133路;313路;329路;452路;快速直达专线145路;快速直达专线161路;快速直达专线45路;夜16路,,,0,dce35eae6833aa8ef503b892
大瓦窑,39.868045,116.240205,546路;598路;专17路,,,0,b73106e04e69b8688f1a8968
程庄路口东,39.85308,116.277433,77路;349路;459路;546路;678路;998路;夜16路,,,0,fa5d183a16104a0cb44f5424
程庄路南口,39.856767,116.273687,390路;452路;546路,,,0,c406c1bfabd8b2929f09f706
丰台医院,39.852944,116.284406,77路;349路;459路;546路;678路;夜16路,,,0,a5bb24a888f89776e0110353
人民村北站,39.853338,116.261737,349路;678路,,,0,d956426afe18d8b202294fbc
程庄路北口,39.867399,116.271513,390路;452路;546路,,,0,7af8d3ce354940e48d77276a
五里店东,39.868556,116.26742,96路;97路;133路;458路;546路;973路,,,0,b65df0d92511a94bc2f1cf7c
晓月苑二里,39.84438,116.244569,77路;96路;97路;133路;310路;452路;快速直达专线145路;快速直达专线161路;快速直达专线45路;夜16路;专17路,,,0,3526a2c27b3c46ed43ab9a80
榆树庄,39.846944,116.259257,349路;专68路,,,0,dc0dba7c664a373054bfff56
丰体时代花园,39.874205,116.276598,97路;133路;973路,,,0,6f33190b66bd256ba2a93435
海鹰路口,39.832516,116.292394,470路;快速直达专线107路;快速直达专线112路;快速直达专线119路;快速直达专线161路;快速直达专线175路;快速直达专线179路;快速直达专线25路;快速直达专线30路;快速直达专线64路,,,0,737d796dea73de21eaf85331
看杨路南口,39.828895,116.276593,678路,,,0,c932234f9f3c50008d55ec2e
正阳大桥东,39.853812,116.291797,夜16路,,,0,08d94a5190169590a2d230d8
马场加油站(公交340总站),39.843062,116.290814,北京市丰台区内环西路与富丰路交叉口北100米,baf3b9764cf13e6938221cd5,,1,baf3b9764cf13e6938221cd5
人民村,39.847468,116.263189,349路;678路;专68路,,,0,9b70d5762c3912ce2fe67b86
晓月苑公交场站,39.837919,116.251945,96路;97路;310路;329路;快速直达专线161路;夜16路;专17路,,,0,828a2e57314970d131870a42
丰北桥东,39.871713,116.294056,83路;458路;480路;483路;531路;896路;958路;973路,,,0,8ca7a3f66132489b22f017d0
洪泰路南口,39.842589,116.263578,678路;专68路,,,0,f52f2a6a7abffb05eaf853f0
小屯西路南口,39.872402,116.254551,507路;554路,,,0,c3f0ddb869050b2fcac3dbb1
看丹桥北,39.848425,116.292051,83路;351路;477路;546路;602路;627路;736路;845路;969路;特7路;夜36路,,,0,772d8b478bee085bc42ba19f
前街,39.841104,116.277937,678路;专68路,,,0,a2680d93d99aaacff60e772a
航丰路口,39.83561,116.289814,470路;快速直达专线107路;快速直达专线112路;快速直达专线119路;快速直达专线161路;快速直达专线175路;快速直达专线179路;快速直达专线25路;快速直达专线30路,,,0,1196f296755a6395d7851f34
丰台镇东安街,39.855774,116.286456,77路;349路;998路,,,0,de4af2dab4becfaea3a9343c
刘庄子,39.857689,116.256949,459路;夜16路,,,0,6a76801c6cdbf674b11e3639
老庄子,39.830899,116.256404,313路,,,0,7f2364624525bbe9c5f50d2d
公交五里店小区,39.858129,116.264911,北京市丰台区丰台西路45号,a4cccaa58b453103b2077d75,,1,b7550a464a6e1c292afc486c
郭庄子公交场站,39.871644,116.259606,554路;634路;专17路,,,0,8812657012d2f4bef01937c8
晓月苑三里,39.842985,116.245195,97路;313路;专17路,,,0,f8518a4b80eada2f17948e58
看丹桥东,39.847264,116.29448,351路;627路;736路;845路,,,0,b9ea54ef49475b9680a00c37
正阳桥东,39.853878,116.291911,395路;459路;477路;678路;夜16路,,,0,c16c8ee61942aa338505bf08
丰台西站北,39.845022,116.258329,349路;专68路,,,0,6667e90175aad203873304e5
丰台体育中心,39.874029,116.288561,338路;351路;602路;694路;896路;958路;专125路,,,0,a47da077e998e872b7265560
丰台体育中心南门,39.871665,116.279238,458路;830路;快速直达专线179路;专125路,,,0,9e1a6c1a60a12cd73de23154
前街西,39.840761,116.274073,678路;专68路,,,0,8dc33b23a043579e6849f305
大瓦窑公交场站,39.870613,116.24486,959路;961路;973路,,,0,a565ac3627944892b6147f18
小郭庄,39.871674,116.237575,546路;598路;961路,,,0,84329a4d48978099364aae7b
内环西路北口,39.840838,116.290903,470路;快速直达专线107路;快速直达专线112路;快速直达专线119路;快速直达专线161路;快速直达专线175路;快速直达专线179路;快速直达专线25路;快速直达专线30路;快速直达专线64路;专63路,,,0,1d94d256aa69c179a7c756be
杨树庄,39.835737,116.277082,678路,,,0,aa3b0d447c528b973617dc2b
大瓦窑南,39.865204,116.243723,973路,,,0,0504352b4a68635f9a0050c6
西道口北,39.865223,116.243725,546路;598路;专17路,,,0,eefa2829e5f1bd4cf703b831
晓月苑五里,39.839315,116.245458,97路;专17路,,,0,5dd7a705b0e2fafc1811d5cf
地铁郭庄子站,39.869729,116.258469,507路,,,0,88fcfcda032d7c4614c8f6e1
小屯路南口,39.873356,116.259212,507路,,,0,499c3d3e8d36a07dae31e5d3
卢沟桥南里,39.841476,116.243925,97路;专17路,,,0,94b0339c12ada409d12dd6a9
市政交通一卡通公交充值点(丰台西路),39.857361,116.264502,北京市丰台区丰台西路45号院,aba54f04e5226ba5f8f0cbe8,,1,aba54f04e5226ba5f8f0cbe8
中核路口东,39.838282,116.290844,470路;快速直达专线107路;快速直达专线112路;快速直达专线119路;快速直达专线161路;快速直达专线175路;快速直达专线179路;快速直达专线25路;快速直达专线30路;专63路,,,0,c7cb5daacfd6d6ebb35c6a3b
西道口东,39.861245,116.246492,77路;459路;夜16路,,,0,26987202209a4f4bb05c6ae2
齐庄,39.836036,116.250233,313路,,,0,5d4449168f34d017fb22132b
看丹南路西,39.841161,116.269258,678路;专68路,,,0,6ab2feaef124f97dc9e33c3c
丰茂路口西,39.831321,116.29517,470路;快速直达专线107路;快速直达专线112路;快速直达专线119路;快速直达专线161路;快速直达专线175路;快速直达专线179路;快速直达专线25路;快速直达专线30路;快速直达专线64路,,,0,0e48c5f81ef5d90c3517dccd
新月家园,39.851883,116.240401,96路;快速直达专线161路;专17路,,,0,dd5f36b1969872acafee7a8d
晓月苑医院,39.844011,116.247719,96路;310路;329路,,,0,ef199d0039fae17f00ec0187
西道口公交场站,39.862033,116.247969,546路;598路,,,0,36db83f85f431686b13c818d
永合庄东,39.827729,116.275885,678路,,,0,f1cb2c7dcd8e97f202897266
大瓦窑村,39.869946,116.244703,973路;专17路,,,0,37aacba58d28125da2d230a9
老庄子南,39.827405,116.260602,313路,,,0,5ad38b645640d717d618b7d2
晓月苑三里东门,39.843312,116.249319,96路;310路,,,0,94cb02af3cd2b1a3c7f50d35
北京市公安局公共交通安全保卫分局大瓦窑站巡警大队,39.866452,116.239623,北京市丰台区卢沟桥张仪村路市运输机械厂西北50米,9644b8cfa920cc096140a98a,,1,9644b8cfa920cc096140a98a
中核路口,39.838302,116.290972,快速直达专线107路,,,0,87319611b7f2c75a04026fa6
新华街西口,39.848346,116.293539,602路,,,0,5eb1d1ce1ab0a491a11de95a
永合庄西,39.825161,116.262927,313路,,,0,7784996d86c3601917948e59
北京公交消防技术有限公司,39.856643,116.264888,北京市丰台区卢沟桥街道南五里店276号(公交390总站院内),a7721c7b8047a5ad364aaea8,"(010)63858999,(010)63897306",1,a7721c7b8047a5ad364aaea8
外环西路南口,39.826763,116.284978,专63路,,,0,314b0c656a900bca6168586f
总部基地八区,39.829376,116.292078,专63路,,,0,12786fec4682f335ca09f035
公交抗战雕塑园站自行车租赁点,39.854317,116.236503,卢沟桥南路抗战雕塑园公交站西侧,92b49b47023fb045631c67c0,,1,92b49b47023fb045631c67c0
总部基地七区,39.829777,116.288383,专63路,,,0,684adc964bd19038ebe582c7
北京公交驾校(北大地报名中心),39.856693,116.290508,北京市丰台区西四环南路92号,,,1,8445fde23aa976d56240a903
丰茂南路西口,39.831003,116.286278,专63路,,,0,c790e21350abef98b64f541e
公交五里店小区-西2门,39.858064,116.264244,北京市丰台区丰台西路45号院公交五里店小区西二门,f94f60258dfe2dcc43024590,,1,f94f60258dfe2dcc43024590
北京公交集团西道口场站,39.864214,116.24814,北京市丰台区G4辅路,88fdb2d35b6039fac8e33cf3,,1,88fdb2d35b6039fac8e33cf3
七里庄路东口,39.865329,116.296158,845路,,,0,2d3ef884036d92c304fef564
晓月苑游泳馆,39.846215,116.247271,329路,,,0,79a387bc97af4a09ca1b95ef
北京公共交通控股(集团)有限公司第六客运分公司第十一车队,39.874221,116.288177,北京市丰台区西四环南路51号附近,15a717cd718279af8936ee9e,,1,15a717cd718279af8936ee9e
海鹰路西口,39.833095,116.287179,专63路,,,0,f5ae5d7209cab8242fb908e8
中核路西口,39.837128,116.286314,专63路,,,0,01628b12c019f87281a12e97
航丰路西口,39.835006,116.286593,专63路,,,0,e5a07d8caf54b736130daad0
卢沟桥农场,39.827968,116.259878,313路,,,0,ee6183856514af4a29201a2d
公交五里店小区-南门,39.856697,116.264581,北京市丰台区丰台西路45号,36a13cc0f965b334bb17e7b5,,1,36a13cc0f965b334bb17e7b5
总部基地九区,39.829036,116.295283,专63路,,,0,0a54cb6c11ef743c4307c1a8
中核路口北,39.838476,116.28914,快速直达专线30路;快速直达专线64路,,,0,239f50341d22a5e483a00c4e
北京公共交通控股(集团)有限公司(第二客运分公司),39.823531,116.275008,北京市丰台区看杨路,92c0735505796d8f5fd4fe6c,,1,92c0735505796d8f5fd4fe6c
北京市公交集团鸿运承物业管理中心,39.857361,116.264502,北京市丰台区丰台西路45号院6号楼,63d13ac2a604c844b04c4920,,1,63d13ac2a604c844b04c4920
公交五里店小区-西1门,39.857682,116.264462,北京市丰台区五里店丰台西路45号院,538844349316b83f00ec01ef,,1,538844349316b83f00ec01ef
玉泉营桥西,39.854635,116.345655,49路;300路快车内环;300路快车外环;300路内环;300路外环;483路;631路;631路快车;678路;692路;820路;839路;968路;973路;998路;海子角通勤快车;特8路内环;特8路外环;西红门西站通勤快车;夜30路内环;夜30路外环;运通103线,,,0,507812e2781c4681f70e774d
丽泽桥,39.873102,116.31894,67路;83路;300路快车内环;300路快车外环;300路内环;300路外环;323路;349路;458路;459路;480路;483路;531路;631路快车;691路;958路;968路;快速直达专线45路;快速直达专线97路;特2路;特8路内环;特8路外环;夜36路;运通103线;专27路,,,0,93dc82b06e5b232ed5b74e8c
新发地桥北,39.832038,116.351969,377路;381路;410路;423路;454路;483路;497路;529路;646路;676路;679路;快速直达专线22路;夜22路;运通115线,,,0,e35780dc0b04bf45b04c4950
菜户营桥西,39.873516,116.34562,74路;83路;395路;458路;631路;830路;958路;977路;997路;特17路;夜15路,,,0,ac4594db11e236fafa0cade4
樊家村,39.854049,116.322352,49路;351路;691路;夜7路,,,0,60f5175f3920cec4ede4a562
夏家胡同,39.855384,116.333307,49路;67路;300路快车内环;300路快车外环;300路内环;300路外环;483路;631路;631路快车;678路;691路;692路;820路;839路;912路;968路;973路;998路;海子角通勤快车;特8路内环;特8路外环;西红门西站通勤快车;夜30路内环;夜30路外环;夜7路;运通103线;专4路,,,0,1bd3831b18102f7733621256
七里庄,39.872154,116.298893,83路;458路;480路;483路;531路;830路;839路;840路;896路;958路;969路;973路;998路;快速直达专线45路;快速直达专线97路;特7路;特9路内环;夜36路,,,0,d856e7844ad2bc2f2806ce69
新村,39.84632,116.312622,90路;353路;602路;691路;736路;845路;夜7路,,,0,06606f41e52864db8a36eeba
马家楼桥北,39.841966,116.352483,90路;381路;410路;423路;454路;483路;497路;529路;676路;679路;夜22路,,,0,1868d857f9915cf58c1a8951
花乡桥东,39.83553,116.330769,90路;353路;602路;736路;740路内环;740路外环;740路外环公益西桥;特9路内环;特9路外环;运通115线,,,0,f184181f00c2b3f603ec014a
黄土岗,39.836294,116.341748,90路;602路;736路;740路内环;740路外环;740路外环公益西桥;快速直达专线22路;特9路内环;特9路外环;运通115线,,,0,873f73512da2216741d63e2e
丰益桥西,39.863973,116.319799,349路;395路;459路;678路;845路,,,0,f58ec1fb6ebfa28114948e8b
东大街北口(三零七医院),39.868987,116.300508,477路,,,0,9ba7243758ea9a3df33cba2e
纪家庙,39.853548,116.331529,49路;67路;691路;692路;912路;夜7路;专4路,,,0,0e9a4723805aed94b8bd635a
玉泉营桥北,39.863013,116.353951,49路;90路;381路;410路;423路;456路;676路;692路;团河北村通勤快车;夜22路,,,0,7f27f7c65d0092fa31870a72
科丰桥北,39.840327,116.298961,692路;840路;967路;969路;特7路,,,0,cb243bb6ca25726d4657269e
韩庄子南,39.842923,116.297156,83路;694路;840路;967路;969路;特7路,,,0,4b78aace4dad7b28c17da280
新发地桥西,39.828615,116.348278,353路;423路;483路;497路,,,0,4d009fc5fec37f9d9122e05c
怡海花园南门,39.836712,116.308233,740路内环;740路外环;740路外环公益西桥;912路;快速直达专线110路;快速直达专线22路;快速直达专线95路;特9路内环;特9路外环;运通115线,,,0,e85dc1bf6ac93b0bfb2d61eb
菜户营桥东,39.873598,116.359482,5路;49路;83路;90路;122路;381路;410路;423路;456路;458路;676路;欣旺北大街通勤快车;夜15路;夜20路外环;夜22路;夜4路;专30路,,,0,2b33d39b5896cb70eb1e977c
造甲村,39.848685,116.303839,351路;353路;602路;736路;845路;夜7路,,,0,82346503b664dc5443e19291
韩庄子北,39.847948,116.299845,351路;353路;627路;691路;845路;夜7路,,,0,845559b755deb0a33a04b1e2
丰台北路,39.872603,116.304357,83路;323路;458路;480路;483路;531路;830路;839路;958路;969路;973路;998路;海子角通勤快车;特7路;西红门西站通勤快车;夜36路,,,0,b2f15c69b33af18a09a8d4ef
丰台桥梁厂,39.852158,116.315463,351路,,,0,5c04e46a55bdbe48c9fa5f1a
丽泽桥东,39.873326,116.32744,83路;395路;458路;631路;830路;958路;977路;特17路;夜15路,,,0,c09e999a099550393517dcb6
银地家园,39.82885,116.341157,353路;497路,,,0,2d11e51e4c1e9a9b3de2312b
菜户营桥,39.874249,116.352295,5路;59路,,,0,0bf3d831de02df33b3077d5b
前泥洼,39.864078,116.31046,349路;395路;459路;678路;845路,,,0,c74d30777a584881601c6711
四合庄,39.843215,116.318494,90路;353路;602路;627路;691路;692路;736路;845路;夜7路,,,0,8e459b745c12d31fc6effbee
花乡桥南,39.833575,116.319663,627路;845路;快速直达专线160路,,,0,a83c7dfea6acdb881088243d
东大街,39.864162,116.30031,335路;349路;477路;845路;夜16路,,,0,a039dfd0cbee4e4421f0172a
白盆窑,39.824694,116.329244,497路,,,0,2aef4e219f92534788b9883e
怡海花园西门,39.839544,116.304074,83路;694路;特7路,,,0,8181b1b11af0b25e095cb3cb
世界公园,39.819708,116.297243,477路;480路;692路;840路;912路;967路;969路,,,0,2bd3bf899ecffef940ab9a2c
菜户营桥南,39.871816,116.354633,49路;456路;676路,,,0,f8f8a53b20d2b91209b93a31
花乡桥,39.836457,116.32183,90路;602路;736路;740路内环;740路外环;740路外环公益西桥;特9路外环;运通115线,,,0,ed85cffe4faea7c975e5b631
丽泽桥南,39.870028,116.31949,395路;459路;483路;夜30路内环;夜30路外环;夜7路,,,0,6a41760206ba42fc8af15d1f
花乡桥北,39.839944,116.31948,90路;353路;602路;627路;736路;845路;912路;快速直达专线193路,,,0,9ce41e1df90ee07433621243
银地家园南,39.821932,116.337265,423路;快速直达专线160路,,,0,06f34f70aa3f0c524251c04c
游泳场北路东口,39.861497,116.300212,395路;459路;477路;678路;夜16路,,,0,0e6851fc40a8355079dbd270
中国戏曲学院,39.873345,116.340747,74路;83路;395路;458路;631路;977路;夜15路,,,0,d0a28d5719f7194cd92f28b8
玉泉营桥南,39.852892,116.352973,381路;410路;423路;434路;456路;483路;497路;529路;676路;679路;桂村通勤快车;夜22路,,,0,7e588078add283434f6d4625
西管头,39.864031,116.314407,349路;395路;459路;678路;845路,,,0,42ad3ba392ddfedc8bfc0612
世界花卉大观园,39.836819,116.358784,377路;646路,,,0,d3d546887af77d1e8c772728
丰管路,39.864083,116.307604,349路;678路;845路,,,0,694614c5afe27e1488db732f
新华街,39.849892,116.297983,602路;736路,,,0,9076bb49c4d17dba79dbd25d
天伦锦城,39.823162,116.342655,483路,,,0,1afb2595aab7d724130daa90
丰益桥北,39.86453,116.32317,67路;395路;459路;483路;631路;夜30路内环;夜7路,,,0,07bbe140a1b59ed07bf79662
地铁西局站,39.872865,116.313847,83路;323路;458路;480路;483路;531路;830路;958路;969路;973路;海子角通勤快车;快速直达专线45路;快速直达专线97路;西红门西站通勤快车;夜36路,,,0,1943448e05dee9d06b49f3ed
丽泽桥西,39.873154,116.31493,83路;323路;483路;531路;958路;夜36路,,,0,68b0efd7a6c6a2d4a5da3900
益辰欣园小区,39.828984,116.319656,627路;845路;快速直达专线160路,,,0,149cc942cf5c18ca60180993
地铁丰台科技园站,39.831522,116.302685,470路;快速直达专线107路;快速直达专线131路;快速直达专线161路;快速直达专线175路;快速直达专线179路;快速直达专线22路;专63路,,,0,51128822ae4610c35e0d0286
西白家窑,39.82522,116.322609,497路,,,0,11842313c19a4cb2adcb664d
花乡桥西,39.836607,116.31415,740路内环;740路外环;740路外环公益西桥;912路;运通115线,,,0,fcf233fd49563ab50bccdd6d
康久路南口,39.837268,116.323257,90路;602路;736路,,,0,bc3a5781904badc4b1077d98
银地家园东,39.827536,116.342663,423路;483路,,,0,2958e95ae96374724afc8d91
中顶村,39.863712,116.361971,快速直达专线155路;快速直达专线156路;专30路,,,0,a416536b62df2bc8461a3210
玉泉营桥,39.857099,116.353166,49路;410路;423路;456路;夜22路,,,0,4bfc3cc46f4bef71581093ce
三环英和医院,39.854714,116.316257,专4路,,,0,75a18d79a08d335645e27405
东大街南口,39.857375,116.300565,335路;395路;477路;夜16路,,,0,7049e4ce9ca697fef02d83ea
刘家村,39.850697,116.309811,351路,,,0,43032ef274431bb9ed74f8ca
造甲村东,39.84781,116.30784,90路;602路;627路;691路;736路;夜7路,,,0,85db3d4521712980b917e754
新发地村,39.818472,116.351706,410路;夜22路,,,0,d1ba0a2618dd05aab45f1eea
首经贸西校区,39.846937,116.319415,691路;912路;快速直达专线110路;快速直达专线193路;夜7路,,,0,ed379847f492653100ff2d58
地铁首经贸站,39.849673,116.326755,67路;351路;692路;912路;快速直达专线110路,,,0,ada25f410849d3f8246e988f
郭公庄中街,39.821047,116.314912,497路;627路,,,0,de3f26cf00e28aad283a9ffd
丰益桥南,39.862797,116.324107,49路;67路;483路;631路;678路;692路;912路;海子角通勤快车;夜30路外环;夜7路,,,0,06f61fa6db835127cafa5f2c
地铁草桥站,39.851649,116.355126,434路;529路;桂村通勤快车,,,0,a91854aa9abfa86fb7265559
万芳园二区,39.850395,116.320812,67路;912路,,,0,6babff8594b2ccc96e20b9d5
天伦锦城南门,39.820404,116.341,423路;快速直达专线160路,,,0,da46e58c629687d6cae33cdb
公交保修六厂造甲村车间,39.84556,116.307621,造甲街南里22号,947839d4b187ddaca11de969,,1,947839d4b187ddaca11de969
幸福家园小区东,39.822915,116.319629,497路;627路,,,0,64ce7d11b217ab433ce23134
樊羊路北口,39.850997,116.319741,夜7路,,,0,0c7a0516c941e995adb22a2c
樊家村公交场站,39.850413,116.317337,49路;67路,,,0,9ea0d98cb98ab59a29fc48bf
翠海明苑西,39.819366,116.358936,529路,,,0,733e5382e310f2aaca213d28
西铁营,39.867061,116.361043,快速直达专线155路;快速直达专线156路;专30路,,,0,20064933c9b48c4441d63ec6
玉泉营桥北(北行),39.863073,116.354028,欣旺北大街通勤快车,,,0,2585ff2e8b1c7cc5081cc7e1
东大街北口,39.868985,116.300499,77路;323路;夜16路,,,0,4329353f5319be2eb05c6aee
万芳园一区,39.85213,116.327148,67路;351路;692路;912路,,,0,4c15d151038575432afc48ea
棉花城小区北,39.823559,116.30624,497路;627路,,,0,fa4bc07cab1eeab34151c019
丰茂路口东,39.831312,116.298463,470路;快速直达专线107路;快速直达专线131路;快速直达专线161路;快速直达专线175路;快速直达专线179路;快速直达专线22路,,,0,6e1678a19740b8554bcc4a5d
北京公交驾校报名处,39.832677,116.343057,右安路宜兰园二区22号楼底商,69dfe4ec851537a508f5eb3e,,1,69dfe4ec851537a508f5eb3e
总部基地十七区,39.830102,116.299916,专63路,,,0,066418d83c3fabf358f6be98
鸿业兴园,39.843385,116.313213,627路;692路,,,0,c37d0a141abec71617a19005
玉泉营桥东,39.858015,116.361532,678路;夜30路内环;夜30路外环,,,0,8260a4a5ad27ad51f60e7706
温泉公寓,39.839901,116.300983,83路,,,0,2008802bf350c8bf0b69d916
玉泉营桥北(南行),39.863052,116.353835,欣旺北大街通勤快车,,,0,c98464eded677b649222e00d
三环新城东(西行),39.857627,116.322023,专4路,,,0,2414dfc4d29c3935118824d5
北京公交集团七里庄场站(出口),39.872534,116.298502,丰台北路与丰台北路出口交叉口东150米,,,1,56c5d981e554af0ce81e977a
北京公交驾校(纪家庙报名中心),39.853363,116.331102,北京市丰台区花乡大碗居烤鸭家常菜万柳店西,a3eab4efabd1ffd99cf7792c,(010)83816099,1,a3eab4efabd1ffd99cf7792c
六圈南路中口,39.820402,116.305173,470路;497路;627路;快速直达专线107路,,,0,0d3acedbd874c841c41e5148
三环新城(西行),39.857545,116.318199,专4路,,,0,499199e11c02691efd0eb014
菜户营桥西(临时站),39.873709,116.347882,74路;83路,,,0,aa7eb486a87c4f9dfa0cad89
中海九号公馆小区,39.824721,116.30443,470路;快速直达专线131路,,,0,769f1f273df5f4714f6d46be
市政交通一卡通公交网点,39.853359,116.331417,纪家庙路20号附近,c76bf1087ff92db44354d769,,1,c76bf1087ff92db44354d769
育芳园北路东口,39.857551,116.328546,专4路,,,0,87473e9b9bfce59e2eb96d47
北京公交集团(双层客运分公司),39.847102,116.300262,丰台南路200号,b850b301ea4cde1229fc48cc,,1,b850b301ea4cde1229fc48cc
三环新城(东行),39.857503,116.318055,专4路,,,0,73a5e0039712716d2806ce9a
幸福家园小区南,39.822663,116.314901,497路;627路,,,0,582d432b2ed581b9bbbd63f3
丰茂南路东口,39.8283,116.303954,快速直达专线107路,,,0,ce7e46341e37759a54bfff06
白盆窑东,39.826453,116.334526,497路,,,0,bdcdf25dccfb94137ec876a2
北京公交集团丽泽桥场站-西南门,39.874376,116.31714,丽泽桥与丽泽路交叉口东50米,,,1,f4fe5fb0a9a0f7d30f0e6bfe
北京公交集团菜户营桥场站-东南1门,39.874455,116.353339,北京市丰台区丽泽路与广安门南滨河路交叉口东北50米,,,1,c04fb553850b4d29c4f50d95
樊家村北站,39.85541,116.323122,专4路,,,0,de59c1372cab8323260bd0b5
三环新城西(南行),39.856675,116.315256,专4路,,,0,ebd998d0da6e4385465726a1
三环新城西(北行),39.856491,116.315359,专4路,,,0,7f6765a268838a5beee4a52a
北京公交集团樊家村场站,39.849869,116.316433,北京市丰台区康庄东路19号院,85e83b4150e3bfb60b69d922,,1,85e83b4150e3bfb60b69d922
北京公共交通控股集团有限公司电车客运分公司,39.874394,116.353133,北京市丰台区丽泽路辅路,,,1,5e0bcfe29250341ce6e9659c
北京公共交通控股(集团)有限公司电车客运分公司第十九车队,39.874451,116.353164,丽泽路与广安门南滨河路交叉口东北50米,3610d7798a261c473686f448,,1,3610d7798a261c473686f448
北京公共交通控股(集团)有限公司第二客运分公司,39.874326,116.35192,北京市丰台区广安门南街82号-1,51dee3295941d37c88db73c7,,1,51dee3295941d37c88db73c7
北京公交集团双层客运分公司-北门,39.847697,116.299865,丰台南路与科怡路交叉口东50米,,,1,b1e9f2625c7a78b76f3e1b4c
玉林西路,39.86979,116.361095,专30路,,,0,860fe6c495cb7518bda24051
首经贸南路东口,39.845283,116.326868,692路,,,0,59205a2c1923adc0f02d8380
夏家胡同(西行),39.855325,116.33402,691路;692路,,,0,02941071ca5b9244f8dc85e7
夏家胡同(东行),39.855273,116.333018,691路;692路;912路,,,0,d99bb09690b1ce5480288a0d
万芳路南口,39.852037,116.323305,351路,,,0,0fed531bd529c0d016c905df
恒富花园北门,39.843216,116.300976,692路,,,0,634cfc1cef9f06c54354d71e
怡海花园北门,39.843287,116.306481,692路,,,0,d3421de82e5405708415413b
四合庄东,39.843406,116.322372,692路,,,0,13e7fa1e49afa53ac7f50d3c
三环新城东(东行),39.857614,116.321994,专4路,,,0,0f73a17597b9a12714948ebf
造甲村,39.848624,116.303834,351路;夜7路,,,0,e68feb76895da15cd92f28df
冯村,39.916006,116.118411,890路;931路;948路;959路;960路;977路;977路快车;981路;994路;m1路;m25路;m27路;m2路;m32路;快速直达专线107路;快速直达专线137路;快速直达专线139路;快速直达专线68路,,,0,25a5c53ed74bca8c841541e5
石门营,39.898835,116.116285,890路;960路;994路;快速直达专线107路;快速直达专线139路;快速直达专线68路,,,0,51441caf4f463ea615a19039
首钢小西门,39.930465,116.155605,325路;370路;370路区间;892路;929路木城涧;929路千军台;931路;948路;m11路;m16路;m20路;m22路;m2路;m3路;m4路;m5路;m6路;m7路大沟;m7路炭厂;运通101线,,,0,8c5f6b7d7b7d8da583a00c21
栗园庄,39.893076,116.128284,890路;965路;994路;快速直达专线107路;快速直达专线68路,,,0,af4e699c4aee2ebd4afd3fb6
卧龙岗,39.89581,116.148099,890路;965路;979路;快速直达专线107路;快速直达专线171路;快速直达专线68路,,,0,d79f477accfe1ae23a13fdbd
紫金路,39.893588,116.114569,960路;965路;981路;m1路;m27路;快速直达专线139路,,,0,838dba3fb90d86064c3a5925
永定中学,39.920706,116.119527,890路;931路;959路;960路;965路;977路;977路快车;981路;994路;m1路;m25路;m27路;m2路;m32路;快速直达专线107路;快速直达专线137路;快速直达专线139路;快速直达专线68路,,,0,851a2ee553a7eb700782c257
小园村,39.896223,116.119264,890路;960路;965路;981路;994路;m1路;m26路;m27路;快速直达专线107路;快速直达专线139路;快速直达专线68路,,,0,7ee00ba8404dd0dc21022024
梧桐苑南门,39.902945,116.149809,979路;快速直达专线171路;快速直达专线204路,,,0,42f852ddd2fe1a99cc06a41a
石厂村,39.894003,116.106609,931路;948路;959路;960路;m26路;m2路;m32路,,,0,f22b46fb8cdec168b34c4917
永定镇何各庄,39.904672,116.117273,890路;931路;948路;960路;965路;994路;m2路;m32路,,,0,da4804cdd2f78d48c356ac7b
葡萄嘴,39.928443,116.120497,890路;891路内环;891路外环;931路;959路;965路;981路;994路;m1路;m24路;m25路;m27路;m2路;m32路,,,0,b5362561a7c6aed46fc02c75
铸造村,39.930683,116.161554,325路;370路;370路区间;981路;992路;运通101线,,,0,ba57b19ae0ae612741d63e15
冯西园,39.915849,116.104602,959路;977路;977路快车;快速直达专线137路,,,0,990186d998831c9d1b94c60d
白道子村,39.90857,116.107872,959路,,,0,dd197cd77101d6ad39e4a6c4
石龙工业区,39.911137,116.117902,890路;931路;960路;965路;981路;994路;m1路;m25路;m27路;m2路;m32路;快速直达专线107路;快速直达专线139路;快速直达专线68路,,,0,f6877b039f0ce963b05c6a46
上园路,39.898685,116.127251,981路;m1路;m27路,,,0,f3302bd4dfc8b6d2601c67eb
梧桐苑公交场站,39.903019,116.155406,979路;快速直达专线171路;快速直达专线204路,,,0,c402c48945e040f12dfaa7dd
葡萄嘴环岛南,39.925337,116.120229,890路;931路;959路;960路;965路;977路;977路快车;981路;994路;m1路;m25路;m27路;m2路;m32路;快速直达专线137路;快速直达专线139路;快速直达专线68路,,,0,29e9191c71c24ae8c91b95fe
卧龙岗村,39.895267,116.149552,965路;994路,,,0,9726619ef253ec47b6147f0b
紫金路南口,39.891954,116.112679,981路;m1路;m27路;快速直达专线139路,,,0,6c568035ec3ada2b00ff2def
金安桥西,39.930744,116.166481,325路;370路;892路;929路木城涧;929路千军台;931路;941快;948路;959路;977路快车;981路;992路;m11路;m16路;m20路;m22路;m2路;m3路;m4路;m5路;m6路;m7路大沟;m7路炭厂;快速直达专线142路;快速直达专线150路;快速直达专线67路;快速直达专线89路;运通101线;专110路,,,0,c32a54f96d8db47a283a9ff8
梧桐苑西门,39.905277,116.145769,941路;m24路;快速直达专线204路,,,0,cdbd884e2414de5408f5eb69
卧龙岗村东,39.893565,116.154948,965路;994路,,,0,bf56f20d846e4015725e8018
公交停车场,39.905548,116.135032,美安路16号附近,,,1,16d11fd570eac53caaf72976
华侨陵园,39.892061,116.103647,931路;948路;m26路;m2路;m32路,,,0,8a9a160f3fd12390d2f49e17
桥户营,39.918663,116.130709,m25路,,,0,c9e92b8911bdd074eb56fa3d
上岸,39.911159,116.128573,m1路;m25路;m27路,,,0,bb224fbdc64f565f35b06c59
上园路南口,39.894556,116.12723,981路,,,0,357b84730dca6741a1a9349d
石龙西公交场站,39.903439,116.134158,941路;m24路,,,0,02a6cc9a71c35f089fec2b55
润西山小区,39.917135,116.116502,965路,,,0,3e4ae8c7090c589e28d7ab83
侯庄子新村,39.922527,116.138529,941路;m24路;快速直达专线204路,,,0,cd2b217c29f77f6a09a8d40d
北岭新村,39.911576,116.105592,959路,,,0,f990dcf840378d550d3ddaf6
冯村大桥,39.911903,116.117035,959路;977路;977路快车;快速直达专线137路,,,0,35023ddd3e7274c6fbdc8574
石门营环岛西,39.90129,116.113022,959路,,,0,c0f42ecb3c18180c0d3dda62
上园路北口,39.902449,116.127474,981路;m1路;m27路,,,0,23192b70c4fa99b4c4f50da0
石园中路,39.895099,116.113025,965路,,,0,096c7b4d83a0f711250bd051
惠康家园北口,39.927206,116.124503,891路内环;891路外环;快速直达专线204路,,,0,988ac9e205627b7e912ca363
小园公交场站,39.89595,116.12289,m1路;m26路;m27路,,,0,fead807fb79baf4ff82d612a
泰安路,39.905385,116.126617,981路,,,0,f7bdfd92d511c0df5cd4fe7d
首钢焦化厂,39.917077,116.16425,专108路,,,0,96aaaf6372d5dbcdbb17e7ba
冯村南口,39.913328,116.11088,959路;965路;977路;977路快车;快速直达专线137路,,,0,8b9e9911c81420d76168586a
冯村中路南口,39.915668,116.10951,965路,,,0,a5d6fc83d76e87d621026243
丽景长安小区,39.91244,116.113991,959路;977路,,,0,11c7208e16a51eec1ce999fd
永定镇何各庄西,39.905349,116.11085,959路,,,0,e7c50823d42fd2a828b97cea
首钢设备库,39.92217,116.163993,专108路,,,0,9b464d6962947010ed74f8b4
莲石湖西路东,39.902843,116.139481,941路;m24路,,,0,dae81f7d866c9831c33644c9
葡萄嘴环岛北,39.928353,116.121562,960路;977路;m24路,,,0,7649db98d9df33eac61b75d5
五一剧场,39.927098,116.162652,专108路,,,0,0a5c2edbcd6e54eaaaf0cd3c
石门营新区,39.896014,116.109324,931路;948路;959路;m26路;m2路;m32路,,,0,96d5f8ec89277eee744ff1c4
丰台梨园村,39.879556,116.148746,专55路,,,0,70aa5f29d6d9970779dbd24c
冯西园东,39.915002,116.10748,977路,,,0,ebc6067fdcc268db58f6bea1
沟西村,39.886007,116.156568,专55路,,,0,098932507cb808e671455bbd
冯村中路东口,39.915244,116.113135,965路,,,0,5fc136840533bb9748cc4a6f
首钢西十冬奥广场,39.927796,116.157552,专108路,,,0,abeb0daacd67425e58f6be71
沟东村,39.882111,116.152385,专55路,,,0,419991a9cd0ce18cf503b885
燕山水泥厂,39.898185,116.181142,327路;951路;965路;专91路,,,0,71b2753bd64eb41cdbecedec
衙门口,39.908013,116.221167,308路;325路;快速直达专线112路;快速直达专线52路;专69路,,,0,4e7c71d2266fb36677e5b630
石景山水屯,39.896513,116.194259,327路;965路;专91路,,,0,87da192f160a30200c3dda02
永乐西小区,39.909571,116.231202,308路;373路;436路;546路;597路;598路;663路;958路;959路;快速直达专线112路;快速直达专线52路,,,0,dbc7772f65a71f479fec2bd8
石景山古城,39.913432,116.196804,318路;327路;337路;399路内环;399路外环;597路;941路;958路;959路;夜5路;专108路;专61路,,,0,021ef64ca3521da216a19042
八角,39.913316,116.202904,327路;337路;399路内环;399路外环;597路;941路;958路;959路;夜5路;专61路,,,0,8ac6c493d0ddfd302afc481d
河堤,39.898398,116.18546,327路;951路;965路;专91路,,,0,eb349e62995987731994c6ab
晋元庄,39.924687,116.213385,318路;527路;663路;961路,,,0,4ef80272312f2e3a83a00c12
田顺庄,39.920049,116.173864,318路;327路;337路;941路;959路;夜5路,,,0,cd5a8749a96eaeec2b06ce2e
园博园三号门,39.876003,116.199568,994路;专55路;专55区间,,,0,47acbf3989dd15a303ff2dd2
芳园西街南口,39.902594,116.229114,472路;890路;951路;979路;快速直达专线187路;专46路,,,0,50278d4837f9930e9a0050bd
三号桥,39.894722,116.206848,327路;965路;专91路,,,0,cb04c17925f9ffd43517dcc2
老古城,39.913657,116.184666,318路;327路;337路;941路;959路;夜5路;专108路,,,0,97164ab8b942fa73ede4a5b5
古城大院,39.918592,116.193203,399路内环;399路外环;597路;958路;快速直达专线111路;专108路;专61路,,,0,13e910e58c49f3f6130daa1a
京原东站,39.913068,116.226178,325路;337路;527路;545路;574路;597路;598路;663路;914路;941路;959路;965路;快速直达专线27路;专86路;专91路,,,0,97deb05a4e0d35c78bdb7304
首钢厂东门,39.913625,116.17997,318路;327路;337路;941路;959路;夜5路;专108路,,,0,db6ee2caa35f3ba55c0d0241
金顶南路,39.930793,116.173702,325路;336路;358路;370路;370路区间;396路;399路外环;472路;892路;929路木城涧;929路千军台;931路;941快;948路;977路;977路快车;981路;992路;m11路;m16路;m20路;m22路;m2路;m3路;m4路;m5路;m6路;m7路大沟;m7路炭厂;快速直达专线89路;运通101线;运通112线;运通116线,,,0,694cb88cf4a91d1b62685829
六合园,39.904661,116.228464,专69路,,,0,3b5e6f0f8cb0b2d2f5231027
八角西街北口,39.922203,116.20517,399路内环;399路外环;472路;527路;598路,,,0,7bf1a49bb1877be1ae31e5ce
八角西街,39.91507,116.205476,325路;399路内环;399路外环;472路;527路;598路;663路,,,0,140c2b4ce629442d7369d36c
银河大街,39.910774,116.227654,325路;472路;546路;574路;597路;598路;663路;959路;快速直达专线187路;专86路;专91路,,,0,eaa4e9ef12a6f9e53fe231d4
杨庄,39.930689,116.19466,358路;977路快车;快速公交4线;快速公交4线支线;运通101线,,,0,2baadd0f3b51296f3a04b1be
杨庄东,39.930607,116.202815,358路;977路快车;快速公交4线;快速公交4线支线;运通101线,,,0,5bfb0cf28a1122487ec876d3
京原路口东,39.913061,116.220199,325路;337路;373路;436路;472路;527路;545路;574路;597路;598路;663路;914路;941路;959路;965路;快速直达专线27路;专46路;专86路;专91路,,,0,26b086fbc58b429145e274a2
古城剧场,39.921952,116.193131,399路内环;399路外环;597路;958路;快速直达专线111路;专108路,,,0,70bedf770e2e67054c554742
石景山科技馆,39.918935,116.205354,399路内环;399路外环;472路;527路;598路,,,0,defd6508f65366d7c33644ea
杨庄路西口,39.928295,116.193073,325路;399路内环;399路外环;472路;527路;597路;958路;快速直达专线111路;专108路,,,0,c27a383cb7e6e45e774ff11d
京燕饭店,39.913182,116.210737,325路;327路;337路;472路;527路;597路;598路;663路;914路;941路;959路;夜5路,,,0,ea4f77a524c385482ce67b9a
七星园,39.905612,116.221593,325路;快速直达专线52路;专69路,,,0,553e7486edf53f7e7069d323
衙门口村,39.896247,116.214416,327路;965路;专91路,,,0,b21d1dfe116d646e0a5cb32e
八一射击场,39.876503,116.17097,327路;951路,,,0,80b7e7c164a74879a8059d03
鲁谷路衙门口,39.909558,116.224387,308路;373路;436路;574路;958路;夜5路;专86路;专91路,,,0,8a3f724fea538daf0482c208
漫水桥,39.889492,116.171708,327路;951路;994路;专55路;专55区间,,,0,d984146127fffe069c09f780
时代花园南路,39.92447,116.206628,527路,,,0,7a252a60c7a1c9531b11d5a5
北辛安,39.928049,116.167852,337路;941路;959路;专61路,,,0,fb6d0f6384b0a56cf6c59c46
晋元桥南,39.92909,116.213497,318路;663路;961路,,,0,095f3834656731e749fc8d4e
衙门口桥北,39.901828,116.217224,327路;965路;专91路,,,0,87102e1028f771b517948ee1
古城北路,39.923879,116.199223,472路,,,0,ccafe4d521f90193d9ecede4
石景山游乐园西门,39.920995,116.213181,318路;663路,,,0,75e785f04f8a67d8c9e33c27
芦井,39.882235,116.175881,327路;951路;994路;专55路;专55区间,,,0,31cd0a1774e4f36840d63e02
北京市政交通一卡通公交充值点(鲁谷路),39.909775,116.22322,北京市石景山区鲁谷路55号,f4908a9764c289f0cbfa5f4c,(010)88087733,1,f4908a9764c289f0cbfa5f4c
北京公交客四分公司,39.909799,116.223616,北京市石景山区鲁谷路55号,,,1,15fdb6397ecfaab572455b52
晋元桥西,39.930484,116.207878,358路;396路;977路快车,,,0,824be63c56e2c864f5eafcc5
京原路口西,39.913128,116.216242,325路;327路;527路;914路;941路;958路;959路;夜5路,,,0,114dc4f75aba99543f9a5eef
八角北路,39.922648,116.207555,527路,,,0,07381a4873e1ce38465726c2
古城东街,39.920402,116.19906,325路,,,0,66684247fff8fc93c81b95aa
园博园五号门,39.882602,116.190554,994路;专55路;专55区间,,,0,43d03478485228c62dfaa7fd
杨庄小区,39.925778,116.204835,399路内环;399路外环;527路;598路;快速直达专线27路,,,0,e372808a11f566d3260bd074
芦井北,39.884317,116.172397,327路;951路;994路;专55路;专55区间,,,0,52fe2eb8197ffc0daecb661a
杨庄路东口,39.928358,116.204584,399路内环;399路外环;527路;598路,,,0,37da9d7d53ceaa8e5d0d0274
五芳园,39.904458,116.231918,专69路,,,0,ad0a29922ab252f4cf06a47d
金安桥,39.930867,116.167526,快速公交4线;快速公交4线支线,,,0,dc2ea02c6c3b0e5e09ccdddc
古城公园,39.917561,116.200822,318路;325路,,,0,0fc55195abb6f4401c38943e
石景山(万商花园酒店),39.912147,116.2255,机场大巴石景山线,,,0,f85f6fd810a09d76cd04ef93
园博园四号门,39.879739,116.19538,994路;专55路;专55区间,,,0,001a20321263056132870a44
七星街,39.903779,116.222949,472路,,,0,ed5d77ad1c68228f74026999
依翠园,39.905732,116.224815,专69路,,,0,f44818b86e2e119faeb22a02
张仪村公交场站,39.882802,116.229615,76路,,,0,fa8ec45d2e1dcea661685868
中国园林博物馆,39.884067,116.184758,专55路;专55区间,,,0,bf0f85e38015c7040482c241
衙门口西,39.906879,116.217511,327路;965路;专86路;专91路,,,0,e8ba3caac370a6ec30870afb
莲石东路西口,39.902487,116.214565,专86路,,,0,c5e2ef8e3dcd78dc28b97c09
石景山雕塑公园,39.916659,116.206635,663路,,,0,4d1a39a51d1c7d393913fdcf
燕堤南路,39.900236,116.180024,专91路,,,0,f653263fcdadad37bda24067
景阳东街,39.903246,116.212372,专46路,,,0,8a60d500f67a77d5b54f54e2
八角南路,39.916793,116.203381,325路,,,0,fbb4ace42b35abaae81e97ae
地铁金安桥站,39.930609,116.168723,世园会公交专4线,,,0,57d130f4cd316f08715e809b
张仪村公交加气站,39.883433,116.229808,北京市丰台区张仪村甲65号,98419f9fc69c55319b68b424,,1,98419f9fc69c55319b68b424
半月园,39.906825,116.228602,专69路,,,0,80581608d16ed4c97f29bdbb
燕堤南路西口,39.900703,116.176301,专91路,,,0,aae1862d7984eeb722022078
古城北路西口,39.923922,116.19433,325路;472路,,,0,98f6ff53a11ca1b41029358d
八角北路东口,39.92257,116.211806,527路,,,0,ab2dfa8c4a467d66f82d6124
杨庄西,39.930139,116.185587,399路内环;399路外环;运通101线,,,0,1e9cc43ff5b2598cca29158e
六合园北,39.906446,116.225931,325路;472路;快速直达专线112路;快速直达专线52路;专69路,,,0,89ec2ec52b39f8b3e9f85320
八角北路西口,39.923095,116.198728,325路,,,0,45e95f659a9e0b71b320a8fd
建西苑南里,39.922517,116.215104,961路,,,0,86d87f7a94a8401a0b1cc779
芦井村,39.879823,116.17374,327路;951路,,,0,3d68132acc3550c5250bd006
八角路,39.919604,116.204155,318路,,,0,b5fa4c0e14a9443956bfffc1
北京公交驾校(古城店),39.919261,116.19276,北京市石景山区古城大街33号,99c12c84675eea0a8bb988eb,,1,99c12c84675eea0a8bb988eb
老山南路,39.916394,116.221248,545路,,,0,79b976e43c02d8f585420ee6
杨庄路,39.928666,116.199584,527路,,,0,da835ccbd3e0e1dcd8eced52
北京公交新风科技第六汽车修理分公司,39.909932,116.221552,北京市石景山区鲁谷路55-1号,550fd5f96fde9360931fc928,(010)68668312,1,550fd5f96fde9360931fc928
重聚园小区,39.900858,116.230643,545路,,,0,15378fae388b09008f55ecb8
首钢试验厂,39.913843,116.170674,专108路,,,0,086957f3823ff9282802e145
八角东街西站,39.927002,116.2092,527路,,,0,f63f6e2650a1c638e0110354
公交保修三厂,39.882876,116.230304,丰仪路39号,41f4ae9dd46c9cfb2fb9087c,,1,41f4ae9dd46c9cfb2fb9087c
景阳大街北口,39.901428,116.210711,专86路,,,0,329951320fe1b62115764318
八角路东口,39.919558,116.209838,318路,,,0,9901afe3e423980a1188241b
体育场南路东口,39.909514,116.215472,914路;专46路,,,0,e0943322986d02efb726550f
古城东街南口,39.914341,116.20087,318路,,,0,1fbdb386e04038491d1d114d
京原路口南,39.911126,116.217445,327路,,,0,b3f7c5843a15190bb05c6a3b
鲁谷桥东,39.9095,116.222726,308路;958路,,,0,9bbca8769b918eac4c3a59cb
景阳东街北口,39.907999,116.211311,专46路,,,0,032f1d5ea1f530409cf77942
体育场南路西口,39.910753,116.207105,914路;专61路,,,0,253129dcfa33cb20dbd891a7
六合园西口,39.903972,116.223384,专69路,,,0,5938640a0f2cfe2a250bd08e
老山西街,39.915505,116.222348,545路,,,0,9cbae6e1a00f777d7bf7960a
北京公共交通控股(集团)有限公司双层客运分公司,39.913939,116.184161,石景山路63号附近,cd9d05ddfb96feb685420edb,"(010)68864870,(010)68863031",1,cd9d05ddfb96feb685420edb
北京市公共交通总公司保修分公司六厂-南门,39.909822,116.223069,鲁谷路55号附近,,,1,1a9390dc0a19c74e3586f400
北辛安南,39.925549,116.169436,337路,,,0,497da78d40567b4a14b54bc4
八角南路东口,39.916839,116.212608,663路,,,0,fc3f48e9feac0b5f1d389401
六合园中街,39.904149,116.225252,专69路,,,0,29f4b4589e2b76551029357b
七星街西站,39.901382,116.220525,472路;专46路,,,0,697b0137057a043f430245a9
北京公交张仪村场站,39.882883,116.23016,北京市丰台区丰仪路39号附近,,,1,e35a39d75d4a133d4107c167
八宝山,39.912942,116.231967,专69路,,,0,86568be45827a71526d2bbc9
景阳东街南口,39.89831,116.21442,专86路,,,0,842bdc247d81c6e32bd7ab52
北京公共交通控股(集团)有限公司双层客运分公司-南门,39.914027,116.18408,石景山路63号附近,cf380f8bcb36ac474e776e25,,1,cf380f8bcb36ac474e776e25
体育场西街,39.910026,116.205958,专61路,,,0,ef2c02583d455eb68bf15df4
拾景北路,39.908658,116.207784,专61路,,,0,db37bc61981a86f96849f31d
金安桥东,39.930577,116.16877,325路;336路;358路;370路;370路区间;396路;892路;929路木城涧;929路千军台;931路;941快;948路;977路;977路快车;981路;992路;m11路;m16路;m20路;m22路;m2路;m3路;m4路;m5路;m6路;m7路大沟;m7路炭厂;快速直达专线142路;快速直达专线150路;快速直达专线67路;快速直达专线89路;运通101线;运通112线;运通116线;专110路,,,0,ea2e85afcf886b382fb90841
古城西路,39.920688,116.186427,专61路,,,0,831afca13f3a91ece215f93f
景阳大街南口,39.89818,116.210783,专86路,,,0,decbd1d62aabcff672210bfa
青塔,39.899862,116.280419,97路;335路;624路;736路;740路内环;740路外环;740路外环公益西桥;952路;958路;959路;967路;982路;983路;运通115线,,,0,e82742c935fbae831c5800c7
吴庄,39.898968,116.236794,76路;436路;481路;531路;545路;546路;598路;959路;快速直达专线84路;运通113线;运通114线;运通120线,,,0,a073a0fcbcb65ec03904b151
岳各庄,39.890948,116.28109,335路;624路;736路;740路内环;740路外环;740路外环公益西桥;941快;952路;958路;959路;967路;982路;983路;特9路外环;运通115线,,,0,fb918ed67df42b53704b876d
小瓦窑,39.898611,116.259453,338路;436路;473路;481路;507路;959路;运通114线,,,0,65575b66f9205ea7246e98ca
张仪村,39.88213,116.237936,76路;546路;574路;598路;611路;612路;961路;快速直达专线84路,,,0,709792ab268b0457d5b74eb5
鲁谷,39.909732,116.248022,308路;546路;597路;610路;958路;快速直达专线112路;夜5路;专109路;专69路,,,0,1673a0c1018d31a84207c1d4
郑常庄,39.896331,116.280555,97路;335路;624路;736路;740路内环;740路外环;740路外环公益西桥;941快;952路;958路;959路;967路;982路;983路;特9路内环;特9路外环;运通115线,,,0,047dc79f83079455b1077d84
金沟河,39.922751,116.281261,568路;740路内环;740路外环;740路外环公益西桥;952路;967路;982路;983路;运通115线,,,0,f27ade37f34c734f35b06c7b
大成路西口,39.895581,116.261376,473路;531路;611路;634路;快速直达专线179路;运通113线,,,0,da310042c7ebb7ea2a02e110
靛厂新村,39.895925,116.287672,52路;57路;473路,,,0,4b6877300ddfb4f1d13ce3ef
大成里,39.89569,116.268805,64路;473路;531路;611路;634路;快速直达专线179路;运通113线,,,0,05409604eb1a8d1e43afe649
田村山南路,39.926778,116.253667,370路;373路;专109路,,,0,a927296428c7f7829ff7794f
定慧寺东,39.930508,116.293004,27路;87路;121路;414路;481路;507路;612路;634路;653路;693路;698路;701路;967路;977路;977路快车;快速直达专线104路;快速直达专线137路;快速直达专线144路;快速直达专线16路;快速直达专线48路;夜13路;运通102线;运通106线,,,0,b79e81184009014dfb42b26f
焦家坟路口南,39.905503,116.235902,76路;436路;545路;546路;598路;663路;951路;959路;快速直达专线187路;快速直达专线52路;运通120线;专69路,,,0,ef56f90891be585133870ac7
岳各庄桥东,39.881417,116.285527,96路;309路;309路区间;321路;321区间;390路;835路快;836路;838路;838路松林店;895路;901路;901路快车;901直达快车;952路;971路;983路;快速直达专线86路,,,0,d8e81ad245a013bb9d95de43
十院,39.909794,116.251256,78路;308路;389路;472路;473路;610路;612路;736路;快速直达专线112路;专11路,,,0,ff89a10eb10d0c7303897230
老山,39.913033,116.234071,337路;527路;545路;546路;574路;914路;941路;八达岭人民公墓老山专线;快速直达专线187路;太子峪陵园老山专线,,,0,6ed9cd7a99d9f8471b11d5a0
岳家楼桥,39.903162,116.289768,特14路,,,0,db4bd65c2bc4ececf503b820
岳各庄桥北,39.883603,116.283404,96路;97路;335路;390路;531路;624路;736路;740路内环;740路外环;740路外环公益西桥;896路;952路;958路;967路;982路;983路;运通115线,,,0,e2ae44e6e599a30b88db7310
吴家村路东口,39.895603,116.255331,436路;481路;531路;611路;959路;运通113线;运通114线,,,0,01c408f1cdacee7f213bf278
西翠路口西,39.906593,116.28756,308路;335路;568路;634路;941路;夜5路,,,0,0ddb26a413746fe8c17da257
定慧桥南,39.927735,116.281984,97路;481路;505路;507路;611路;658路;693路;740路内环;740路外环;740路外环公益西桥;952路;982路;983路;运通102线;运通106线;运通113线;运通115线,,,0,1045ee6b4d99db8dc7f025a5
小井,39.882478,116.293323,531路;627路,,,0,a3219bc1b4b8c4c88bf15df0
沙窝桥西,39.906547,116.278303,634路;736路;958路;959路,,,0,c1b44ae8425bf8722806cec9
吴庄南,39.894401,116.238134,76路;546路;574路;598路;611路;612路;961路;快速直达专线84路,,,0,ef00f90891be585133870a31
总参通讯干休所,39.927257,116.251191,370路;373路;专109路,,,0,6c73e2a8eebabad325e0a0e8
吴家村,39.895466,116.247915,436路;481路;531路;611路;959路;运通113线;运通114线,,,0,43b218f9c459fc9ca6da39a0
梅市口,39.887849,116.259432,338路;507路;634路,,,0,ab1e470d95d0f74fefe4a512
铁家坟南,39.923021,116.2711,334路;611路;701路;运通113线,,,0,2203365d9fdc95083be4a6fd
丰台路口,39.878013,116.286589,335路;338路;351路;483路;602路;627路;694路;736路;740路内环;740路外环;740路外环公益西桥;896路;958路;967路;973路;特9路外环;运通115线;专125路,,,0,0a2a2998936c14cbbb17e789
五棵松桥北,39.915364,116.280397,436路;568路;952路;967路;982路;983路;机场大巴石景山线,,,0,7d9d1e278542f5079122e006
莲玉桥西,39.902799,116.248859,334路;472路;663路;890路;快速直达专线52路,,,0,8d0811f66fe38b81bd48427c
阜永路口南,39.928998,116.271034,334路;612路;701路;运通114线,,,0,aec3ce231f1aa76cb8bd6348
丰台路口西,39.877765,116.281831,96路;97路;133路;338路;390路;973路,,,0,a3330375b9da96fe45e274c1
莲芳桥东,39.90266,116.237398,334路;472路;527路;663路;890路;979路;快速直达专线52路;快速直达专线84路;专69路,,,0,87e681fb116a1e89fda77876
张仪村北,39.887659,116.238062,76路;546路;574路;598路;611路;612路;961路,,,0,f58c8a3c98d5a0218a2fb55c
莲玉桥东,39.903033,116.261194,334路;663路;890路;快速直达专线112路;快速直达专线52路;专125路,,,0,6bb0a5387160b9b60d3dda29
南沙窝桥,39.903347,116.279676,624路;736路;740路内环;740路外环;740路外环公益西桥;890路;941快;952路;959路;967路;982路;983路;运通115线,,,0,eca90abfc56a3bcae311033a
石槽,39.904297,116.259405,338路;436路;472路;473路;481路;507路;959路;运通114线,,,0,fe52d1d14cfa09d231f71d82
永定路口北,39.915823,116.271088,334路;611路;701路;运通113线,,,0,b28078b9f3703f4b9f9d6823
