name,lat,lng,adderss,street_id,telephone,detail,uid
星巴克(北关西路店),39.741642,116.145599,房山区良乡北关西路14号华冠购物中心一层,371602792ae707fc38e4a666,(010)69384187,1,371602792ae707fc38e4a666
咖啡屋(西门店),39.738023,116.142176,北京市房山区良乡西潞东里甲1号楼2层X-04,927058287203052c276e9853,(010)56237137,1,927058287203052c276e9853
尚品咖啡,39.732138,116.148107,房山区拱辰南大街91号(与南关西路交口西南角),80237aca65534647c0364455,(010)60354801,1,80237aca65534647c0364455
铭记咖啡,39.729759,116.129819,房山区西潞街道苏庄三里共创大厦103,,(010)58417009,1,9b8cdb25d3fcd224fa42b218
星巴克(政通南路店),39.752102,116.147963,房山区通政南路2号院龙湖房山天街1层,,(010)61351520,1,2c30b74bafec2bfc3686f4d3
西堤岛,39.729839,116.164633,东羊庄村18号-14大学城购物中心3层,cd99ea427070ef3fc7f02511,(010)63341355,1,cd99ea427070ef3fc7f02511
卡督夫咖啡,39.720141,116.130682,北京市房山区翠柳大街辅路,,,1,89ed9fcd17a04c899f82eab7
小萌心屿,39.73124,116.178813,良乡东区十六号路首开·熙悦睿府书香10号院6号楼103,,"(010)60353118,13260209807",1,8b42a70bcfd61dd9f7e73b9a
森林咖啡,39.731608,116.178727,书院南街10号院1号楼1层101,,"18513312001,18611911928",1,f0af89009197ffb4fa0cad3e
光合时间创客咖啡,39.749151,116.186179,北京市房山区辰光东路16号院5号楼光合创意大楼一层大厅,,13810804063,1,807e88b07de62ad9b320a8f8
卯田咖啡厅,39.759628,116.216497,长泽南街中粮万科半岛广场2层同乐汇卯田空间内,29d59006a2c9f1fc3b04b100,13581588698,1,29d59006a2c9f1fc3b04b100
Mu Coffee,39.728746,116.175751,北京市房山区长虹东路辅路,,,1,e1d968bb547e62662002207a
咪咪咖啡吧,39.728762,116.172697,阳光南大街115号,,,1,83c5c0b6a76c68f607fef506
那间咖啡(大兴分店),39.733803,116.346616,大兴区兴丰大街三号,d97f8dcdbdf26adc28b97cb4,"(010)60215240,18513413615",1,d97f8dcdbdf26adc28b97cb4
星巴克(大兴天键广场店),39.758696,116.322141,大兴区枣园路26号大兴天键广场1层,,(010)61240871,1,eba3d3e181ebdd702a02e18d
咖啡一色,39.753131,116.338071,"兴华大街波普中心4栋131号(近清源路地铁站,北京印刷学院北300米)",974907543810a088bea24092,,1,974907543810a088bea24092
栗子咖啡(兴华大街店),39.7542,116.338039,大兴区兴华大街二段波普中心3号院3号楼底商115号,,(010)57253131,1,70acad760121d8aec909f0e1
醇在亦周咖啡店,39.743517,116.334572,富强西路131号,1768b21be147ce17b5147fa1,18513856167,1,1768b21be147ce17b5147fa1
MO CLUB,39.754784,116.338075,"北京市大兴区兴华大街二段3号院2号楼1层110室(波普中心东门北侧,巴蜀阁南侧)",cf45e840c2c0394a4f6d461f,,1,cf45e840c2c0394a4f6d461f
星巴克(大兴泰禾店),39.719201,116.326219,大兴区新源大街30号1号楼1层1088-1090号,,(010)53918390,1,9b5d8073eac912da1b94c608
喵宫主猫咪咖啡馆,39.754918,116.337564,兴华大街3号院附近,,,1,b29857dd09aae2c34f3a590e
洗车咖啡小镇(途虎永华路店),39.730252,116.315598,北京市大兴区永华路22号,603c58e3911e357c00ff2d4f,,1,603c58e3911e357c00ff2d4f
星巴克(天星街店),39.763093,116.166862,房山区天星街1号7号楼绿地缤纷城F1层,4dfee1e959c65f1643ab9a24,(010)52594162,1,4dfee1e959c65f1643ab9a24
南宫温泉咖啡厅,39.811466,116.160428,王佐镇福宫路39号南宫温泉度假酒店2楼,c52ab9e8d6359297be4842bc,"(010)83315566,(010)83393928,(010)83393926",1,c52ab9e8d6359297be4842bc
星巴克(悦盛路店),39.769104,116.193187,房山区悦盛路6号首创奥特莱斯F1层F1-B06号,e1c4d65154cb0eaa430245e2,(010)60356869,1,e1c4d65154cb0eaa430245e2
麦咖啡(昊天大街得来速餐厅),39.77257,116.171628,哑巴河村218-18号京周路,1972487f3571a1d4eb12e424,(010)81311472,1,1972487f3571a1d4eb12e424
星巴克(欣宁大街店),39.793945,116.334072,大兴区西红门镇欣宁大街15号北京荟聚西红门购物中心L1层,5c56502d99fb2ef3c4f50d65,(010)50931855,1,5c56502d99fb2ef3c4f50d65
漫咖啡(鸿坤广场店),39.797759,116.346216,北京市大兴区欣旺北街8号鸿坤广场1层,742bffaeeb794ed3d1f49ece,(010)51077980,1,742bffaeeb794ed3d1f49ece
星巴克(金星西路店),39.770181,116.340647,大兴区金星西路3号,ff304319715a835d09b93a0d,(010)53948665,1,ff304319715a835d09b93a0d
星巴克(宏福路店),39.796968,116.346291,北京市大兴区西红门宏福路鸿坤生活广场一层,de6f0ec4668d92c9f60e77ea,(010)60292130,1,de6f0ec4668d92c9f60e77ea
bruno caffe(绿地缤纷城店),39.769875,116.340419,北京市大兴区兴华大街与金星西路交叉口东北角绿地缤纷城F1,e8a1bf7aabe5710bae080f15,(010)80222687,1,e8a1bf7aabe5710bae080f15
巨门咖啡,39.779341,116.32773,北京市大兴区领海商业中心57号楼,c5b7d6ba0f7d90973f9a5e49,13811442733,1,c5b7d6ba0f7d90973f9a5e49
绿野仙踪茶艺馆,39.776898,116.323614,北京市大兴区兴盛街一段120,593850fbbeb80f44de1e52b0,(010)60231228,1,593850fbbeb80f44de1e52b0
创亿咖啡厅,39.76435,116.352258,西红门金苑路2号1幢2层216室,6139603d7b85e057f50e775e,13240202275,1,6139603d7b85e057f50e775e
转角咖啡,39.781749,116.327651,北京市大兴区兴业大街香海园3号楼1层8室,510cbba7a86fc312d92f287b,13120012008,1,510cbba7a86fc312d92f287b
99stepsCoffee(康庄路店),39.763227,116.332577,北京市大兴区康和园162,2f481a6886a33512fbdc857d,18911031895,1,2f481a6886a33512fbdc857d
麦咖啡(西红门店),39.79617,116.336243,北京市大兴区西红门镇瑞海家园一区1号楼一层及二层部分(麦当劳内),67af8273578a49fb28d7ab71,(010)60259355,1,67af8273578a49fb28d7ab71
luckincoffee瑞幸咖啡(鸿坤广场店),39.796192,116.353326,北京市大兴区宏福路西红门鸿坤广场B座102室,,,1,a5d767624a2cd4b99868b431
创客咖啡简餐,39.768079,116.357266,金星路12号院2号楼1层(奥宇集团楼内),ad396adff56d9cadfbf0cb30,(010)60212083,1,ad396adff56d9cadfbf0cb30
MYGirl coffee,39.796202,116.331793,宏福西路荟聚西红门购物中心2层,6ab986378b321910ede4a592,(010)59062145,1,6ab986378b321910ede4a592
鑫利源咖啡店(槐树岭店),39.866752,116.178557,北京市丰台区槐树岭4号院,c3718590cf34c31cf4eafc7c,(010)83869615,1,c3718590cf34c31cf4eafc7c
星巴克(南四环西路店),39.83307,116.292817,丰台区南四环西路188号,a011e62f8f400c9c246e98fb,(010)63729601,1,d5d62d0482f0f09ff6e73b22
星巴克(西四环南路店),39.84412,116.291715,丰台区西四环南路103号资和信百货商场第一层1024单元,0cb6d548172029772fb90817,(010)83203068,1,0cb6d548172029772fb90817
Dream Bar.醉梦,39.873806,116.284215,北京市丰台区西四环南路55丰台体育中心西12号看台,06a1e9450099a9d7df1e52a8,,1,06a1e9450099a9d7df1e52a8
晏coffee,39.830693,116.287544,北京市丰台区外环西路26号院8号楼,,,1,03457e320540dc6f12882404
圣地苑宾馆-咖啡厅,39.866262,116.293606,北大街3号圣地苑宾馆,a52a7e78af171321932ca3a0,(010)63843337,1,a52a7e78af171321932ca3a0
宛平旮旯咖啡,39.856037,116.233474,北京市丰台区卢沟桥城内街甲48号,4548d87a1d1deefb931fc946,13910200398,1,4548d87a1d1deefb931fc946
灵咖啡,39.839615,116.24956,晓月中路晓月苑七里1号楼三单元101底商,76124dcabc695c0ffd0eb0a7,18500198310,1,76124dcabc695c0ffd0eb0a7
GODFATHERCOFFEE,39.843942,116.290607,西四环南路103号3号楼1层103,79c19dab81734362f82d61bf,,1,79c19dab81734362f82d61bf
物外咖啡,39.832682,116.294545,总部公馆C座1012,,,1,915fe5f02b842d58843304e9
IRON CAFE&CLUB,39.831926,116.287274,北京市丰台区海鹰路6号院26号楼一层,,18310103676,1,ef64880dbc82897500ec01b6
百咖汇,39.833157,116.288279,科学城海鹰路8号2号楼1层1012室,afcb9e84dc1d2d564d6d461a,13683335435,1,afcb9e84dc1d2d564d6d461a
星巴克(北京丰北路咖啡店),39.872831,116.299804,丰台区丰北路甲79号华堂商场1层1-001单元,c2a73e3b4434478d4151c0b9,(010)63801101,1,c2a73e3b4434478d4151c0b9
漫咖啡(汉威国际广场店),39.827857,116.302728,南四环西路186号汉威国际广场四区8号楼1层,,(010)63795179,1,7135f191cb38bc297f29bd7e
星巴克(丰科路万达广场店),39.830522,116.304416,丰台区五圈路万达广场F1层1056号,,(010)52806313,1,8bdd76117c0bfa591894c6ea
漫咖啡(永旺梦乐城店),39.824926,116.298894,北京市丰台区丰葆路88号永旺梦乐城F1,0b3eb2c444c10db45abbbc18,(010)83326263,1,0b3eb2c444c10db45abbbc18
星巴克(南四环西路第二店),39.833382,116.328691,丰台区南四环西路76号花乡奥莱物业2号楼一层02111商铺,,(010)83798670,1,33547a2052e078f47dc876d0
星巴克(北京丽泽桥恒泰咖啡店),39.8722,116.312038,丰台区丰台北路18号院恒泰广场一层,dee82be90e0c4038fa42b29d,(010)63708711,1,f383cda4d0248d9be115f92e
上岛咖啡(丰管路店),39.864366,116.30554,北京市丰台区丰管路君颐润华酒店西侧2楼,23db989d8f1a2c254afd3fdb,(010)57270808,1,23db989d8f1a2c254afd3fdb
咖啡之翼(丰台诺德店),39.832911,116.307361,北京市丰台区汽车博物馆西路诺德中心2期10号楼1层105,,(010)53321468,1,2056ed6795dba3300f0a7020
星巴克(西铁营店),39.86655,116.361648,西铁营中路1号万达广场F1层,0a59265438b6bf46e81e97b9,(010)83557911,1,0a59265438b6bf46e81e97b9
瑞幸咖啡(诺德中心店),39.835446,116.306212,北京市丰台区南四环西路128号院2号楼1层105,,,1,f7d135cb98e3cc7ef603b87c
星巴克(丰葆路店),39.823835,116.298777,丰台区丰葆路88号院永旺梦乐城1层,,(010)83816426,1,6a5c8b91b91a75fec42ba18f
帝欧咖啡厅,39.840651,116.301601,丰台区恒富中街5号院2楼,4edf9fbf5e98e18dcc06a452,(010)63798979,1,4edf9fbf5e98e18dcc06a452
咖啡奶茶街,39.830955,116.351165,北京市丰台区新发地长途客运站东门南侧,dad8b375f9b31a3588db7339,,1,dad8b375f9b31a3588db7339
漫猫咖啡,39.872488,116.314523,丰台区丰台北路恒泰中心写字楼A座一层,,18701325626,1,31a8ff477fa9adcb593ac80e
咖尔法咖啡(汉威国际店),39.827394,116.301545,汉威国际广场E地块5号楼01层A单元,57ed13e5eae113fc1d5800fc,(010)56201331,1,57ed13e5eae113fc1d5800fc
helloStranGer咖啡厅,39.846033,116.328938,北京市丰台区芳菲路88号院-北门底商,8cb000a836114bd9f942b2a6,,1,8cb000a836114bd9f942b2a6
luckincoffee(诺德中心店),39.83557,116.306227,丰台区南四环西路128号院2号楼1层105号,,"4000100100,4006692002,18612291561",1,6a8e807fd9689c36c16c14c9
尚品茶楼茶艺咖啡,39.85179,116.358514,北京市丰台区镇国寺北街草桥欣园C区三层,784109eff04116e65d17c364,(010)67566990,1,784109eff04116e65d17c364
南城会馆,39.860871,116.316837,丰管路16号9号楼,fa318010a015fd6b96ca0705,,1,fa318010a015fd6b96ca0705
北京IBI咖啡,39.843427,116.299634,北京市丰台区科兴路7号国家级企业孵化器,,,1,ca3b8f015ec02cd1e5e96598
贝玛咖啡公社,39.82647,116.298931,南四环西路188号18区10号楼号楼恒通九鼎一层,bff0c425af026e6af7e73b79,(010)52227175,1,bff0c425af026e6af7e73b79
星巴克(汉威国际广场1店),39.826656,116.301565,丰台区南四环西路186号一区1号楼,,(010)83816399,1,d494a4ae0011621f71210bf7
星巴克(五圈路店),39.830854,116.307719,北京市丰台区华夏幸福创新中心A座底商,,(010)52806313,1,44ba89e1758e8d80c4f50d55
木子瑜伽会馆木子咖啡厅(益泽路),39.871486,116.316021,西三环南路55号顺和国际财富中心2005室,,(010)57528171,1,7595b432f732cbf3f33cba3d
DFS COFFEEDINING,39.849739,116.321716,张家路口121号首都经济贸易大学第一餐厅,7c1e9af8bf17cafc43e19208,,1,7c1e9af8bf17cafc43e19208
Luckin Coffee瑞幸咖啡(汉威国际店),39.834322,116.30153,北京市丰台区汉威国际广场1区M层(地下一层)108号,,,1,c35e5acea4e4c631ae080fcd
众创空间,39.843427,116.299634,南四环西路巴庄子139号神州科技园,,,1,a5f1eb7d85a884158f1a89b9
聚匠咖啡,39.838302,116.301848,北京市丰台区新村街道宝隆公寓6号楼大门东侧,,,1,affcb97c13b525eb2b02e1af
漫磨咖啡,39.833296,116.307469,北京市南四环诺德中心二期9号楼1层,,,1,9a717cf6aa57e86d9e9d6803
宜园咖啡,39.844097,116.354671,北京市丰台区花神街西门内北3号,44a656443aab51007bf796ac,,1,44a656443aab51007bf796ac
多百特咖啡厅(龙江奔达店),39.856652,116.332102,北京市丰台区南三环西路117号龙江奔达加油站内,,,1,568c86be5bb88a2e715e808d
迪欧咖啡(怡海店)-停车场,39.840512,116.301573,丰台区恒富中街9号,13a1b3123b9713a3b817e7a5,,1,13a1b3123b9713a3b817e7a5
轩咖啡,39.834523,116.308079,丰台区南四环西路126号,,,1,4a38bdb5fb036481eedfcaf9
i.coffee,39.904399,116.12894,北京市门头沟区经济开发区上园路甲10号洪源智能工坊(写字楼一层),,"18618354585,13671220997",1,28c33834cc41ad5f7c29bdd2
西山创客咖啡,39.902461,116.13703,北京市门头沟区莲石湖西路98号院,6d9aeed74dacbc63b8bd635b,(010)60805990,1,6d9aeed74dacbc63b8bd635b
星巴克(首钢店),39.914575,116.177299,北京市石景山区石景山路68号晾水池东路(三高炉北侧),,(010)88296062,1,8c618beceae1340ab34c4912
3.14 coffee,39.90944,116.217159,北京市石景山区京原路1号院一层1号,90661114f9b98a2326d2bb96,"(010)57111716,15910913936",1,90661114f9b98a2326d2bb96
星巴克(阜石路第一店),39.929441,116.178519,石景山区阜石路300号喜隆多新国际购物中心F1层,43fca392a631a32002897284,(010)53021090,1,43fca392a631a32002897284
漫猫咖啡(古城公园西街),39.917118,116.199043,北京市石景山区古城南路5号,7784c549e5ddfa52d92f28bf,(010)88809695,1,7784c549e5ddfa52d92f28bf
喜鹊.magpie,39.910284,116.231099,北京市石景山区鲁谷路北方中惠国际中心B座底商,e72e4c1728e8e28128b97c45,(010)53697526,1,e72e4c1728e8e28128b97c45
憩约咖啡厅,39.925978,116.21452,北京市石景山区八角东路12号京成商厦2层210,,18600292155,1,a258a7fe3d2229a09e82ea26
京燕饭店咖啡厅,39.913567,116.210292,北京市石景山区石景山路29号京燕饭店B层(八角游乐园),d6b537e420fe9fab82a12e47,18301179780,1,d6b537e420fe9fab82a12e47
北京怡园星光咖啡屋,39.92407,116.194219,北京石景山区古城北路81号(石景山消防支队对面),1e9662eeeb298e176f3e1bd1,(010)88259386,1,1e9662eeeb298e176f3e1bd1
i7咖啡,39.911731,116.190103,石景山区城通街26号院2号楼2层8-42号,,18601280902,1,5bbcee0480459ba62d473342
7豆咖啡厅,39.914102,116.196294,北京市石景山区石景山路星座大厦一层底商(古城地铁站A口停车场内),,(010)68818966,1,e7e7879310a0caaaf7e73b9f
瑞幸咖啡,39.925197,116.212485,时代花园南路17号院茂华大厦一层大厅,,,1,fd8131a8acda6263c4f02510
MAAN CAT COFFEE,39.917063,116.198908,北京市石景山区古城南路5号附近,,,1,0b9ae08d54ddc9f4c5effb2b
时光永恒,39.928473,116.199838,杨庄中区21号楼3单元1层底商,,,1,63e83d7dff57ca338b2fb549
一品茗茶,39.929268,116.181578,北京市石景山区金顶南路喜隆多东200米汇利丰花鸟鱼古玩茶城东楼二层18号,6e12bfa6b978975828201a95,13811815587,1,6e12bfa6b978975828201a95
肯德基现磨咖啡馆（丰台路口店）,39.878463,116.287257,西四环南路8号-1号楼首层及二层,c7eca12b2fbd222ee115f9ff,(010)83828300,1,c7eca12b2fbd222ee115f9ff
星巴克(五棵松卓展店),39.919925,116.285006,海淀区复兴路69号3号楼卓展购物中心1层,,(010)88199278,1,c60c648f33e450621329357e
时差空间咖啡,39.910091,116.242959,北京市石景山区石景山路2号台湾百大馆3层,c017d94c54d50568bda240c6,"(010)68667707,(010)52898777",1,c017d94c54d50568bda240c6
星巴克(石景山万达广场店),39.911923,116.232713,石景山区石景山路乙18号院4号楼石景山万达广场购物中心2层,08a0c6c22edd0f00adb22a80,4008206998,1,08a0c6c22edd0f00adb22a80
星巴克(北京鲁谷远洋店),39.909366,116.258693,石景山区玉泉路59号院1号楼远洋沁山水1层A001单元,ee5935a620c30df3f503b83c,(010)88632549,1,ee5935a620c30df3f503b83c
上岛咖啡(台湾街店),39.910129,116.246839,鲁谷路2号,669775d034441c42fd0eb05e,(010)58482908,1,669775d034441c42fd0eb05e
HOLLYS COFFEE(五棵松华熙店),39.91532,116.283726,北京市海淀区西四环中路辅路五棵松华熙商场中区,,(010)68150886,1,a96408b4a5fcb4e32e47335e
星巴克(大成路店),39.895052,116.271593,丰台区大成南里三区13号翠微百货一层,251374c96992b726a11de953,(010)68260728,1,251374c96992b726a11de953
星巴克(五棵松第二店),39.919438,116.284836,海淀区复兴路69号卓展购物中心5楼,,(010)88199321,1,8ec964b435f1f5ce085cb3af
老山咖啡馆(鲁谷店),39.909482,116.2529,北京市石景山区鲁谷路6号,,"(010)68809764,13070188480",1,c2fa5d448042bac8d13ce3db
卿晨咖啡,39.91599,116.285054,北京市海淀区复兴路69号2号院华熙LIVE·hi-up商业街东区G09(五棵松华熙LIVE东区坡道上南侧),,(010)68159786,1,be01b58eb03de2df2202626b
卉沅咖啡(翠微店),39.920966,116.28588,北京市海淀区万寿路街道五棵松北路紫金长安小区17号楼底商卉沅咖啡,34dbf4ec4754b89a0f0e6bc4,,1,34dbf4ec4754b89a0f0e6bc4
Basic Element Coffee(五棵松),39.919606,116.282014,玉渊潭南路西口东北角公园内(卓展购物中心西侧),4cb5fc0ef65e1c86c9c3db32,13717570350,1,4cb5fc0ef65e1c86c9c3db32
新宇咖啡,39.919533,116.270822,北京市海淀区永定路55号武警总医院往北50米,a98d237f2265cfd9f11937f6,(010)68271515,1,a98d237f2265cfd9f11937f6
唯咖啡,39.907055,116.258982,北京市石景山区玉泉路63号远洋时代广场2层215号,504aee6a50d9d206bda2404e,"(010)68657970,13601276460",1,504aee6a50d9d206bda2404e
星巴克咖啡(永定路咖啡店),39.911067,116.271498,海淀区永定路88号,496d519bdf7f192cb6147f16,(010)56057683,1,496d519bdf7f192cb6147f16
蓝轩咖啡,39.928765,116.295266,北京市海淀区阜成路52号,81d6a509be923a596e20b950,(010)88131220,1,81d6a509be923a596e20b950
Niiice Cafe(永定路航天二院店),39.923613,116.268181,金沟河路10号院1号楼,73680133fc02dee5d618b7e6,,1,73680133fc02dee5d618b7e6
康馨酒店大堂吧,39.913293,116.284545,海淀区复兴路28号康馨酒店1楼(近五棵松地铁站),f9fd606254ca06060e0e6b80,,1,f9fd606254ca06060e0e6b80
苗英慧茶馆,39.925,116.286165,万寿路街道金沟河东路东金和嘉园6号楼,b9f250d11f201f22d12dd63f,(010)88267028,1,b9f250d11f201f22d12dd63f
曼特宁咖啡(鲁谷路店),39.908843,116.251787,北京市石景山区鲁谷路74号中国瑞达大厦1层M101,1ac034fd69dfe1534107c1f6,"18612876126,18201293828",1,1ac034fd69dfe1534107c1f6
瑞幸咖啡,39.882041,116.258426,小屯路149号北京城乡超市一层,,,1,be72239e27ccee5b25e0a01b
timesart,39.916593,116.284543,北京市海淀区,,,1,7b5b8b3edde8c3b222f01721
天利酒店-咖啡厅,39.896074,116.276077,大成路7号,1ae098e52a508d5fb320a8a8,(010)68693388,1,1ae098e52a508d5fb320a8a8
成龙咖啡,39.920032,116.283217,五棵松北路卓展购物中心5楼耀莱影院内,,,1,2501f0d40609c8a985420efc
定个时光(万达广场店),39.912069,116.232303,石景山路乙18号万达广场2层,,,1,1ebab5069b9f843196f08c38
星巴克(朗琴国际大厦店),39.894202,116.348316,西城区广安门外大街168号天虹百货商场1层101-1号,9ee6b0dc41a610f2e856faf3,(010)63381606,1,9ee6b0dc41a610f2e856faf3
星巴克(万丰路店),39.88888,116.30422,丰台区万丰路68号和谐广场1层,488274187ee93da0c17da27c,(010)63254312,1,488274187ee93da0c17da27c
星巴克(羊坊店路店),39.905018,116.32846,海淀区羊坊店路18号光耀东方广场一层103单元,261d9a8f181b11948c1a894d,(010)57536322,1,261d9a8f181b11948c1a894d
上岛咖啡(玉渊潭南路店),39.917264,116.33741,北京市海淀区玉渊潭南路3号,a7c56ee024c056aaa3acc4d8,(010)68575598,1,a7c56ee024c056aaa3acc4d8
星巴克(三里河东路店),39.913543,116.350994,西城区复兴门大街15号长安商场F1层,03de675cb05cf7a6932ca391,(010)68056720,1,03de675cb05cf7a6932ca391
星巴克(翠微路店),39.918612,116.309732,海淀区翠微路12号凯德Mall1层101-06-44-K12B号,3fac3aeaa1d89c551b11d517,(010)88633651,1,3fac3aeaa1d89c551b11d517
星巴克（北京复兴门外咖啡店）,39.912428,116.35752,西城区复兴门外大街A2中化大夏1楼,540c728ea74b22bea5da3954,(010)68568009,1,540c728ea74b22bea5da3954
清香林茶楼(万寿路店),39.918423,116.301782,海淀区翠微南里21号楼,eb367503900ea40201ec01bc,(010)68274954,1,eb367503900ea40201ec01bc
上岛咖啡(华源四里店),39.886205,116.324518,北京市丰台区太平桥路15号,025f77251fa931ed29fc48a1,(010)63252172,1,025f77251fa931ed29fc48a1
白云驿站咖啡厅,39.906908,116.35295,北京市西城区白云观街北里6号(近融泽府),035306d9fa51e6002811d1ea,"15011179172,13810709885",1,035306d9fa51e6002811d1ea
唐拉雅秀·溪廊咖啡厅,39.913723,116.34999,北京西城区复兴门外大街19号唐拉雅秀酒店3楼(首都博物馆对面),4ce10ce660a6f0b8441a326d,(010)58576616,1,4ce10ce660a6f0b8441a326d
漫猫咖啡,39.895037,116.343316,北京市西城区广安门外大街182号,,(010)63262032,1,1a0833cfc49b49ca047ce85f
星巴克(翠微广场店),39.914432,116.311732,北京市海淀区复兴路翠微广场购物中心地上一层110号商铺,b724a62b08e43e435f0d0286,(010)68265331,1,b724a62b08e43e435f0d0286
星巴克(复兴路店),39.914355,116.30302,海淀区复兴路51号凯德晶品购物中心1层,15a2783323005ae8aa0dd8b3,(010)68267219,1,15a2783323005ae8aa0dd8b3
星巴克(北京西站第一店),39.901038,116.32819,丰台区莲花池东路118号北京西站通廊7-1号,,(010)51931281,1,67a5cd8376252f8d45e2740f
花间驻咖啡馆,39.900484,116.352149,北京市西城区天宁寺前街甲3号天宁一号创意园区内32号,,17301099112,1,2b838dcff15b50ebc27da2bb
星巴克(建威大厦店),39.914228,116.359599,西城区南礼士路66号建威大厦一层,4eb3b5332517096c4302455e,(010)68018027,1,4eb3b5332517096c4302455e
萤火虫咖啡屋,39.907604,116.359204,北京市西城区西便门外大街10-9号,b388f9fdbd93c058b35c6aca,(010)68019891,1,1020060f101c9bbf1994c6a9
瑞幸咖啡(Lucking coffee),39.887741,116.354926,北京市西城区南滨河路甲27号,,,1,f9518839bd2c9ca02d47331e
金点咖啡酒吧,39.875322,116.30041,西局西街300号邦泰宾馆1层,7849f89b0431fb0872455b73,,1,7849f89b0431fb0872455b73
有时咖啡,39.881291,116.299819,北京市丰台区万丰路316号万开中心一层,16ed3da104a9a4cb018972cb,18310901800,1,16ed3da104a9a4cb018972cb
costa咖啡店,39.883608,116.320903,北京市丰台区太平桥街道西三环南路14号院首科大厦a座一层大厅costa咖啡店,,(010)63337470,1,d2c8b46b507d1dfbaeb22ac5
新兴茶馆,39.904196,116.308384,海淀区翠微路25号,3a2b6cbd48c78c5b6168584b,(010)68218812,1,3a2b6cbd48c78c5b6168584b
元咖啡(新知店),39.929432,116.31149,北京市海淀区阜成路甲28号,,,1,42851353fe36df060d3dda9a
逸派咖啡店,39.894742,116.360763,北京市西城区广安门内大街338号,2dcdbd54a780df94373a7102,(010)83529999,1,2dcdbd54a780df94373a7102
为他茶楼,39.885226,116.357223,西城区广安门南街30号19幢,,(010)63518878,1,669d726510699a8082a12e70
花园咖啡厅(北营房中街),39.93013,116.356165,北京市西城区阜成门外大街甲9号国宾酒店1楼,34059f975098624d71455b5e,(010)58585588-8690,1,34059f975098624d71455b5e
中国科技会堂-咖啡厅,39.914165,116.338967,长安街复兴路3号中国科技会堂1楼,8d390c065f06ea728bdb73d9,(010)68518822,1,8d390c065f06ea728bdb73d9
深圳大厦-大陆咖啡厅,39.895839,116.35401,北京市西城区广安门外大街1号北京深圳大厦1楼(广安门桥),5c2dc21d81ade41d6ec02cb0,(010)63271188-68,1,5c2dc21d81ade41d6ec02cb0
环翠咖啡厅,39.930933,116.360601,北京市西城区北礼士路98号金都假日饭店1楼(近阜成门外大街),844a750e255600a063685884,(010)68338822,1,844a750e255600a063685884
平月茶馆(万寿宾馆店),39.91885,116.298751,万寿路甲12号万寿宾馆A座1层,74c933fb0644f6239e82ead4,(010)68230088,1,74c933fb0644f6239e82ead4
杰西咖啡(白云时代大厦店),39.903934,116.346316,北京市西城区莲花池东路甲5号白云时代大厦1楼(近莲花池东路),b1c556e853d07f15b426554d,(010)63408780,1,b1c556e853d07f15b426554d
那波利咖啡厅,39.91166,116.352199,北京西城区真武庙路1号中国职工之家大饭店2楼,e889a74446a197ac8605bf41,,1,e889a74446a197ac8605bf41
星港咖啡,39.903589,116.329819,北京市海淀区莲花池东路31号中裕世纪大酒店大堂一层(西站北广场对面),b7021bf8701cbee3f5e73b83,13683037551,1,b7021bf8701cbee3f5e73b83
MiMi CAFE(新年华购物中心店),39.882903,116.332343,北京市西城区马连道路25号新年华购物中心F2,d3f9decd88e1a16407fef5da,,1,d3f9decd88e1a16407fef5da
黛玉阁,39.877629,116.360906,北京市西城区南菜园街12号,b388f9fdb7ccc658b35c6a09,(010)63516349,1,b388f9fdb7ccc658b35c6a09
休闲时光,39.915372,116.314583,复兴路甲23号北京城乡购物中心写字楼1层,f5f38bc97c771e6289f15de9,,1,f5f38bc97c771e6289f15de9
咖啡茶吧(北京西站店),39.901448,116.327371,北京市丰台区莲花池东路118号北京西站F2,,,1,3c8ac618bbb3076d86330416
万寿宾馆-阳光咖啡厅,39.918488,116.298794,万寿路甲12号万寿宾馆A座2楼(距万寿路站约565米),28d06cbb5b7252a91e5800ea,(010)68132266,1,28d06cbb5b7252a91e5800ea
金色茶苑,39.899676,116.359076,西城区西便门内大街85号,d6cbafe712a40679912ca36c,16601103579,1,d6cbafe712a40679912ca36c
养云香吧湘水明珠茶艺,39.91947,116.354144,二七剧场路东里新22-12号,1473a725ece75856c17da25e,(010)68056666,1,1473a725ece75856c17da25e
泊咖啡,39.928669,116.350272,阜成门外大街24号京滨饭店一层东侧,,,1,5ef2105f6293f48b22f0174e
首都博物馆-咖啡厅,39.911876,116.348486,北京西城区复兴门外大街16号首都博物馆B1楼,22e11407a86ba6add5b74e76,,1,22e11407a86ba6add5b74e76
NESCAFE,39.90002,116.328281,莲花池东路118号F2层11-N3,,,1,101a1b8d8e5df37e626858d5
炸鸡啤酒(北京西站店),39.886616,116.327154,华源四里甲5号楼1层14号-F01A4,c395277da2340ccece04ef74,13911069225,1,c395277da2340ccece04ef74
瑞幸咖啡,39.931388,116.305086,北京市海淀区裕惠大厦b座负一层瑞幸咖啡,,,1,f9b1f1108c0caa9e31f71d18
阳光咖啡吧,39.905792,116.352104,白云观街北里七号长安白云大酒店一层,,,1,9768873f071efbee3f9a5e15
北京啡道咖啡店,39.88885,116.335226,马连道路10号世纪茶贸中心A座3单元603室(近马连道家乐福),7d6cf0a2d4419c1bc356acf6,"15811333180,(010)63310383",1,7d6cf0a2d4419c1bc356acf6
京门咖啡厅,39.909591,116.327292,北京市海淀区羊坊店东路京门大厦B座,01406f9dd7a0136af82d6148,(010)51862877,1,01406f9dd7a0136af82d6148
莲韵咖啡,39.89209,116.32215,太平桥西里旁电力医院门诊2层,362bfc34d327c163b11e369c,(010)63502878,1,362bfc34d327c163b11e369c
摩漫特咖啡厅,39.903427,116.326086,北京市海淀区羊坊店路21号瑞海大厦2层2021室,a413707c4cbad4083f9a5e79,15311208810,1,a413707c4cbad4083f9a5e79
广安门咖啡,39.889227,116.357828,枣林前街145号,4de0b24d428220eef7b91648,,1,4de0b24d428220eef7b91648
寰岛博雅咖啡厅,39.915859,116.300979,万寿路寰岛博雅1楼,,,1,b006224f48aade389ee32185
泰迪咖啡厅,39.925452,116.315311,北京市海淀区甘家口街道西三环中路11号大中电器泰迪熊咖啡厅,,,1,74f2d4060ea6b40a3b13fdbc
玩啤精酿,39.89164,116.333896,北京市西城区马连道路6号院4号楼1层,5f4398f77082dfae283a9f26,"13811222536,13581895072",1,5f4398f77082dfae283a9f26
北京希尔顿逸林酒店-咖啡厅,39.894485,116.347079,广安门外大街168号,6cb4665c7588e26bc61e5184,"(010)63381800,(010)63381888",1,6cb4665c7588e26bc61e5184
蜜语之间新西兰·岩烧乳酪,39.903635,116.342685,莲花池东路北小马厂6号(华天大厦一层),,"13683008072,18513303646",1,2c5632ce170565dcb8bd6378
天泰宾馆-咖啡厅,39.915354,116.357692,南礼士路头条1,e1bb619acceaaf8fd42ce25a,(010)56739999,1,e1bb619acceaaf8fd42ce25a
北京华顺隆商贸有限公司中化大厦丹纳斯咖啡厅,39.912555,116.357801,北京市西城区复兴门外大街A2号中化大厦1层,9a59c930a0a91c4b30621223,(010)67318353,1,9a59c930a0a91c4b30621223
怡己咖啡,39.920695,116.360181,金融大街乙9号金融街行政公寓一层,,,1,ba13032393c64f71e215f9d5
啡法集会,39.900075,116.315912,海淀区吴家场路1号院甲1号楼101-C1-012(近西三环中路),88c0d5fea1f454544c6d46d2,15810838466,1,88c0d5fea1f454544c6d46d2
红酒咖啡西餐,39.898972,116.331974,北京市丰台区太平桥街道广莲路大方饭店北门,,,1,43e2220321f15a497adbd2db
万寿宾馆A座-大堂吧,39.918424,116.298664,北京市海淀区万寿路甲12号万寿宾馆A座,4697f4b6e9dda2ea78f79616,(010)68132266,1,4697f4b6e9dda2ea78f79616
d051的奇妙咖啡之旅,39.909395,116.359123,文艺路工会巷天银大厦A座对面,cdea98bfad8daeeaeddfca4a,,1,cdea98bfad8daeeaeddfca4a
咖啡厅(北京儿童医院门诊),39.918611,116.36126,南礼士路56北京儿童医院门诊6F层,,,1,24655c6b6158f7128605bf9b
luna咖啡(马连道店),39.883361,116.334104,北京市西城区马连道明日五洲酒店酒店一层内,,,1,2b11fdad3d134ee1fd0eb04e
STAR COFFEE,39.757954,116.495268,北京市大兴区博兴十路,,,1,ce4225f9bd381718eb56fa95
百尚酒店咖啡厅,39.758931,116.55171,百尚生活广场四楼,8fc0bf4fabc7ee722102629c,,1,8fc0bf4fabc7ee722102629c
咖啡一色,39.736696,116.557962,北京市通州区马驹桥镇辛四路联东U谷西区二号院,,,1,e763c433b82f773959bbbc3c
纸积木咖啡馆,39.807112,116.424183,北京市丰台区长征宾馆一层,a5caf0245e97b72f4d5547cb,18810061716,1,a5caf0245e97b72f4d5547cb
咖啡茶座,39.798382,116.403821,北京南苑机场航站楼内,,,1,bcef228b7ae9a585e4e9658f
星巴克(星光影视基地店),39.778676,116.369829,大兴区北兴路2号1幢星光影视园A座,734b284aa7c6bcbeb2077d6f,(010)60224277,1,734b284aa7c6bcbeb2077d6f
星巴克(旧宫万科店),39.811401,116.466664,大兴区旧宫忠凉路1号院号1号楼住总万科广场一层L1001-L1002号单元,d990bd86d4acdb4f1b94c6d2,(010)60845092,1,d990bd86d4acdb4f1b94c6d2
旧宫上岛旧宫咖啡厅,39.815299,116.461582,北京市大兴区旧宫镇科技路12号,cb4fd146d0883c419c9d68e0,(010)87960933,1,cb4fd146d0883c419c9d68e0
COSTACOFFEE(航天万源广场店),39.809197,116.429985,北京市丰台区东高地万源西里航天万源广场一层07-F1-030铺位,,(010)88030165,1,f0df4008dc89bfb307026f10
述咖啡(旧宫店),39.811699,116.460378,旧宫镇富力盛悦居22号楼106号,,,1,2c03c899b7a58272fe0eb06f
欧度空间,39.799031,116.458857,隆庆路4号院1号楼2层201,,(010)67991052,1,27019b44b58a7ef0c27da248
柒cafe,39.812175,116.488655,北京市大兴区文化园西路企业文化园西园(临近亦庄桥地铁站),,,1,a8af5a4bcd5c61ccf60e779f
漫咖啡(亦庄店),39.810066,116.500713,大兴区文化园西路林肯公园25号楼111号,1f14cc0507b1f22ddc1e521b,,1,1f14cc0507b1f22ddc1e521b
星巴克(荣华南路店),39.788389,116.52387,大兴区经济技术开发区荣华南路15号院1号楼101-011室,ce4e5106ed9fa56846e27478,(010)67854452,1,ce4e5106ed9fa56846e27478
星巴克(文化园东路店),39.817438,116.509914,大兴区经济技术开发区文化园东路6号亦庄创意生活广场F1层,d991e116314d884c1e3894e3,(010)67859135,1,d991e116314d884c1e3894e3
澳利咖啡(中央公馆店),39.802725,116.499129,北京市经济技术开发区天华园一里四区10号楼1至2层2107,df797d02e254dd30276e98cd,(010)67896091,1,df797d02e254dd30276e98cd
COSTA COFFEE(北京华联购物中心店),39.810796,116.507994,北京市大兴区荣华中路8号北京华联F1,dac7a0994c4bd2f4b6147f2b,,1,dac7a0994c4bd2f4b6147f2b
咖啡陪你(亦庄力宝店),39.810175,116.508152,荣华中路8号院力宝广场8号楼一层109号,cf9434a3cdd109340b1cc7ea,"(010)57862131,13051663650",1,cf9434a3cdd109340b1cc7ea
紫陌啡语(亦庄店),39.812144,116.499693,经济技术开发区文化园西路8号院45号楼1层102,741d83721d20c04926d2bba2,"(010)67899107,13264055823",1,741d83721d20c04926d2bba2
星巴克(朝林广场店),39.799168,116.512393,大兴区荣华中路19号朝林广场A座一层,8de9c59d41806226d3ff2392,(010)67857761,1,8de9c59d41806226d3ff2392
McCafe(马驹桥店),39.766641,116.551783,北京市通州区马驹桥米拉小镇新海路1号麦当劳内,9c089cf75aecca25441a32a9,(010)56877587,1,9c089cf75aecca25441a32a9
星巴克(文化园西路店),39.811811,116.500901,大兴区经济技术开发区文化园西路6号17号楼一层101-1单元,a5ecebcd8864cc2a72210b21,(010)67864302,1,a5ecebcd8864cc2a72210b21
味纯私房菜(中冀斯巴鲁店),39.790925,116.524301,北京市大兴区荣华南路16号中冀斯巴鲁C座2楼,,"(010)59767288,13301367999",1,a4dec0d5862626db36b06cd6
e咖众创空间,39.805079,116.543811,亦庄经济技术开发区科创七街29号(OBE互联网创新园院内),a10ea1a9ea6617461d580066,"(010)67856388,18201412936",1,a10ea1a9ea6617461d580066
隆盛咖啡(荣昌东街),39.790094,116.531946,经济技术开发区荣昌东街7号,1aae145620d255e43686f40d,,1,1aae145620d255e43686f40d
探梦空间,39.802927,116.49251,境界家园29号楼3101,,,1,299207e3e964535607fef53b
莱恩棒球酒吧,39.791759,116.505117,地盛西路BDA国际广场E座品味大厦8层,,,1,fae5fc32b23b7e578936ee26
亦咖,39.787333,116.52812,北京市大兴区景园北街2号52-1,773897c78f1a1dc68bf15d57,,1,773897c78f1a1dc68bf15d57
觅蜂coffee,39.808796,116.509488,北京市大兴区经济技术开发区荣华中路10号1幢A座亦城国际中心A座一层,,(010)67872322,1,3856b0222bb8e3a509b93a3d
星巴克(同济南路店),39.791142,116.536816,大兴区亦庄经济技术开发区同济南路1号院,,(010)57388157,1,68bc17797b55d957f6c59cf1
星巴克(大族溢彩城店),39.799322,116.51933,大兴区荣华南路2号院大族广场1层F1-37号,,(010)67837840,1,437daae21a4fd4da7369d3d0
蘑蘑其朵美式爆米花(亦庄创意生活广场),39.817093,116.509522,文化园东路6号亦庄创意生活广场F1层,,,1,8b0c43604343f43814c8f6d4
星巴克(大族溢彩城2店),39.798414,116.518089,大兴区荣华南路2号院大族广场T2三层,,(010)67850831,1,4994e4a1c1597f0aaecb661b
青春咖啡,39.785853,116.507524,经济技术开发区地盛南街1号青春产业园1层,b1636c35ba3f8440c13644a0,,1,b1636c35ba3f8440c13644a0
WI  COFFEE仙度氏咖啡体验店,39.810795,116.5087,北京经济技术开发区力宝华联商场南门诗礼庭6号楼202(平安典当行楼上),9b335812351028f91676436c,,1,9b335812351028f91676436c
格兰云天国际酒店汇宾阁,39.78624,116.524479,大兴区荣华南路15号(中航技广场10号楼格兰云天国际酒店一层),,(010)67897888,1,e4abf6d087dc29db120daa98
代文瑞咖啡,39.772766,116.539833,北京市大兴区经济技术开发区西环南路18号汇龙森c座109,,,1,58b21f54df6e28db9e95de3a
亦庄创投汇IC咖啡,39.790305,116.531043,经济技术开发区荣昌东街隆盛大厦C座2层,f2bf634fb5e6250604026f96,,1,f2bf634fb5e6250604026f96
橙子水晶酒店咖啡厅,39.817176,116.554054,北京市通州区科创五街东创大厦橙子水晶酒店内,,,1,147a694bd5cd44948bf15d90
STARBUCYS COFEE,39.812477,116.502129,林肯公园B区,,,1,9cf34d8e3508c4b338e4a61c
Coffeehouse咖啡厅,39.80827,116.512213,大兴区红大北路7号,,,1,af49824752db0b6d4f3a591e
咖啡之翼(亦庄店),39.785363,116.564299,北京市通州区北京经济技术开发区经海三路经开壹中心底商109,5bbdd102264259e04e2fdf39,17701340521,1,5bbdd102264259e04e2fdf39
锋创咖啡厅,39.788413,116.575337,经海路锋创科技园5号楼一层,1bd03f035ae1e0ac3a13fd44,(010)56228766,1,1bd03f035ae1e0ac3a13fd44
costa(京东大厦店),39.792581,116.56918,北京市通州区亦庄经海路与科创十一街路口B3一楼,6a88149be1478a5e6f3e1bfb,,1,6a88149be1478a5e6f3e1bfb
京东商城集团总部-咖啡厅,39.792345,116.5698,北京市通州区京东大厦B座1楼,,,1,3f3c56a904ac09b60e3dda12
星巴克咖啡,39.765043,116.590147,北京市通州区,,,1,497f5698348cb5f1f7eafcae
星巴克(大红门西路店),39.850991,116.391604,丰台区大红门西路26号11号商业楼首层L1-01单元,550fd5f907f8eb60931fc9c6,(010)56530792,1,550fd5f907f8eb60931fc9c6
上岛咖啡(公益西桥店),39.840218,116.378013,北京市丰台区名流未来大厦F2,2527be1ed9ef27aa4bfc8df8,(010)87570202,1,2527be1ed9ef27aa4bfc8df8
星巴克(北京南站三店),39.871575,116.385282,丰台区永外大街12号北京南站换乘层中区商业,9ab8722e9f7e90e8fa0cada8,(010)83100361,1,9ab8722e9f7e90e8fa0cada8
星巴克(槐房西路店),39.820632,116.373574,丰台区南苑西路39号槐房万达广场一层1083号,5c7d616223a8922e95f08cbd,(010)67987897,1,5c7d616223a8922e95f08cbd
星巴克(百荣世贸商城店),39.866201,116.403078,东城区永定门外大街101号百荣天海国际商贸城一层,,(010)67260681,1,060b51835dc916740bccddb3
肯德基现磨咖啡馆（洋桥银泰店）,39.850731,116.392239,北京市丰台区大红门西路19号,bdce2907abf3ca97fa42b27f,(010)56530673,1,bdce2907abf3ca97fa42b27f
上岛咖啡(景泰路店),39.870078,116.419981,北京市东城区景泰路安乐林路10号,9ff5a7dd1dd99242fb22134a,(010)67243653,1,9ff5a7dd1dd99242fb22134a
上岛咖啡(右安门店),39.87306,116.371309,右安门外大街右外大厦4层,bd5c33fe37de93d743ab9af9,(010)57743492,1,bd5c33fe37de93d743ab9af9
花舍咖餐(光彩路店),39.856388,116.421566,丰台区光彩路贾家花园3号院20号楼(光彩体育馆附近),e308284844db98a6b24c49ee,"(010)87822264,(010)87822254",1,e308284844db98a6b24c49ee
星巴克(北京南站第二咖啡店),39.870684,116.385914,永外车站路12号北京南站B1层,42427c9006586c3df82d6167,(010)83108397,1,42427c9006586c3df82d6167
STARBUCKS北京南站第一咖啡店,39.870348,116.386606,丰台区永定门外大街北京南站2层,ed12f7fd09060fbbd8ecedc0,(010)83108677,1,ed12f7fd09060fbbd8ecedc0
costa咖啡店,39.840177,116.376297,北京市丰台区南四环中路城南嘉园14号北京华联F1,2e8cf7374834ea18d4851f36,(010)58310885,1,2e8cf7374834ea18d4851f36
太平洋咖啡(北京南站店),39.872086,116.385476,北京市丰台区永外大街12号北京南站F2,07da85d3c608c660843304a2,,1,07da85d3c608c660843304a2
旺果咖啡,39.874836,116.380207,北京丰台区开阳路1号瀚海花园大厦1楼(开阳桥南),b292b3aa89014e4fbe48425f,(010)83973808,1,b292b3aa89014e4fbe48425f
COSTA COFFEE(万达广场店),39.819932,116.374557,北京市丰台区南苑西路39号万达广场F1,6db4ba47e8d51614276e98a1,(010)67987693,1,6db4ba47e8d51614276e98a1
星巴克(北京南站第五店),39.872003,116.385684,北京市丰台区永外大街12号北京南站北进口内测东部通道区域地上一层,60c14167cb48e3f833169b58,(010)83106951,1,871fa012172dcc835cbe86f6
星巴克(北京南站第六店),39.870582,116.386947,丰台区永外车站路12号北京南站B1层,,(010)83106096,1,fb7cfaea8347c582ca1b9546
回音廊咖啡厅,39.86786,116.42091,丰台区定安东里1号中成天坛假日酒店1楼(近赵公口桥),31f9101b51859aa026e0a01e,,1,31f9101b51859aa026e0a01e
千客楼咖啡茶餐厅,39.844936,116.421983,北京市丰台区光彩路66号彩虹城一区底商,34e48508889adafbd8d8917d,(010)87866867,1,34e48508889adafbd8d8917d
咖啡茶馆,39.845516,116.391278,马家堡东路121号七克拉美食广场院内7号楼1620室,19cd6c6e862f5c6eca1b95db,"13366406836,17319257585",1,19cd6c6e862f5c6eca1b95db
上岛咖啡(北京南站店),39.871999,116.38561,北京市丰台区永外大街12号北京南站F2,93df0dc37f232a32892fb5ee,(010)83106669,1,93df0dc37f232a32892fb5ee
CAFFEBENE(北京南站店),39.871585,116.386051,永定门外大街北京南站2层,6a125314b5184c73cf06a4e3,,1,6a125314b5184c73cf06a4e3
luckincoffee(搜宝商务中心店),39.86065,116.374552,丰台区南三环西路16号2号楼B1层103号西区16号,,4000100100,1,d1c50ec190009ae517c8f6c6
墙上的咖啡,39.873359,116.366145,右安门外玉林里1号1幢1层105,,13910297773,1,bf76547cfea5267572455b00
zocoffee,39.874362,116.372478,北京市丰台区右安门外大街2-5,,,1,9c945ec12c6b75520482c2cf
河南商务酒店-咖啡厅,39.869669,116.398857,西罗园一区甲2号,3da3f5678bdb53ee72210b15,(010)87869688,1,3da3f5678bdb53ee72210b15
36杯免费咖啡厅,39.862197,116.403228,北京市丰台区南苑路3号附近,,,1,ed5508a529ef14dd3517dc66
星巴克(紫芳园店),39.868037,116.446068,北京市丰台区方庄路7号商铺方庄紫芳园四区3号楼一层7号,,"(010)87211072,(010)87211193",1,da38355cd84d14158b2fb535
星巴克(方庄通润商务会馆店),39.872292,116.432365,丰台区方庄路璞瑅公寓紫芳园四区3号楼底商7号商铺,9bd0e4d5f5ec436e81288abb,(010)87211072,1,9bd0e4d5f5ec436e81288abb
星巴克(石榴中心店),39.847954,116.428699,丰台区榴乡路88号24号楼1层102室,,(010)56762241,1,b3fac3726d226a2f4251c075
星巴克(成寿寺路店),39.862747,116.453461,丰台区南三环东路成寿寺路2号北京分钟寺阳光新生活广场一层A129号,5554aaac9ee976c088fc06e6,(010)67606685,1,5554aaac9ee976c088fc06e6
群咖啡(方庄店),39.867984,116.447109,北京市丰台区紫芳园四区3号楼119号,bc997ddd4b895a1077026941,(010)87617155,1,bc997ddd4b895a1077026941
COSTA COFFEE(方庄时代live店),39.871634,116.441821,方庄环岛东侧方庄时代商场一层(哈根达斯旁边),,(010)67607440,1,55c15c87dd3123f37bf7964c
猫小咖猫主题咖啡厅,39.866132,116.469307,十八里店十里河商业街1610号,,,1,6fcc455a93ab48a5774ff1b1
Cloudiya Coffee,39.851358,116.434111,北京市丰台区宋家庄路69号西南70米,,"(010)87653003,15901118090",1,1359368e945f0051734b872f
luckincoffee(石榴中心店),39.847614,116.429665,丰台区榴乡路石榴中心10号楼1层101-4号,,4000100100,1,972b943c2d861340e6e965f4
Puntocafe,39.871243,116.468294,东三环南路98号1幢1层105室,bca86002eb86d7b10bccdd98,,1,bca86002eb86d7b10bccdd98
北京天天家酒店-咖啡厅,39.863741,116.478592,周家庄134号北京天天家酒店1层,6dc7328c245d442f2102208d,(010)67488899,1,6dc7328c245d442f2102208d
创客空间,39.871102,116.468903,十八里店东三环南路98号高和蓝峰大厦22层,a109acaebe0585f5223bf292,,1,a109acaebe0585f5223bf292
瑞幸咖啡,39.847196,116.42962,北京市丰台区石榴庄路1号,,,1,64b17c73e3849baab23c815d
星巴克咖啡(北京久敬庄路咖啡店),39.825328,116.429574,大兴区旧宫镇久敬庄路临1号,,(010)67066836,1,4d3ff1955c204cb2931fc91f
西江月茶室,39.869915,116.445967,北京市丰台区方庄路紫芳园三区1号楼01室(近紫芳路),e6ee2fd2e59cef512a11d181,,1,148f5c82602ea886b6147f99
皮咖啡,39.861171,116.443121,北京市丰台区南方庄乙56号,,"18515811158,13691022303",1,5a74f9cbffade209b45f1e3d
COWO酷沃竞选创业咖啡,39.863668,116.435975,北京市丰台区蒲黄路48号,,,1,787e16a0ff300e85c27da2d6
Cloundiya Coffee,39.851351,116.434129,北京市丰台区宋庄路71号院8号西北70米,,"(010)87653003,15901118090",1,3899b010c4aec081f50e77d2
时光北因我岸咖啡屋,39.842173,116.472939,南四环东路十八里店南桥西北角元汉堂大厦东楼九层,,,1,5ad01c2e50507f66d3ff23f4
微觅vimi啤酒便利店,39.873146,116.436746,北京市丰台区方庄环岛红剑综合停车楼16-9号,,(010)87677866,1,a68132e3dc75750242e19286
迪欧,39.860596,116.490343,北京市朝阳区周庄路308号北100米,,,1,13a47d69852485738605bf9a
咖啡庄园咖啡设备4s店,39.847801,116.479855,十八里店南桥居然酒店用品城1-003,,,1,0ffd508a6a0888fe2b11d147
咖啡零点吧,39.851453,116.433976,宋庄路71号院1号楼扑满山1号楼1层,,,1,87353b98c6091898ce04ef7c
仟枫咖啡酒店用品一站式采购(朝阳王四店),39.874643,116.543283,王四营桥东新东郊批发市场东区一层B017-018B025-026,d14d556b6e5d320a167643cf,18911212981,1,d14d556b6e5d320a167643cf
亿品皇咖啡(新东郊商城店),39.874164,116.541487,北京市朝阳区京哈高速新东郊商城1层,,"(010)56250711,15811438011",1,7c0c32429cc46fe42dfaa7e3
威士特咖啡(新东郊商城店),39.874829,116.543437,京哈高速新东郊商城1层,,,1,c8f9975fe8bda70e250bd029
大尊咖啡,39.874426,116.543034,北京市朝阳区王四营新东郊商城东一门咖啡一条街B13-15,,,1,0619785646392e3ac6f025f9
贵族味道,39.852199,116.581628,大鲁店北路9号,932a49db5ed69a21cd04efe6,18514813862,1,932a49db5ed69a21cd04efe6
野不羁,39.862452,116.565977,北京市朝阳区黄厂路1号院易心堂文创园13B栋一层捌零玖零音乐产业园对面,,17777826426,1,9beea7c887b62f8ee0110330
BERRY BEANS咖啡,39.900791,116.398718,朱家胡同7号,0a9248bca81d613d744ff18b,(010)83197503,1,0a9248bca81d613d744ff18b
星巴克(北京坊店),39.904332,116.403278,西城区煤市街廊房头条13号院3号楼1-3层,,(010)63156703,1,b0229e1d47e43ea72806ceaf
漫咖啡(崇文门店),39.903138,116.419,祈年大街18号院1号楼兴隆国际大厦1层,29c2c396c2c5d45794ec840c,(010)67019086,1,01eade73516ac5c09e82eae5
莲coffee,39.929872,116.369533,北京市西城区阜成门内大街185号白塔之光3层,f2879383db79650b79b55c03,(010)66551588,1,f2879383db79650b79b55c03
咪咕咖啡(北京西单店),39.91582,116.37741,北京市西城区华远街11号置地星座E座,29ddf504ef1b5b42d618b7f5,(010)52692909,1,29ddf504ef1b5b42d618b7f5
1901咖啡(西四店),39.928917,116.384742,北京市西城区西安门内大街101,31f9101b60d1e9a026e0a032,(010)66160335,1,31f9101b60d1e9a026e0a032
星巴克(金树街店),39.923146,116.368206,西城区金城坊街金融街公寓F座9-11号,7a2554c8df05f29fafee7ad9,(010)66220225,1,7a2554c8df05f29fafee7ad9
星巴克(北京东方广场三店),39.915373,116.419334,东城区东长安街1号北京东方广场东方新天地商场平台层P-W18-10号,,(010)85187651,1,0e4fc64e1d5cb992d2f49e64
熊煮咖啡BEARBREW,39.931086,116.370323,北京市西城区白塔寺东夹道26号,0171c3e67c776a6f364aaed6,17612282405,1,0171c3e67c776a6f364aaed6
METAL HANDS(前门店),39.904989,116.407823,东城区西打磨厂街228号,,,1,ca6bff9ff94fce79bda240eb
星巴克(万博苑店),39.877876,116.371102,西城区右安门内大街72号万博苑7号楼王府井购物中心1层,f57aa0c53e2686874d776e44,(010)83570692,1,f57aa0c53e2686874d776e44
漫咖啡(银泰店),39.923019,116.418349,北京市东城区王府井大街88号,d2aa09d7f4b8ac381329356c,(010)59785848,1,d2aa09d7f4b8ac381329356c
星巴克(前门大街店),39.904636,116.404167,东城区前门大街1-1号,d5464cf8d62a7c4efda77854,(010)63027966,1,d5464cf8d62a7c4efda77854
星巴克(英蓝国际店),39.926326,116.364273,西城区金融大街7号英蓝国际金融中心首层F111-F112单元,7c5e480b169061adacb22ab8,(010)66555918,1,7c5e480b169061adacb22ab8
北京金融街丽思卡尔顿酒店大堂吧,39.92116,116.370201,金城坊东街1号丽思卡尔顿酒店1层,922b3d29d1c75a773a04b18b,,1,922b3d29d1c75a773a04b18b
星巴克(北京王府井店),39.920371,116.416027,东城区王府井大街253号王府井百货大楼首层,24d05508601155b61288245c,(010)65129138,1,24d05508601155b61288245c
星巴克(西单大悦城二店),39.917419,116.378834,西城区西单北大街131号大悦城(西单店)F1层101-XZL号,7d5f3a0a6dc863522cb90847,(010)58312897,1,7d5f3a0a6dc863522cb90847
星巴克(永定门店),39.876754,116.396185,东城区永定门西滨河路8号院7楼中海地产广场101东塔02单元,92467dd40384c0ac843304fe,(010)57837720,1,92467dd40384c0ac843304fe
星巴克(大栅栏店),39.903924,116.400664,西城区大栅栏街道弓字胡同10号,b078dad61170502828201aab,(010)63132022,1,b078dad61170502828201aab
星巴克(北京庄胜崇光店),39.90179,116.382006,西城区宣武门外大街8号北京庄胜崇光百货新馆B1层,3c0ea7c5510b5685fbf0cbcd,(010)63104865,1,3c0ea7c5510b5685fbf0cbcd
星巴克(西单北大街第二店),39.916096,116.379766,西城区西单北大街133号西单君太百货二层,a475b7931fbb8651f4e73bc5,(010)66014090,1,a475b7931fbb8651f4e73bc5
星巴克(金宝大厦店),39.92229,116.426245,东城区金宝街89号金宝大厦写字楼一层04号,edd64ce1378568883fe23155,(010)85221661,1,edd64ce1378568883fe23155
星巴克(新东安店),39.921023,116.418487,北京市东城区王府井大街138号北京apmB1,8f1bceaa3551bf1b2fb96dd9,(010)65255710,1,8f1bceaa3551bf1b2fb96dd9
星巴克(北京金街咖啡店),39.915983,116.41682,东城区王府井大街301号新燕莎金街购物中心一层MF105-1-MF105-2商铺,478bdcd1b2e182c544e27427,(010)65699190,1,478bdcd1b2e182c544e27427
星巴克(天坛东路店),39.892659,116.426868,东城区天坛东路46号红桥市场1层001单元,3a1bae3d74327a3443ab9a93,(010)67113708,1,3a1bae3d74327a3443ab9a93
太平洋咖啡(前门店),39.901168,116.404778,北京市前门大街64号2层,52160ad36ea4a3aa8c1a8962,(010)65115341,1,52160ad36ea4a3aa8c1a8962
福叁咖啡馆,39.902348,116.398386,北京市西城区杨梅竹斜街71号,,,1,34b66097bef6655d30169b39
星巴克(西单北大街店),39.919882,116.380786,西城区西单北大街110号巴黎老佛爷百货F2层,0db0d230133a8a0b364aae76,(010)63211220,1,0db0d230133a8a0b364aae76
咔咖,39.909184,116.382333,北京市西城区油坊胡同28号,0aabbe5603df5bcac4f02514,(010)59739258,1,0aabbe5603df5bcac4f02514
星巴克(北京王府井二店),39.918522,116.416283,东城区王府井大街269号1号楼B1层-102号商铺,,(010)65255196,1,0bf445193ffcd34f8605bf11
星巴克(北京百盛店),39.914575,116.365455,西城区复内大街101号百盛购物中心复兴门店北楼F1层,b533ea4af3948a584f6d465e,(010)66037275,1,b533ea4af3948a584f6d465e
COSTA COFFEE(东方新天地店),39.91533,116.422694,东长安街一号东方广场东方新天地1F层A501,2621fe33111aa495a1a93487,(010)85189650,1,2621fe33111aa495a1a93487
阿亿咖啡(宣武门西大街店),39.905921,116.372228,北京市西城区宣武门西大街乙103-2号,9fbfeef24838775cece4a5e8,(010)66018799,1,9fbfeef24838775cece4a5e8
inCOFFEE咖啡体验店,39.890792,116.38388,菜市口大街6号院4-10号,684a1daf29e1367d43ab9ad5,(010)83985382,1,4268e115bdb3cd4610293501
袈蓝公社咖啡厅,39.896167,116.390857,北京市西城区南新华街177号-31层,,,1,be71ac0f8a251b17028972b5
星巴克(北京新世界店),39.904558,116.424536,东城区崇文门外大街3号新世界百货崇文店综合馆F1层,38c324496588b6964d776ee6,(010)67087068,1,38c324496588b6964d776ee6
肯德基(珠市口餐厅),39.897589,116.406285,东城区珠市口大都市街南八幢一层西侧,,(010)67071280,1,27c58048571e4dd8631c6780
COSTA COFFEE(金隅店),39.906012,116.366541,北京市西城区宣武门西大街129号金隅大厦101-103室,e36fc65865302610213bf230,(010)66417934,1,e36fc65865302610213bf230
1920cafe(虎坊桥店),39.8962,116.390816,南新华街177号4号楼105室,7a3575579d0f65b12b201aae,(010)83171920,1,7a3575579d0f65b12b201aae
蜜咖啡(广义街店),39.896287,116.362942,广安门内广义街乐凯大厦一层七号线广内站A口信息大厦鸿毛饺子北侧20米,3b3d2ad5e5d2be93c2f1cf20,,1,3b3d2ad5e5d2be93c2f1cf20
有术cafe,39.931042,116.366597,北京市西城区宫门口二条14号(北京鲁迅博物馆),,(010)66495755,1,260d69b3af6090a1a7c75664
星巴克(富卓大厦店),39.900265,116.381567,西城区宣武门外大街28号富卓大厦一层,2ef2651889da1d870b1cc7a8,(010)63185381,1,2ef2651889da1d870b1cc7a8
八角楼咖啡,39.930072,116.408589,景山前街10号,764672e5efb517b494ec845a,,1,764672e5efb517b494ec845a
NAMOC COFFEE,39.931384,116.415615,五四大街1号,13149e265ddd36bd4e6d46b4,(010)64014987,1,13149e265ddd36bd4e6d46b4
星巴克(复兴门内店),39.911845,116.37046,西城区复兴门内大街28号,c98982ba554459f76f3e1b76,(010)66055752,1,c98982ba554459f76f3e1b76
COSTA COFFEE(西单华威店),39.917676,116.380852,"北京市西城区西单北大街130号西单华威商城1楼(近西单华威商城,汉光百货,西单大悦城)",ae51e5c88f96f893e9f85390,(010)66010866,1,ae51e5c88f96f893e9f85390
CAFFEBENE(东四店),39.92978,116.423755,北京市东城区东四南大街甲11号,2f171fb961683dfbb6f42f19,(010)85110620,1,2f171fb961683dfbb6f42f19
致璞手工甜品咖啡店,39.930128,116.377013,阜成门内大街89号二层,ade5250ecdc60954d518b79b,(010)66156672,1,ade5250ecdc60954d518b79b
悦咖啡(天安门店),39.904468,116.405,东城区前门大街2号,b03033a2361017fe70210b76,(010)63329880,1,b03033a2361017fe70210b76
梅园书屋1923咖啡,39.930447,116.41164,五四大街28号,5e74d938a3fe2dbe764ff188,"13269173533,13121828786",1,5e74d938a3fe2dbe764ff188
嘉年华餐厅,39.884608,116.383837,陶然亭路12号京都瑞成大厦1层,b6a98f4eae482d0a364aae81,(010)83526676,1,b6a98f4eae482d0a364aae81
老房子1918咖啡厅,39.894874,116.396118,万明路11号东方饭店附楼1楼(近天桥茶馆),083a55fabe429060256e98b3,,1,083a55fabe429060256e98b3
和茶茶馆(陶然亭店),39.884864,116.392244,西城区陶然亭路2号一瓶小区9号楼底商109号(近陶然亭公园、一瓶小区、朱雀门、建设银行、克丽缇娜),2d41faeff21d8d8dd7b74e5f,(010)83953536,1,2d41faeff21d8d8dd7b74e5f
美思咖啡(牛街礼拜寺店),39.890622,116.370417,牛街20号楼1楼101,,(010)63587370,1,1e4525c719c03d7b57bfffbb
星巴克(太平桥大街咖啡店),39.92297,116.371727,西城区太平桥大街18号丰融国际2层203室,f41ac403777ab79214948eab,(010)66533400,1,f41ac403777ab79214948eab
诗意栖居咖啡馆(南池子店),39.920755,116.40926,北京市东城区南池子大街15号(故宫旁),bff8fa7de48300b9c8213d4d,13810792894,1,bff8fa7de48300b9c8213d4d
COSTA COFFEE(国瑞购物中心店),39.903644,116.42588,北京市东城区崇文门外大街18号国瑞购物中心F1,f4ef22f9e4bd112d79b55c6f,(010)67138002,1,f4ef22f9e4bd112d79b55c6f
星巴克(西单汉光百货商场店),39.915352,116.382378,西城区西单北大街汉光百货一层,7388dffd72b70df2d3ff230d,(010)66017188,1,7388dffd72b70df2d3ff230d
星巴克(西城远洋大厦店),39.911678,116.366554,西城区复兴门内大街158号远洋大厦首层G03A号,d4034eb3656edeefc036445e,(010)66416538,1,d4034eb3656edeefc036445e
COSTA COFFEE(北京长安兴融店),39.910764,116.367875,西城区闹市口大街1号长安兴融中心4号楼,4b881bba81312e8e7dc8768e,(010)58529279,1,4b881bba81312e8e7dc8768e
图吉纳咖啡,39.931263,116.425084,东四头条7号,ccfb9e85c62585f0e5e96550,(010)64037933,1,ccfb9e85c62585f0e5e96550
Elegance Coffee,39.89163,116.404538,北京西城区天桥南大街1号天桥艺术大厦A座1楼(中国版权保护中心办事大厅旁),e59d92f4b9cddb7dfa0cadaf,,1,e59d92f4b9cddb7dfa0cadaf
星巴克(北京新世界商场二店),39.902931,116.424037,崇文门外大街5号北京新世界商场青春馆B1层010009B号,60c4b50b8600aaa26fc02ca2,(010)67088033,1,60c4b50b8600aaa26fc02ca2
胜西奥咖啡,39.931194,116.386348,北京市西城区西什库大街31号6号楼106,5b436ee78c9daf71e3110395,(010)66115930,1,5b436ee78c9daf71e3110395
卡尔法咖啡(崇文门店),39.900818,116.424929,东城区崇文门外大街11号新成文化大厦A座102室(近地铁5号线磁器口站),1bf85b25b4223dbda1a93454,(010)67080330,1,1bf85b25b4223dbda1a93454
COSTA COFFEE(金树街店),39.922771,116.370731,北京市西城区金城坊街1号,96583922a90d1c01bd4842d2,(010)66290663,1,96583922a90d1c01bd4842d2
星巴克(崇文门外第一店),39.904133,116.426336,东城区是崇文门外大街18号国瑞城地下二层,341c35defb4d83a7e6073854,(010)67117065,1,341c35defb4d83a7e6073854
Esquires Coffee(富凯大厦店),39.920599,116.365986,金融大街19号富凯大厦1层大厅(月坛南桥),bcf3f246f0b996edd1f49eff,(010)66573878,1,bcf3f246f0b996edd1f49eff
PLAY书吧COFFEE,39.906846,116.380303,西城区宣武门内大街抄手胡同64号(繁星戏剧村内),580b538b2649de34d92f284a,010-66060698,1,580b538b2649de34d92f284a
王府井咖啡厅(华侨大厦店),39.929742,116.417789,北京市东城区王府井大街2号华侨大厦1楼,fbd169f981b270e79703195b,(010)65136666,1,fbd169f981b270e79703195b
COSTA COFFEE(凯晨世贸店),39.912044,116.371176,西城区复兴门内大街28号凯晨世贸中心中座一层C002(近民族饭店),593850fba1127244df1e52ce,(010)66019633,1,593850fba1127244df1e52ce
太平洋咖啡(金融街购物中心店),39.921778,116.367354,北京市西城区北京市西城区金城坊街2号金融街购物中心B1,befdb29209fb06f8861541aa,(010)66220271,1,befdb29209fb06f8861541aa
CAFFEBENE(天桥店),39.892073,116.404506,西城区天桥南大街1号天桥艺术大厦A座天桥南大街1号天桥艺术大厦B座1楼(中国版权保护中心办事大厅旁)楼(中国版权保护中心办事大厅旁),120924143795bde83a04b12e,"(010)83165005,(010)68003887-7336",1,120924143795bde83a04b12e
星巴克(崇文门外第二店),39.902921,116.425671,东城区崇文门外大街40号搜秀城一层,f0a25ca655481ef48f55ec67,(010)87108917,1,f0a25ca655481ef48f55ec67
costa咖啡厅,39.921871,116.371221,北京市西城区金融街街道丰汇园11号楼丰汇时代大厦一层西大堂costa咖啡厅,a60a030fee25dd1126e0a004,(010)58362636,1,a60a030fee25dd1126e0a004
太平洋咖啡(卓著中心店),39.923946,116.368441,北京市西城区武定侯街6号,f7d7a147c68aa858b5f42f25,(010)66290078,1,f7d7a147c68aa858b5f42f25
天顺庄茶馆,39.884828,116.393,陶然亭路2号一瓶写字楼四层,d222a25de3f43cc445e274c9,(010)83953153,1,8d1aad0ca5e8ec489d82eabc
北京饭店-莱佛士-作家酒吧,39.915085,116.415627,东长安街33号北京饭店莱佛士饭店1楼,bd4df479ac083ee72efaa7ab,,1,bd4df479ac083ee72efaa7ab
小样咖啡,39.884004,116.378758,经济日报社集团10号楼东方财富证券一楼,,"13146606001,15900000966",1,5766d51f6454361a4c6d466d
尚座精酿,39.90613,116.374782,北京市西城区佟麟阁路95号尚座大厦地下一层,9e4242de605fcffce6073889,13901393555,1,9e4242de605fcffce6073889
Soloist coffee co,39.922357,116.369832,北京市西城区金城坊街3号2层,cb99f60205e876983be4a674,(010)66061622,1,cb99f60205e876983be4a674
艾利根咖啡,39.891505,116.404558,天桥南大街1号天桥艺术大厦A座1楼(中国版权保护中心办事大厅旁),ae16bda1d204c21e0482c20d,(010)83165005,1,ae16bda1d204c21e0482c20d
国家大剧院-咖啡厅,39.911245,116.3962,国家大剧院1层公共空间东西两侧,a5097bfaca96a77af03cba52,(010)66550502,1,a5097bfaca96a77af03cba52
星巴克(灯市口天客隆店),39.925246,116.420731,东城区灯市口大街33号天客隆一层,,(010)65687017,1,98990ef3e92034182bd7ab71
Ikecafe,39.914358,116.377945,西城区华远街8号,62681e26e0469aeba8f72937,,1,62681e26e0469aeba8f72937
COSTA COFFEE(太平洋保险大厦店),39.923877,116.372522,太平桥大街28号太平洋保险大厦B座首层,d36fc8bea3492b4e734b87fb,(010)66016885,1,d36fc8bea3492b4e734b87fb
太平洋咖啡(国瑞购物中心店),39.905,116.425782,北京市东城区崇文门外大街18号国瑞购物中心F1,9866173d1aa6503c970319e5,(010)67113153,1,9866173d1aa6503c970319e5
民族饭店-磨坊咖啡厅(复兴门店),39.913865,116.373522,北京市西城区复兴门内大街51号民族饭店1层,2cc3c8e8a0a923cf4d2fdf62,(010)66014466,1,2cc3c8e8a0a923cf4d2fdf62
Noodle Bar,39.905308,116.423737,北京市东城区崇文门外大街3-18号贝尔特酒店1楼,c269b8a50f9178fc7ab55c29,(010)67081188,1,c269b8a50f9178fc7ab55c29
easy cafe,39.926709,116.365817,金融大街5新盛大厦1层,04c04c244914f95809a8d47d,(010)66553200,1,04c04c244914f95809a8d47d
欣妮咖啡厅,39.924496,116.419683,北京东城区灯市口大街88号天伦松鹤大饭店1楼,8d96925c003ce15cc0f1cf85,(010)58168999,1,8d96925c003ce15cc0f1cf85
爱科生活,39.914566,116.377994,复兴门内大街45号院东门,f6422d60bdc8074b97031939,,1,f6422d60bdc8074b97031939
咖啡厅,39.921292,116.425171,金宝街90-92号励骏酒店2层,d4f0e4135179cea583a00c26,010-85113388,1,d4f0e4135179cea583a00c26
星巴克(王府井大街店),39.921575,116.417786,东城区王府井大街138号新东安广场B1层B111-B112号,,4008206998,1,36eeab9b8a9cf83533621209
art&coffeestore,39.896029,116.390802,南新华街177-51920号,,,1,a27df2930bd7fa2a2afc4897
侨园饭店-咖啡茶吧,39.8759,116.383306,开阳路6号侨园饭店2号楼1层,649331ea9e217723b75f1e8b,(010)63038861,1,649331ea9e217723b75f1e8b
泓林小舍,39.91202,116.379845,宣武门内大街17号光大银行旁,02e6c4fadb87324f16c9053d,,1,02e6c4fadb87324f16c9053d
北京饭店-阳光咖啡厅,39.915246,116.41666,东城区东长安街33号北京饭店A座1楼(近王府井大街),c21db9e5e7dba69a00ff2d55,(010)65137766-1373,1,c21db9e5e7dba69a00ff2d55
恒奥咖啡厅,39.928573,116.369703,锦什坊街26号恒奥中心1层,96303e48f1af85bbeddfca88,(010)66066236,1,96303e48f1af85bbeddfca88
松鹤咖啡厅,39.92453,116.419675,北京市东城区灯市口大街88号天伦松鹤大饭店,923ffd004ad77aaed92f2873,(010)65138822,1,923ffd004ad77aaed92f2873
楼庭苑咖啡,39.914808,116.372829,复兴门内中京畿道17号楼民委招待所底商平房楼,87e4512f37f2dd577adbd226,18910951295,1,87e4512f37f2dd577adbd226
贵都大酒店-咖啡厅,39.895842,116.374015,广安门内大街217号贵都大酒店3层,108b1cea65017cb53586f410,"(010)51979888,(010)51979888-7500",1,108b1cea65017cb53586f410
荣宝斋咖啡书屋,39.901622,116.390632,北京市西城区琉璃厂西街4号,c7f7a0e7c3dfa4f374026989,(010)83162427,1,c7f7a0e7c3dfa4f374026989
国博咖啡馆,39.911356,116.407928,北京市东城区东长安街16号天安门广场东侧中国国家博物馆内,,(010)65119186,1,17b2773c38debec174e5b680
驿舍·咖啡·餐吧,39.918163,116.366675,金融大街甲26号金阳大厦1层(中国移动),,,1,d09479faf5c5686188f15d5f
北京王府井希尔顿酒店-行政酒廊,39.92077,116.419884,北京市东城区王府井东街8号王府井希尔顿酒店顶层,7870995d865b31f9b2077dd5,(010)58128888,1,7870995d865b31f9b2077dd5
麦咖啡(崇文门店),39.904012,116.424383,崇文门外大街3号新世界商场旁,976b75bfd9694077c42ba1b4,,1,976b75bfd9694077c42ba1b4
CAFFEBENE(王府井店),39.921997,116.417266,王府井大街淘汇新天2层2009号,5618664e5840e3cb96ca07d5,(010)65595658,1,5618664e5840e3cb96ca07d5
王朝广场咖啡吧,39.924029,116.418039,北京市东城区王府井大街50号天伦王朝酒店3层,453791c348992e29b8bd632d,,1,453791c348992e29b8bd632d
凡咖啡,39.89938,116.415004,北京市东城区珠市口东大街11号甲11号一层111室,fd9e17fdd71b6c700c0a7017,(010)53525001,1,fd9e17fdd71b6c700c0a7017
红墙咖啡厅,39.915194,116.413639,东长安街35号北京贵宾楼饭店2层,,,1,159b9ec27d41b110e81e9768
常青园咖啡厅,39.917516,116.382474,北京西城区西单横二条甲3号广州大厦1楼,23116913887e95e4734b875f,(010)58559988,1,23116913887e95e4734b875f
瑞幸咖啡(君太百货店),39.915919,116.379594,北京市西城区西单北大街133号北京君太百货B1,,,1,bdd2c06488a2494075e5b67d
瑞幸咖啡(丰铭国际大厦店),39.924113,116.374855,北京市西城区丰盛胡同20号丰铭国际大厦B座第1层101单元,,,1,6d9bc23afbd345035ed4fe7d
文咖馆,39.922936,116.372505,太平桥大街丰融园15号楼底商34号,,18513459639,1,a52fa677b5c670d515764362
新侨饭店-咖啡厅,39.907743,116.423319,北京市东城区崇文门西大街1号北京新侨诺富特饭店2层,8ab0dfc4f37c340fd8eced32,(010)65133366-2001,1,8ab0dfc4f37c340fd8eced32
陶然大厦-咖啡厅,39.876386,116.394909,马家堡路1号陶然大厦1层,f4bce9a5061f46b46240a9e6,,1,f4bce9a5061f46b46240a9e6
珍仕果鲜榨果汁吧,39.916791,116.379499,西单北大街131号西单大悦城购物中心2层,091e583ce0f9cefc2202203e,(010)66183162,1,091e583ce0f9cefc2202203e
都季餐厅咖啡厅,39.917533,116.413459,华龙街与南河沿大街交叉口东北50米,,,1,ac3ec52b619257a62b201a94
国博茶艺馆,39.911155,116.407692,北京市东城区东长安街16号天安门广场东侧中国国家博物馆内,,,1,c83b82fb554bd5dd76e5b6e5
KUMA Cafe,39.921192,116.419067,北京市东城区王府井大街138号北京apmF3,,(010)65599521,1,624a042173867056eb1e9716
北京贵宾楼饭店-喷泉酒吧,39.915191,116.413639,北京东城区东长安街35号北京贵宾楼饭店3楼,12013bc6f6b0a0b3246e98f4,(010)65137788,1,12013bc6f6b0a0b3246e98f4
蜜语芝间(新燕莎金街购物广场店),39.915956,116.416998,北京市东城区王府井大街301号新燕莎金街购物广场B1,,,1,2339a456f88be81028201a47
中国美术馆-内咖啡厅,39.931489,116.416097,东华门街道五四大街1号,,(010)64014987,1,8549b7b055a88c0979b55ca8
图兰朵(崇文门店),39.904362,116.426029,北京市东城区西花市大街国瑞城紫金台D座6层,,,1,f2877fe0180cac2be8e582ec
猫爪咖啡Paws Coffee,39.90455,116.379491,宣武门外大街甲1号环球财讯中心C座B1层,,,1,039ca4c51287ca03a1046410
星巴克(泰康国际大厦店),39.923676,116.36898,西城区武定侯街2号泰康大厦1层,,(010)66290609,1,d01377bbd879d0264d2fdfe6
旅舍咖啡,39.929868,116.369614,北京市西城区阜成门内大街181号,,,1,38057c69ef8788f893114cb4
Pentalounge面吧,39.90533,116.423634,崇文门外大街3-18号贝尔特酒店1楼,c417b6d0c4972b601c3894c4,,1,c417b6d0c4972b601c3894c4
北京丽晶酒店-茶室,39.922266,116.425253,金宝街99号北京丽晶酒店,6205291a99e7ac81077ce83c,,1,6205291a99e7ac81077ce83c
木棉花酒店-咖啡厅,39.921359,116.411882,东华门大街16号,eedac8d86adf0b4baecb6679,"(010)65259988,(010)65289512",1,eedac8d86adf0b4baecb6679
东方饭店咖啡厅,39.894481,116.395954,北京市西城区天桥街道万明路11号东方饭店咖啡厅,,,1,a4f04e199f2fd778f82d61fd
漫耳MANER COFFEE,39.898912,116.422005,北京市东城区珠市口东大街2号丰泰大厦一楼110室,,18210213769,1,fa04d099771c2f14c6effb57
星巴克(金融大街店),39.924743,116.365661,西城区金融大家甲9号金融街中心1-101号,,(010)66023479,1,409be82671fd6dd99868b4ce
coffee,39.905994,116.390198,北京市西城区宣武门外大街2附近,7da4ea7bdf22b96aa2d230b2,,1,7da4ea7bdf22b96aa2d230b2
宣武门商务酒店-咖啡厅,39.905111,116.38143,宣武门东大街24号宣武门商务酒店2层,0ad0eae6e9d5bd19bca82248,(010)63014499,1,0ad0eae6e9d5bd19bca82248
星座不求人,39.920292,116.418579,北京市东城区王府井大街新东安商场APM103a地下1层B103B,,,1,ae7072e56134b78b9e9d684b
山水宾馆-咖啡厅,39.916476,116.378176,北京市西城区皮库胡同45号山水宾馆1层,5b967a2fb31f3515ca1b9598,(010)66063388,1,5b967a2fb31f3515ca1b9598
bakery cafe(新世界百货店),39.903143,116.423729,北京市东城区崇文门外大街3号新世界百货F1,ca90de3a9be43dec1e1d1182,,1,ca90de3a9be43dec1e1d1182
咖啡猫,39.918137,116.380966,西单北大街120号西单商场(西单北大街店)B1层,a480fa4db8a6f7e4a11de981,,1,a480fa4db8a6f7e4a11de981
星巴克(金融大街店),39.924743,116.365661,西城区金融大家甲9号金融街中心1-101号,,(010)66023479,1,409be82671fd6dd99868b4ce
coffee,39.905994,116.390198,北京市西城区宣武门外大街2附近,7da4ea7bdf22b96aa2d230b2,,1,7da4ea7bdf22b96aa2d230b2
COSTA COFFEE(首都机场店),39.913099,116.364411,北京市西城区复兴门内大街101号百盛购物中心复兴门店南楼(正门)3层,ddbdc1cdd98861a39d9d6881,,1,ee822a6ed29d7b70704b875c
WalkerOne(大悦城店),39.915911,116.379672,北京市西城区西单北大街133号北京君太百货1层,f3c2373ca823d54bd22dd644,,1,e7ed033c513935f1901fc949
漫点仁政生活馆,39.902988,116.382818,北京市西城区,,,1,fbaf668e5baf2a59a80dd80e
宣武门商务酒店-咖啡厅,39.905111,116.38143,宣武门东大街24号宣武门商务酒店2层,0ad0eae6e9d5bd19bca82248,(010)63014499,1,0ad0eae6e9d5bd19bca82248
星座不求人,39.920292,116.418579,北京市东城区王府井大街新东安商场APM103a地下1层B103B,,,1,ae7072e56134b78b9e9d684b
山水宾馆-咖啡厅,39.916476,116.378176,北京市西城区皮库胡同45号山水宾馆1层,5b967a2fb31f3515ca1b9598,(010)66063388,1,5b967a2fb31f3515ca1b9598
bakery cafe(新世界百货店),39.903143,116.423729,北京市东城区崇文门外大街3号新世界百货F1,ca90de3a9be43dec1e1d1182,,1,ca90de3a9be43dec1e1d1182
咖啡猫,39.918137,116.380966,西单北大街120号西单商场(西单北大街店)B1层,a480fa4db8a6f7e4a11de981,,1,a480fa4db8a6f7e4a11de981
茗苑咖啡厅,39.908916,116.414086,东交民巷甲23号东交民巷饭店,,,1,7328fcd81f5cf2822fb17efa
D灰尘ISTRICT 9,39.923274,116.426824,北京市东城区,,,1,01fe5d87889296469cec2bae
TASTY HOUSE,39.921561,116.415863,东安门大街与王府井西街交叉口东50米,,,1,7fa36c8ec0b45b7aca09f024
卯咖啡,39.905199,116.395098,北京市西城区前门西河沿街186号,,(010)57094588,1,51daeb66b0dba83a9d9d688d
庭院时光,39.921262,116.380896,北京市西城区东斜街70号附近,,(010)66016072,1,a05c2e41705e24da2d4733f7
THE1511咖啡,39.903278,116.419283,北京市东城区东兴隆街47号,acc333410882929e715e807d,,1,c532dbda0c495632bda240c5
漫时光（魏公村店）,39.905851,116.425024,北京市东城区崇文门外大街3号新世界百货F1,,,0,24e830c9b7dc309b1de999a5
悦阁咖啡厅,39.917725,116.425608,北极阁三条与新开路胡同交叉口东北100米,ea2ba76daa0fe511441a32d8,,0,d0cfb0991110225e97031940
SAT(良乡S),39.919274,116.370175,北京市西城区太平桥大街111湘西大厦,c6c2bc38be42abc780a00cae,,1,8bda3fab53eafe6140e1924a
亿品皇咖啡(新东郊商城店),39.907221,116.37491,北京市西城区,1e7cc0c99edf6510b020a824,,0,9cf9fb730acd4bfc41d63e4e
星巴克(北京建外现代城店),39.910989,116.465916,北京市朝阳区东三环中路39号建外SOHO5号别墅1户,b7bfcb2ba4994352f32d8365,(010)58690273,1,b7bfcb2ba4994352f32d8365
漫咖啡(华贸店),39.917086,116.488301,北京市朝阳区建国路89号17,6eb641bdf482fabf3b221cdf,(010)65307381,1,6eb641bdf482fabf3b221cdf
千禧大酒店-大堂吧,39.922646,116.465835,北京市朝阳区东三环中路7号财富中心千禧大酒店1楼,0bcd58005e3899c85cbe861f,(010)85876888,1,0bcd58005e3899c85cbe861f
Friends‘ Cafe老友记主题店,39.925822,116.46108,朝外大街乙6号朝外SOHOA座6层0616室,aa40108b9d8d210cc5effb51,"(010)64070336,18601191315",1,aa40108b9d8d210cc5effb51
漫咖啡(广渠门店),39.898337,116.452344,广渠门外大街名敦道7号楼,cd7fed8e8f21c6a30869d92e,(010)87513628,1,70cd51230706fc8af7e73bc7
星巴克咖啡(嘉里中心第二咖啡店),39.919579,116.466338,朝阳区建国门外大街光华路1号嘉里中心商场2层111-2层204号,931850930e0c0baac9291565,(010)85298355,1,931850930e0c0baac9291565
云巢咖啡(首城国际店),39.897028,116.4751,广渠路36号首城国际6号楼底商百环大厦东侧,21dfcaa58b0782c5f503b801,(010)57484138,1,21dfcaa58b0782c5f503b801
星巴克(华贸店),39.914889,116.487165,朝阳区建国路79号华贸购物中心2层217-218号,25b3176ceadf254b87154184,(010)65305766,1,25b3176ceadf254b87154184
星巴克(中粮广场店),39.913077,116.436016,东城区建国门内大街8号北京中粮广场C座G130-132号,c866e14c8c6d46f7d7851fe9,(010)65674460,1,6b23beadb523d0191b11d5cf
星巴克(国贸四店),39.916637,116.466994,朝阳区建国门外大街1号国际贸易中心商城地下一层SB126-SB127号铺位,,(010)65050369,1,9314d6437ed67a7243e192c1
星巴克(东三环南路店),39.898462,116.466981,朝阳区东三环南路1号佳龙大厦101室,795bb4ef3068857fbfa82208,(010)67730519,1,795bb4ef3068857fbfa82208
花舍咖餐厅(广渠门店),39.900592,116.446268,白桥大街28号鸿润酒店1楼(近广渠门桥),3f9337d61622e8aaf7231054,(010)67166998,1,3f9337d61622e8aaf7231054
星巴克(温特莱店),39.918817,116.483097,朝阳区西大望路1号温特莱中心一层,d1641a74348aafbfc4f0255a,(010)65387097,1,d1641a74348aafbfc4f0255a
星巴克(北京万达广场店),39.914928,116.47954,朝阳区建国路93号新世界彩旋百货1层,7388dffd71140af2d2ff23f0,(010)65812558,1,7388dffd71140af2d2ff23f0
星巴克(北京银泰店),39.913043,116.4647,北京市朝阳区建国门外大街2号北京银泰中心B1层,db4b43148a8b4220d518b722,"(010)85171608,(010)85171658",1,db4b43148a8b4220d518b722
觅咖啡(双井店),39.904841,116.466429,北京市朝阳区双花园南里三区19-1号,1929bb8687b263818d77274e,(010)53369939,1,1929bb8687b263818d77274e
星巴克(北京西大望路第一店),39.899602,116.483352,朝阳区西大望路15号外企大厦B座1层,1140d73bcc33ca2309b93a28,(010)87723654,1,1140d73bcc33ca2309b93a28
星巴克(朝阳门SOHO店),39.928408,116.439242,东城区南竹杆胡同1号朝阳门SOHOB1-123号,ab5a57ef0715627c9222e0ef,(010)85197812,1,51f4a4d358509aa6f82213a4
星巴克(名敦道店),39.898806,116.454295,东城区广渠门外南街6号名敦道3号楼1层,6d21064da8f14e575bf6becc,(010)87224941,1,6d21064da8f14e575bf6becc
星巴克(芳草地大厦店),39.925738,116.455774,朝阳区东大桥路9号北京侨福芳草地D座1层,466a416abce804bd01294f9a,(010)85618515,1,466a416abce804bd01294f9a
星巴克(国贸第三咖啡店),39.918347,116.465091,朝阳区建国门外大街1号3号院二层3L215铺位,1b1e6792da1c06b3931fc95b,(010)85351834,1,1b1e6792da1c06b3931fc95b
星巴克(呼家楼店),39.926124,116.467315,呼家楼1号京广中心商务楼1层,7b235e0335d617e6764ff1da,(010)65973907,1,7b235e0335d617e6764ff1da
星巴克(国贸第二店),39.916647,116.466783,朝阳区建国门外大街国贸商城二层的NL205号铺位,e48d38ee7e26fcc7354aae1f,(010)65057909,1,e48d38ee7e26fcc7354aae1f
SEE YOU COFFEE(世外桃源店),39.926631,116.491393,北京市朝阳区东四环中路37号-西门,a8f03a4da70c305c6f3e1bfd,13911786221,1,a8f03a4da70c305c6f3e1bfd
i Coffee,39.894801,116.488497,北京市朝阳区西大望路珠江帝景B区152A,3331c953f66708b12fe67bab,(010)53350258,1,3331c953f66708b12fe67bab
星巴克(乐成中心店),39.899771,116.46887,朝阳区东三环中路22号乐成中心1层,,(010)67723170,1,f42a14e863727aafaaf0cd34
星巴克(丰联广场店),39.929626,116.445504,朝阳区朝阳门外大街丰联广场一层,c973f61d0eb6132ff40e7788,(010)65880503,1,c973f61d0eb6132ff40e7788
蜗牛咖啡馆(国贸店),39.912033,116.465711,朝阳区东三环中路建外SOHO东区6号楼0662E号,586a6140e536dc9a2cb17e47,18611527899,1,586a6140e536dc9a2cb17e47
星巴克(凯恒店),39.929779,116.439029,东城区朝阳门内大街2号凯恒中心B座1层04单元,69fcd6df9b5b7636ca291562,(010)85197361,1,69fcd6df9b5b7636ca291562
星巴克(新闻大厦店),39.913575,116.428377,东城区建内大街19号新闻大厦1层,122ef0c286ca4698fbdc851a,(010)65240649,1,122ef0c286ca4698fbdc851a
星巴克(北京富力家园店),39.90179,116.46747,朝阳区东三环中路63号富力大厦1层148单元,c879fa0195525553c909f057,(010)59037472,1,c879fa0195525553c909f057
星巴克(北京站第一店),39.909479,116.433737,北京市东城区毛家湾胡同甲1号北京站F2,,(010)51015915,1,af376890e20a72117ab55c41
小野咖啡,39.906008,116.490417,北京市朝阳区百子湾路16号-后现代城B区4号楼B座,1bf39fb7a4d4a17978f796eb,(010)67775467,1,1bf39fb7a4d4a17978f796eb
东方小驻COFFEE SHOP,39.875952,116.478394,北京市朝阳区松榆南路38号院2号楼底商,b9aac1da7cd321be5b109339,(010)56264811,1,b9aac1da7cd321be5b109339
每日烘焙咖啡,39.895728,116.488921,广渠路28号225-1室,,"18610647759,(010)58631116",1,64a0d59a40c27cf499005000
COSTA COFFEE(丰联广场店),39.929303,116.445286,北京市朝阳区朝阳门外大街18号丰联广场F1,dfc112d8996c57ae902ca32d,(010)65889892,1,9f12da23ae37c83e940319e3
星巴克(金宝汇店),39.921442,116.427414,北京市东城区金宝街88号金宝汇购物中心F1层,8dfbb97c8618487df4e73baa,(010)65136020,1,8dfbb97c8618487df4e73baa
星巴克(北京LG大厦店),39.913225,116.455463,朝阳区建国门外大街乙12号北京双子座大厦首层L118号,a12baa4092dc284fe956faa1,(010)65686282,1,a12baa4092dc284fe956faa1
星巴克(财富购物中心店),39.923065,116.46491,朝阳区东三环中路7号财富购物中心一层,,(010)65309173,1,4f4bf3c36b56d7ad74026989
星巴克(世贸天阶店),39.922034,116.457815,北京市朝阳区光华路9号世贸天阶中心A座一层L123号,33fbfa832d8957d80bf5eb4d,(010)65871579,1,33fbfa832d8957d80bf5eb4d
上岛咖啡(劲松店),39.888454,116.467257,北京市朝阳区劲松三区华腾大厦首层,f3c2373ca900d24bd32dd6a1,(010)87730071,1,f3c2373ca900d24bd32dd6a1
星巴克(建国路店),39.913154,116.482038,朝阳区东三环中路39号建外SOHO5号别墅01户,dc449fab6654b155bbbd63b4,(010)58690273,1,dc449fab6654b155bbbd63b4
17Cafe,39.924361,116.462587,北京市朝阳区朝阳门外大街6号院新城国际1号楼101b,860942bde326c0f0c16c140c,18600149523,1,860942bde326c0f0c16c140c
星巴克(朝外悠唐店),39.927674,116.446727,朝阳区三丰北里2号楼悠唐购物中心1层,15e1e85ebc7b8abb5810935c,(010)85728421,1,15e1e85ebc7b8abb5810935c
星巴克(东三环北路第三店),39.926896,116.470136,朝阳区东三环北路38号院1号楼1层101-7室,,(010)85280910,1,fb29e54ae635a93848cc4a9d
星巴克(金地中心店),39.914856,116.480708,朝阳区建国路91号金地中心L2层L201店铺,192291364570e5766d20b915,(010)85903358,1,192291364570e5766d20b915
巴克咖啡(万通中心店),39.925191,116.462916,朝阳区朝阳门外大街甲6号一层2011-2012号商铺,2aeb6f33157dd077dc1e52e8,(010)59070313,1,2aeb6f33157dd077dc1e52e8
COSTA COFFEE(中环世贸店),39.912669,116.463864,朝阳区建国门外大街甲6号中环世贸中心D座一层,c8b5cdefef00da1a130daad9,(010)65630616,1,c8b5cdefef00da1a130daad9
Cafe Flatwhite(建国门外交公寓店),39.917196,116.445179,朝阳区秀水街1号建国门外外交公寓13号楼,e93761f64ea1be15233bf2a1,(010)85326775,1,e93761f64ea1be15233bf2a1
luckincoffee(SOHO现代城店),39.913018,116.48216,建国路88号7-10号楼1至2层0504(SOHO现代城C座0504),,4000100100,1,010ad391e713ef26b54f54d7
No1酒吧,39.926708,116.447711,朝外市场街22号,c57aee3bd8265c0832870ab9,"15500966988,(010)80456956",1,c57aee3bd8265c0832870ab9
麦隆咖啡(北京双井店),39.899639,116.469071,北京市朝阳区东三环中路乐成中心F1,,(010)67704360,1,293507629d886ea1abf0cd63
星巴克(赛特购物中心店),39.913314,116.44836,朝阳区建国门外大街22号赛特购物中心B1层,3da907f37ce2f94ab220a8a1,(010)65155228,1,3da907f37ce2f94ab220a8a1
闹公馆(Now Mansion),39.90615,116.49017,朝阳区百子湾路百子园4号楼,b9d07bec51b7a6799222e084,13911970695,1,b9d07bec51b7a6799222e084
Moka Bros摩卡站(双井店),39.899532,116.469495,北京市朝阳区东三环中路22号楼一层1-108号,,,1,8fb0d9b4ae522557a5da3956
luckincoffee(东方梅地亚店),39.918253,116.479793,朝阳区光华路4号院2号楼1层105,,4006692002,1,f7a1317d339219f24354d738
COSTA COFFEE(北京SKP店),39.915491,116.48535,北京市朝阳区建国路87号北京SKPF5,d1b538e449aea87ac6effb21,(010)85990869,1,d1b538e449aea87ac6effb21
生活客咖啡馆,39.900681,116.442178,花市东街南里东区12号楼底商,9ee681eae29ba2ff9222e04e,17600711507,1,9ee681eae29ba2ff9222e04e
SWANNA COFFEE,39.922833,116.461472,北京市朝阳区朝阳门外大街6号院-16-103,,18510897099,1,46aa45dc6c7b7b5bc1f1cf89
那儿咖啡(新城国际店),39.923071,116.46289,北京市朝阳门外大街6号新城国际公寓11号楼101店铺,50f7d1468f8cf8dd72210b4d,010-65970607,1,50f7d1468f8cf8dd72210b4d
星巴克(朝外二店),39.927668,116.445446,北京市朝阳区朝外南街悠唐生活广场北门附近,992ddbe663eb18ce230262d2,(010)85728421,1,992ddbe663eb18ce230262d2
星萌女仆主题咖啡厅,39.92451,116.459117,朝阳区东大桥路8号SOHO尚都北塔B136-B180,000254502eb877544bcc4a29,,1,000254502eb877544bcc4a29
太平洋咖啡(银河SOHO店),39.928231,116.439471,北京市东城区南竹竿胡同一号朝阳门SOHO二期B101商铺,21abbd9b278676b186420e4f,(010)65174829,1,21abbd9b278676b186420e4f
COSTA COFFEE(远洋光华店),39.92074,116.461529,景华南街5号远洋光华国际中心C座1楼(辉盛阁国际公寓对面),49a02a7a07bc5d592a201aa8,(010)85906090,1,49a02a7a07bc5d592a201aa8
星巴克(建国路二店),39.913202,116.471243,朝阳区建国路112号惠普大厦1层,,(010)65682385,1,54eb7036f83fe158acee7a66
星巴克(新族大厦店),39.915974,116.447942,朝阳区日坛路6号新族大厦首层,e71013e7639bac2597031957,(010)65954675,1,f4a33da9b2a4fc103110afa1
时光漫步客房咖啡厅,39.886615,116.477719,农光东里路农光东里小区11号楼,129558a396b10fdaa2a934f1,(010)67390380,1,129558a396b10fdaa2a934f1
星巴克(金汇路世界城店),39.923632,116.458478,朝阳区金汇路世界城商业街9号,8ce119ffee32afbcece4a596,(010)85907651,1,8ce119ffee32afbcece4a596
星巴克(东三环中路店),39.902436,116.467095,北京市朝阳区东三环中路63号北京富力中心1层,,(010)59037426,1,b9349c7af6dd501b0b69d953
luckin coffee(尚都国际店),39.925354,116.457885,朝阳区东大桥路8号尚都国际中心一楼,2b7fa9361242f84d901fc949,4000100100,1,2b7fa9361242f84d901fc949
CraftSecret精秘TaproomCoffee,39.906219,116.490416,朝阳区百子湾路16号后现代城B区4号楼C单元102号底商,,18600282887,1,a34dd4a672dbe41c48cc4aa3
luckincoffee(老番街店),39.927204,116.447893,朝阳区朝外市场街怡景园北里3号楼,,4000100100,1,438ade542c486c9af4b9164f
luckincoffee(建外SOHO店),39.911812,116.467275,朝阳区建外SOHO东区A座0101F,,4000100100,1,7693effb2f4d40924054d762
costa咖啡店,39.919803,116.461289,光华路7号一层105/106单元(近世纪财富中心),0702410b8ffe2ae901897235,(010)65614599,1,0702410b8ffe2ae901897235
COSTA COFFEE(中海广场店),39.916266,116.463432,北京朝阳区建国门外大街光华东里8号院中海广场中楼1楼F1-9号,ef773a0f97f8472d230220a8,(010)59772388,1,ef773a0f97f8472d230220a8
水街咖啡(财富中心店),39.921674,116.465534,北京市朝阳区东三环中路财富中心公寓A座翼楼W203室,aa546a2e246f355a581093ef,18514007178,1,aa546a2e246f355a581093ef
COFFEE HOLIC咖啡厅,39.925683,116.461752,朝外SOHOC座1层中心位置0169-1,4ec374819d5bd93ef62310ab,010-58690551,1,4ec374819d5bd93ef62310ab
瑰丽酒店怡庭大堂吧,39.926625,116.467343,北京市朝阳区朝阳门外大街1号京广中心1-23层,b584f7affdbcabbc593ac82d,"(010)65360085,(010)65978888",1,b584f7affdbcabbc593ac82d
Coffee1727咖啡店(奥运餐厅),39.87965,116.487277,工业大学奥运餐厅1层(近北工大美食园),ac6d7e8b805578d03904b17e,(010)57721833,1,ac6d7e8b805578d03904b17e
中国大饭店-咖啡苑,39.916152,116.466348,北京市朝阳区建国门外大街一号(国贸中心)中国大饭店F2层,e85e25272649914a94f08ca1,(010)65052266,1,e85e25272649914a94f08ca1
巢NEST(百子湾路),39.906573,116.482705,北京市朝阳区百子湾路29号(近CBD),dee5c2efba3766d1cf04ef88,(010)67768845,1,dee5c2efba3766d1cf04ef88
蜗牛咖啡馆,39.904938,116.462797,北京市朝阳区双花园南里三区5号楼1层101,f914eb115aab102cc9c3db89,"(010)56228270,18611527899",1,f914eb115aab102cc9c3db89
RE,39.910216,116.459672,景恒街建外SOHO西区15号1501室,1f83a67e7e8f810a03ec01c6,(010)59003719,1,1f83a67e7e8f810a03ec01c6
COSTA COFFEE(京汇大厦店),39.912423,116.469712,建国路乙118号京汇大厦1层,b1c556e853ed7f15b52655a0,(010)65688020,1,b1c556e853ed7f15b52655a0
luckin coffee(银河soho店),39.926008,116.439324,北京东城区南竹竿胡同2号1幢银河sohoC座2层30212,ec2d3562cd0dc7ddc9fa5f09,(010)85179080,1,ec2d3562cd0dc7ddc9fa5f09
星巴克(环球金融中心店),39.924449,116.465636,朝阳区东三环中路一号环球金融中心首层W102号,fad9073d2707581ab45f1ee4,(010)59817829,1,fad9073d2707581ab45f1ee4
悠唐皇冠假日酒店-C6咖啡厅,39.927955,116.445473,北京市朝阳区朝外大街三丰北里3号(近悠唐生活广场),28e700f165f24f18085cb3f3,(010)59096688-3219,1,28e700f165f24f18085cb3f3
星巴克(爱思开大厦店),39.913384,116.46349,朝阳区建国门外大街甲6号1幢SK大厦2层,0557519c6459458ad22dd6f4,(010)85670237,1,0557519c6459458ad22dd6f4
易爵咖啡工作室,39.91111,116.459764,北京市朝阳区东三环39号建外SOHO16号楼,9a3c3e53624b605b49fd3f76,"(010)58692635,13810606186",1,9a3c3e53624b605b49fd3f76
瑞幸咖啡(鸿豪商业中心店),39.926595,116.447622,神路街39号美天厨房二楼,,,1,554f1e9b94eb7f63621809f3
星巴克(世茂大厦店),39.913314,116.477725,朝阳区建国路甲92号北京世茂大厦首层102单元,cd9d05dd6b380eaf85420e51,(010)85809015,1,076b5b443037d826eedfcacb
0.1g Coffee,39.911214,116.478047,北京市朝阳区惠河北路郎家园6号郎园ViNTAGE3号楼1层,0ff9d7d9c4df65a30e0e6bbe,13651390670,1,0ff9d7d9c4df65a30e0e6bbe
luckincoffee(民生大厦店),39.926684,116.469264,朝阳区东三环北路38号院4号楼民生大厦商业一层L113室,,4000100100,1,52f113dbdfede791ad080f98
太平洋咖啡(华润大厦店),39.918909,116.440472,北京市东城区建国门北大街8号华润大厦1层,7ce0a68efa832f1b30169b74,(010)85192997,1,7ce0a68efa832f1b30169b74
太平洋咖啡(长安街店),39.915405,116.437079,建国门内大街7号光华长安大厦2座1楼02号,eb36750313e1271b00ec01cc,(010)65180278,1,eb36750313e1271b00ec01cc
新鲜7豆叔精品烘焙咖啡(体验店),39.910948,116.46,北京市朝阳区东三环中路39号院16号楼1层,40cfe64c0460654e102935d9,(010)59002258,1,40cfe64c0460654e102935d9
Idag咖啡馆,39.905706,116.47447,北京市朝阳区百子湾路32号院4号楼1层,a017bc03c7685630735e808e,(010)58769680,1,a017bc03c7685630735e808e
luckincoffee(朝阳门SOHO店),39.928476,116.439385,东城区朝阳门内大街东二环南竹竿胡同1号,,4000100100,1,b9e99056bcc902b188fc06fa
星巴克(华贸二店),39.917542,116.487909,朝阳区建国路89号北京华贸19号楼一层102单元,c6b82b942249827fa10464e0,(010)65307016,1,c6b82b942249827fa10464e0
意曼多(芳草地店),39.925259,116.45576,东大桥路9北京侨福芳草地购物中心2层05/28,ae5730af3f7748b85cd4fedc,(010)85631085,1,ae5730af3f7748b85cd4fedc
GREYBOX COFFEE(芳草地店),39.924842,116.455852,东大桥路9号北京侨福芳草地购物中心L1层L1-AB1,,,1,27636772cc06440b374aae0a
太平洋咖啡(复星国际店),39.92963,116.462178,朝阳北路237号楼1层105,4642844abdf690c0c9fa5fc3,(010)85715885,1,4642844abdf690c0c9fa5fc3
老记茶馆(朝阳门店),39.926712,116.433224,北京市东城区朝内南小街8号1楼,,(010)58646140,1,3dea4fc3e33388e4f02d83ed
GREYBOX COFFEE(华贸购物中心店),39.915073,116.48835,北京市朝阳区建国路81号华贸购物中心F1,06600495d6717c7116a1907f,18710068224,1,06600495d6717c7116a1907f
星巴克(世贸天阶第二店),39.922583,116.458255,朝阳区光华路9号世贸天阶南街B1层B152号,,(010)52061047,1,7cc0705a897741083fe231d5
私磨咖啡馆(夕照寺店),39.894882,116.447289,夕照寺街14号4号楼富瑞苑大厦1层108号,7a8601c59d8dde4838e4a677,"(010)87188115,13311516063",1,7a8601c59d8dde4838e4a677
湖畔咖啡厅,39.881479,116.452691,朝阳区潘家园南里19号康源瑞廷酒店1楼,b703e96bd71442e38e1a8984,(010)59097633,1,b703e96bd71442e38e1a8984
八度空间咖啡馆,39.90259,116.478231,北京朝阳区百子湾南二路76号乐成国际5号楼3A(近双井家乐福),6ed3083ac1c969ae2a3a9f85,(010)87724645,1,6ed3083ac1c969ae2a3a9f85
LUXE(国贸写字楼2座店),39.916661,116.46714,北京市朝阳区建国门外大街1号国贸写字楼2座F1,,,1,3e35ed6d6ed9588954bfff65
星巴克(宝钢大厦店),39.913485,116.452716,朝阳区建国门外大街丙12号宝钢大厦1层,5fa8983666fa2c575bf6be43,(010)57610191,1,5fa8983666fa2c575bf6be43
花舍咖餐厅(昆泰店),39.928177,116.448313,北京市朝阳区朝阳门外大街26号朝外ＭＥＮ雅宝商城1层,cac5fc76ae9c9bea2cb96d03,(010)85654328,1,cac5fc76ae9c9bea2cb96d03
太平洋咖啡(CBD国际大厦店),39.910231,116.458771,北京市朝阳区永安东里16号CBD国际大厦1-2层西侧,6bfed673010a43c531870a6a,(010)65663035,1,6bfed673010a43c531870a6a
瑞幸咖啡(雅宝大厦店),39.921047,116.443355,北京市朝阳区雅宝路6号雅宝大厦,,,1,fcf6da57eb2a1ff3770269a5
CHAAN轻食(世界城店),39.923327,116.459373,朝阳区金汇路8号楼1层101内E136B、E138单元,19b4e6dc54be7315a4c756c0,(010)85597578,1,19b4e6dc54be7315a4c756c0
长富宫饭店-咖啡厅,39.913548,116.444431,建国门外大街26号,49d9593891162a5ac61e51ce,"(010)65125555-61,(010)65125555-64",1,49d9593891162a5ac61e51ce
STRASBOURG思特堡(建国门店),39.915548,116.445259,北京市朝阳区秀水街1号北3层,13077f136cc255e17dc8765b,"13810400336,(010)85323955",1,13077f136cc255e17dc8765b
天堂咖啡厅,39.900476,116.435681,北京东城区广渠门内大街41号雍贵中心C座1楼103室(近南花市大街),34dc2a2f2b0c5a1d83a00c7d,,1,34dc2a2f2b0c5a1d83a00c7d
伊斯兰布尔咖啡馆,39.91598,116.449283,北京市朝阳区秀水南街B7号国际大厦和北京友谊商店北侧,c21db9e5e900a09a00ff2d00,13718324288,1,c21db9e5e900a09a00ff2d00
有闻记者之家(咖啡厅),39.912986,116.483568,建国路88号SOHOA座3712,f22d11f05d07445dec74f8fd,18518538805,1,f22d11f05d07445dec74f8fd
Unconditionallovecoffee,39.90551,116.475712,"北京市朝阳区百子湾路32号苹果社区北区今日美术馆22院街底商3号楼A座3-012(店内设有低消人均30,谢谢)",eb88a1aeffcf727de5073836,(010)58263652,1,eb88a1aeffcf727de5073836
Hey!Coffee咖啡便利店,39.925405,116.460721,朝阳门外大街乙6号朝外SOHO-D座0112室,4e21e44f2fc689fbfadc8541,"(010)59009001,18511988302",1,4e21e44f2fc689fbfadc8541
记者俱乐部酒吧,39.91684,116.446731,建国门外大街21号北京国际俱乐部饭店1楼(近日坛路),c61bd30571480d71c37da2a1,,1,c61bd30571480d71c37da2a1
基路书店咖啡,39.92532,116.461235,朝外大街乙6号朝外SOHO-B座三层023(东大桥地铁),3f45803b8aab256e26e0a0a5,(010)57279373,1,3f45803b8aab256e26e0a0a5
品逸阁咖啡(现代城店),39.913178,116.482002,建国路88号SOHO现代城C座一层0501商铺(地铁大望路站),ecf2eba8cfe13cffbca82227,,1,ecf2eba8cfe13cffbca82227
食客满源咖啡厅,39.910309,116.462101,北京朝阳区东三环中路39号建外SOHO西区10号楼3楼1038室(近国贸地铁站),108b1cea95970cb53486f4be,(010)58693488,1,108b1cea95970cb53486f4be
踢呀主题咖啡厅,39.912926,116.481408,大望路地铁SOHO现代城D座1910室一层(大望路地铁B口和C口),53cef674fc6fad1abca822a1,13031128144,1,53cef674fc6fad1abca822a1
KIWI Coffee,39.926381,116.439941,北京市东城区南竹杆胡同2号1幢1层,42b89ad7ae72d5d7d42ce25f,18511431505,1,42b89ad7ae72d5d7d42ce25f
泰妃苑自助餐咖啡厅,39.914606,116.461553,建国门外大街3号,e96b4420e2cc404082288a72,(010)65002266,1,e96b4420e2cc404082288a72
连咖啡coffeebox(百子湾店),39.906167,116.491916,北京市朝阳区百子湾路16号百子园5号楼B单元101号,9f5d5f678413aa67bb17e7ab,4000605000,1,9f5d5f678413aa67bb17e7ab
快快,39.890482,116.471122,朝阳区南磨房路39号院1号楼乐澜宝邸商铺1112号,,,1,ffd575a39345287d744ff1fa
首都图书馆-咖啡厅,39.876134,116.470247,东三环南路88号首都图书馆B座2层,95dd459fa2d27b6f9a00506e,,1,95dd459fa2d27b6f9a00506e
将士,39.925446,116.461429,朝外大街乙6号一层0151,bc950fa9d869f8fae5073864,"18511720214,(010)59000232,15701282825,(010)58691699,4000527027",1,bc950fa9d869f8fae5073864
兰花台咖啡厅,39.913537,116.444425,建国门外大街26号长富宫饭店1层大厅,,,1,91b612fa5288271b88f15dd5
帕斯库奇咖啡(贵友大厦店),39.914628,116.457557,北京市朝阳区建国门外大街甲5号贵友大厦102,ee210d660f2c81ea9900502a,,1,ee210d660f2c81ea9900502a
Coffee Box咖啡(团结湖店),39.929346,116.472956,北京市朝阳区朝阳北路219号,f341f6e12d7d456daeb22a41,4000605000,1,f341f6e12d7d456daeb22a41
猫屎咖啡(丰联广场店),39.929243,116.445171,北京市朝阳区朝阳门外大街18号丰联广场F1,3ae7894ba58c049740ab9a44,(010)58302088,1,3ae7894ba58c049740ab9a44
西西弗书店(北京国贸黑标旗舰店),39.918377,116.467309,北京市朝阳区建国门外大街1号国贸商城北区地下二层3B201号,,,1,a9885ea191dfd90cafcb66e1
飞天大厦-大堂吧,39.897176,116.451937,北京市东城区广渠门外南街5号北京飞天大厦酒店2层,5ffce21069e2cec2f4eafc67,,1,5ffce21069e2cec2f4eafc67
星巴克(光华路店),39.919785,116.476876,朝阳区光华路15号1号楼亿利生态广场一层,,(010)65895549,1,6ad665dae8f3eacc30169b81
万科签约中心咖啡吧,39.917225,116.482628,西大望路3号院2号楼5层,475145671de0b5665fbe8668,"(010)65012020,(010)65012121",1,475145671de0b5665fbe8668
太平洋咖啡(北京站店),39.909741,116.434079,北京市东城区毛家湾胡同甲13号北京站F1,,(010)65268820,1,17ec971af85b212d0869d9e6
京瑞温泉国际酒店-咖啡厅,39.875588,116.467258,北京市东三环南路17号京瑞温泉国际酒店1楼,c16534057dfd8560ab175a4d,"(010)67668866,(010)67655958",1,c16534057dfd8560ab175a4d
鸿芷咖啡馆(银河SOHO店),39.927467,116.440042,北京市东城区小牌坊胡同甲七号银河SOHO3层,39b4df3fba3c07de2b06ce36,15901501985,1,39b4df3fba3c07de2b06ce36
MCS COFFEE(永安里店),39.910404,116.450125,建华南路15号美华世纪大厦1楼,fa01e9371aa10053764ff1a1,(010)65688338,1,fa01e9371aa10053764ff1a1
我们咖啡吧(银河SOHO店),39.92696,116.439003,北京市东城区南竹杆胡同2号1幢朝阳门银河sohoB座1层,365be08508a6fd5ef7b916da,"(010)59576456,13910699589",1,365be08508a6fd5ef7b916da
MEETCAFE,39.904859,116.466448,北京市朝阳区天力街2号-b3号楼-7号铺东北90米,,(010)53369939,1,9167efee864252aca7c75611
咖啡书吧,39.888962,116.462553,北京市朝阳区劲松电影院2楼,4f6c6fd4c368ce37a3acc402,13811839722,1,4f6c6fd4c368ce37a3acc402
红庙咖啡小镇,39.919823,116.484246,北京市朝阳区金台路乙21号,,,1,a65b5cce97e8791f96f08c88
JW万豪酒店大堂吧(建国路店),39.916659,116.48829,建国路85号JW万豪酒店1层,9f8fc2fea663178d095cb31d,,1,9f8fc2fea663178d095cb31d
页果咖啡,39.929241,116.432989,北京市东城区南小街2号北京INN8号楼3楼B302,,(010)58642534,1,4f441c805c704feab01e36a0
西座咖啡(光华路店),39.919684,116.462594,光华路5号世纪财富中心1楼近嘉里中心、汉威大厦、国贸大厦,fd007c5e68b46375a8f72939,(010)85875096,1,fd007c5e68b46375a8f72939
馥苑咖啡厅,39.877725,116.484889,平乐园100号北京工业大学南门西侧工大建国饭店2层,c01e6bd53d960ff8f02d830b,,1,c01e6bd53d960ff8f02d830b
西西弗&矢量咖啡,39.918148,116.466654,北京市朝阳区建国门外大街1号国贸大厦B座B2,,,1,a07a0c8ef38468f4f942b213
易思凯斯咖啡(世贸天阶北街店),39.922628,116.458672,北京市朝阳区光华路9号中骏·世界城F1,81bfbfe92ae2f472ac0457b8,"(010)65871271,(010)65871272",1,81bfbfe92ae2f472ac0457b8
啡素精品咖啡,39.91138,116.461968,朝阳区建外soho西区11号楼1108商铺,32a8427414708729028972ca,18210038031,1,32a8427414708729028972ca
景苑咖啡厅(瑞吉酒店店),39.91684,116.446731,朝阳区建国门外大街21号瑞吉酒店1楼(近日坛路),2a7a25ec48cbe27a6d3e1b81,,1,2a7a25ec48cbe27a6d3e1b81
珠荟啡(世界城店),39.923328,116.45841,中骏世界城D座funwork,fc60c3c9f4eee221ca1b955d,"4006969670,18610388406",1,fc60c3c9f4eee221ca1b955d
McCafe(幸福大街店),39.899245,116.435269,广渠门内大街80号通正大厦麦当劳2层,15008dac010c6cc2c4f50ddf,(010)51696505,1,15008dac010c6cc2c4f50ddf
瑞幸咖啡,39.879806,116.466711,华威里10号鹏龙大厦一层大堂,,,1,140c10357e4a9e9635b06c87
星巴克(北京万达广场2店),39.914893,116.477551,朝阳区建国路93号万达广场B座万达影院3层,,(010)59604273,1,63d6be04529fc9afabf72918
星巴克(光华路第二店),39.919317,116.45908,朝阳区光华路1号9号楼1层120室,,(010)85950710,1,c77a1828666d5719441a32f3
好苑建国酒店咖啡厅,39.915675,116.42981,北京东城区建国门内大街19号好苑建国商务酒店1楼,4ab27fab7ee4f235d13ce38d,,1,4ab27fab7ee4f235d13ce38d
泉新咖啡,39.918854,116.458978,朝阳区光华路22号光华SOHO一期二层119c,3c0c77547070137bd1f49ebd,13552168014,1,3c0c77547070137bd1f49ebd
长安大饭店咖啡厅,39.877429,116.464838,北京市朝阳区华威里27号长安大饭店1楼,0ce65c2de539ff402c473394,(010)67731234-3930,1,0ce65c2de539ff402c473394
宝辰饭店-明苑咖啡厅自助餐,39.911976,116.434919,东城区建内大街甲18号恒基中心内,cac5fc768212ffea2db96d81,(010)65274030,1,cac5fc768212ffea2db96d81
贝瑞斯塔咖啡厅,39.928391,116.439281,朝阳门内大街2号朝阳门soho地下一层A107商铺,e04771806a7d8154c5effbfa,(010)67179669,1,e04771806a7d8154c5effbfa
彩虹咖啡厅,39.890812,116.437353,体育馆路1号天坛饭店1层,be1ea5effe3c83a615948e85,(010)67190828,1,be1ea5effe3c83a615948e85
嘉华咖啡厅,39.929025,116.448904,朝阳门外大街乙12号院2号楼昆泰嘉华酒店2层,637df60a7bd2676b41afe6b9,15001113334,1,637df60a7bd2676b41afe6b9
品藏轩茶馆,39.917217,116.486137,建国路甲89号华贸公寓6号楼102,073d17d3c61141cceb12e47e,(010)65309810,1,073d17d3c61141cceb12e47e
优度咖啡,39.889381,116.440956,北京市东城区光明路乙12号附近,,(010)87926788,1,8ce77e685a7750fc2eb17e8c
阳光咖啡厅,39.890333,116.436487,东城区体育馆路1号天坛饭店1楼(华普超市光明楼店),d0b8923fdf783bfbb5f42f40,,1,d0b8923fdf783bfbb5f42f40
星巴克(京汇大厦店),39.912612,116.469837,朝阳区建国路乙118号1-105号单元,,(010)65685868,1,21f21bcc17f15148ed74f8b6
cafe putoo,39.905532,116.475402,苹果社区22院,3b734470488f2a229cf779f5,18611421312,1,3b734470488f2a229cf779f5
HR Baby Coffice,39.926902,116.438803,东城区牌坊胡同甲7号银河SOHOB座1层,,18010193725,1,ea4ff20369437a821f38942b
邦荟咖啡馆,39.912338,116.480697,北京市朝阳区建国路冬郎电影创意产业园B102,,(010)65275100,1,d724ad86544c07fcadcb66fd
零距离水吧(朝阳剧场店),39.928096,116.469094,东三环北路36号,081cacc7c6681938f2193770,13811635787,1,081cacc7c6681938f2193770
菜菜大王(建外soho店),39.910249,116.459039,北京市朝阳区东三环中路39号院15号楼一层1518,,18610712229,1,cbee421685cc74d43c9a5e9a
邦代咖啡,39.892121,116.427051,天坛东路20号,c9a0e061999e6105102935db,,1,c9a0e061999e6105102935db
瑞幸咖啡(温特莱中心店),39.918626,116.482925,西大望路1号温特莱中心B座西侧临街底商110,,,1,19c9675f6fe0c6ea79b55c98
建国饭店咖啡厅,39.914984,116.45943,北京市朝阳区建国门外大街5号建国饭店1楼,e2dbc4715cc7b79c3010aff3,,1,e798f59ea562ee2de912e483
CAFFEBENE(南航店),39.912165,116.469379,朝阳区东三环中路10号南航明珠商务酒店1楼,e2cfdfd1ab84074bc17da2bf,(010)65669946,1,e2cfdfd1ab84074bc17da2bf
星巴克(财富中心三店),39.923229,116.465217,朝阳区东三环中路5号楼北京财富金融中心B1层,,(010)65969103,1,927e1c673afe1da38f55eced
亚太·公寓-咖啡厅,39.920483,116.442794,雅宝路8号,c728052d966803aa932ca319,(010)85639988,1,c728052d966803aa932ca319
MAOO COFFEE(银河SOHO店),39.927426,116.439522,南竹竿胡同2号(银河SOHO地下一层)1幢-1层1-133,f16cc02e83b5c4d48af15d75,13810456016,1,f16cc02e83b5c4d48af15d75
星巴克(秀水店),39.915566,116.45643,朝阳区建国门外大街秀水东街8号,,(010)85306756,1,479b142e8f4da5d5d32dd69c
星巴克(南竹杆二店),39.926581,116.439313,东城区南竹杆胡同2号银河SOHO广场A座地下1层,,(010)65249941,1,06e0b4058f0aedb2465726a2
Davidoff LOUNGE,39.916741,116.487579,建国路甲83号丽思卡尔顿酒店内,56e88cba95d67d7ca4c75651,,1,56e88cba95d67d7ca4c75651
蓝堡咖啡馆,39.917038,116.48396,北京市朝阳区蓝堡国际中心2座1层,dd331ae3309792a8c26c14ec,,1,dd331ae3309792a8c26c14ec
MovieMAX coffee,39.906031,116.472519,北京市朝阳区黄木厂路1号院1号楼A2号纵影天下一层,,,1,ffb0740c358194e50aa8d4a7
cafe de paris帝佰利咖啡(国贸店),39.918158,116.466152,朝阳区建国门外大街1号国贸商城北区B1层NB1031,57bf000e8b97cfa11b94c67d,(010)65852397,1,57bf000e8b97cfa11b94c67d
luckincoffee(世贸天阶店),39.92196,116.457884,北京市朝阳区光华路甲9号世贸天阶南街F2,,18612573382,1,562497153e07d0d696ca0781
GREYBOX,39.915088,116.488355,北京市朝阳区建国路81号华贸购物中心F1,8758b47db096f2e3c27da221,,1,8758b47db096f2e3c27da221
BlossomHill花山咖啡,39.901187,116.472213,东柏街9号院天之骄子2-19号楼,,13124779613,1,eabb7782b72184251a11d5a0
domus Cafe,39.92158,116.427653,东城区金宝街金宝汇3层,ee1cd6c4e77e7b8f3813fd58,(010)85221193,1,ee1cd6c4e77e7b8f3813fd58
国际饭店咖啡厅,39.915755,116.434881,建国门内大街9号国际饭店2层,2c503fdb8dbec85e441a3298,,1,2c503fdb8dbec85e441a3298
Unoonditional Love Coffee,39.905496,116.475505,百子湾路32号苹果社区4号楼今日美术馆1层东侧,,,1,420a01f85929d96cc13644cb
luckincoffee(万通中心店),39.925566,116.463041,朝阳区朝外大街甲6号万通中心地下1层底商,,4000100100,1,286b38a7bbc6e027f03cbaaf
H@C海客家咖啡阅读英文体验馆,39.900664,116.472895,东柏街10号院,,(010)87767997,1,d8b569c1dc761c6420022006
瑞辛咖啡,39.918445,116.479785,光华路4号院东方梅地亚B座一层,,,1,6afc7b24877b2d4a21022011
元帅咖啡专卖,39.890421,116.471529,南磨房路39号院1-1号,6835e3a712baed57e3110312,(010)87796216,1,6835e3a712baed57e3110312
赚赚咖啡,39.921193,116.443534,北京市朝阳区朝外街道26号雅宝大厦底商,,,1,2d241ce0752e29205cd4fe25
FLYKOI COFFEE(建外SOHO店),39.912062,116.46539,北京市朝阳区东三环中路39号院6号楼0665C,,13120016769,1,05006e061031d0c8c5f50d5f
bruno Fresh(北京银泰中心店),39.912968,116.466593,北京市朝阳区建国门外大街2号北京银泰中心B1,,,1,0cb7a28ef45a604c25d2bb89
STARBUCK COFFEE,39.912526,116.469596,北京市朝阳区东三环南路2号西北60米,,,1,2d71b55c832916acb020a83a
Spoonbillcoffee,39.910955,116.460249,北京市朝阳区建外SOHO西区,,18543206810,1,9e7ead2ce76a3b10d0ff23db
瑞幸咖啡,39.926451,116.46958,北京市朝阳区东三环北路38号附近,,,1,d79be70f9571402b6fc02cad
芋见咖啡,39.918981,116.463482,北京市朝阳区光华路16附近,,,1,38581367eeef0d4b09b93a00
猫鱼音乐学演空间,39.898447,116.46524,北京市朝阳区广渠门外大街8号优士阁大厦A座2407号,,,1,261c29503c7d86aa8bfc061c
桥吧咖啡厅,39.901913,116.448609,广渠门北里55号金桥国际公寓一层,,,1,e902839fb0c923204e2fdf20
汉威大厦-咖啡厅,39.91974,116.461291,北京市朝阳区光华路7号汉威大厦东区1楼(近金桐西路),50fb64fff30f6744e9f853c9,(010)65614599,1,50fb64fff30f6744e9f853c9
泡咖啡,39.928868,116.446416,朝阳门外大街22号泛利大厦B1楼,c0dfd209b6c6c5be6240a92e,,1,c0dfd209b6c6c5be6240a92e
腾湃(国贸商城3期A座店),39.918261,116.466448,北京市朝阳区建国门外大街1号国贸大厦B座F3,ebe2be1d7cd2c404932ca32b,,1,ebe2be1d7cd2c404932ca32b
广西大厦-咖啡厅,39.879134,116.463235,潘家园华威里26号,10df0a3e95c7278932f71d14,"(010)67705177,(010)67796688",1,10df0a3e95c7278932f71d14
龙潭西湖公园咖啡厅,39.883888,116.442537,左安门内大街15号附近,5a2c3ff94dc9eec74c3a5981,,1,5a2c3ff94dc9eec74c3a5981
星岛咖啡,39.881518,116.488611,北京市朝阳区平乐园100号北京工业大学第四餐厅2层,,,1,9cb3516bd7fe0566e8e5828b
动物咖啡,39.912979,116.482263,建国路87号skp(原新光天地)5楼北京fa,8b6e93e133a34a461b94c6d7,,1,8b6e93e133a34a461b94c6d7
绿客空间,39.911903,116.457353,北京市朝阳区永安东里平房1号,42c704dd4c3db792e115f9e4,,1,42c704dd4c3db792e115f9e4
Flatwhite Coffee,39.915002,116.456398,秀水东街秀水街大厦1层356号,da9d50aad7d22fbdc5effb16,,1,da9d50aad7d22fbdc5effb16
PAPA COFFEE(SOHO·尚都店),39.924642,116.459439,北京市朝阳区北京市朝阳区东大桥路８号SOHO·尚都F4,,13910958068,1,9fcfb73eaef3475c0e0a7043
ZHUHUiFEi COFFEE(合生汇店),39.900142,116.485325,北京市朝阳区西大望路21号合生汇B2,,,1,ee755913a3e0fa35128824c8
银舟咖啡厅,39.917015,116.437857,建国门内大街贡院西街6号E座,,,1,fb9156c19ae1a0a2220262cf
BREW BAR by PACIFIC COFFEE,39.91801,116.466138,朝阳区建国门外大街1号北京国贸商城B1层3B119,,,1,15fc3fa52ebbb2e18d7727e2
月福咖啡厅(南门),39.882062,116.461973,北京市朝阳区潘家园东里甲30号,ab5d6ae372680292e5e965be,,1,ab5d6ae372680292e5e965be
Read Cafe,39.904742,116.465615,北京市朝阳区双花园南里三区21-1号,71bf1680389e16206b49f38f,,1,71bf1680389e16206b49f38f
CAFE RESTAURANT咖啡餐厅,39.905643,116.474583,北京市朝阳区百子湾路32号院4号楼3118室南90米,,,1,1cf4d6b42d2009bd88f15d94
两杯两杯(阳光100店),39.918613,116.481543,光华路2号阳光100D座地下一层(温特莱中心),,18310111589,1,b52817c695781b97bda24018
真锅咖啡馆(朝外店),39.925709,116.461228,朝外大街乙6号朝外SOHOA座2层0277号,803708f10ba4fe60008972aa,(010)58698707,1,803708f10ba4fe60008972aa
瑞辛咖啡,39.926019,116.439409,北京市东城区南竹杆胡同2号银河SOHOA座一层10108,,,1,ca36469ad7a94f984e554772
86 Space,39.91182,116.46274,CBD文化体育广场(西门),,,1,921cfa766940456b4657260e
福来咖啡,39.91526,116.48851,北京市朝阳区建国路87号skp(原新光天地)5楼北京fa,,,1,f4770eb150a4271d1b94c649
金青咖啡(新景家园店),39.899895,116.431096,西花市南里东区新景家园15号楼,,,1,841075d85ad5fb891188249e
早安咖啡,39.922133,116.442924,朝阳区朝外头条93汉美瑞丰1层,,17317854567,1,a84f5926e2a6a94962685860
瑞幸咖啡(万通中心店),39.925695,116.462444,朝阳门外大街甲6号万通中心AB座1层,,,1,c1da7ed0b998d03926e0a0f3
REDCUPPA coffee,39.915319,116.48627,建国路81号华贸中心写字楼1座B1层,,,1,5ebc7d34382a90b0d92f28b5
J & M,39.927551,116.44698,北京市朝阳区外交部南街悠唐购物中心二期3层,bcfd1dd392913c009222e08a,,1,bcfd1dd392913c009222e08a
鄂尔多斯艾力酒店-会议厅,39.921368,116.435259,金宝街18号,ece59190d35bc05d1e1d11bd,"(010)58121888,(010)58121980",1,ece59190d35bc05d1e1d11bd
雀巢咖啡专柜,39.918198,116.465097,国贸大厦三期地下二层OLE精品超市进门口,,,1,3bcadac31b0ce41662685891
月福咖啡厅(东门),39.88226,116.462586,北京市朝阳区潘家园东里甲30号,117064d28e67a3dfd618b742,,1,117064d28e67a3dfd618b742
CITIC BOOKSTORE COFFEE(北京侨福芳草地),39.925239,116.456569,北京市朝阳区市朝阳区东大桥路9号侨福芳草地购物中心B1层,,,1,bfd798a77b290b04b42655f7
starbuckssoffee,39.91323,116.452788,北京市朝阳区建外大街丙12号附近,,,1,23de1190beb03189fea7783f
北京嘉里大酒店-咖啡厅,39.919588,116.464706,光华路1号,d98051b5fc82d298f723108e,,1,d98051b5fc82d298f723108e
Eastern suburb park coffee,39.90845,116.479471,北京市朝阳区西大望路甲12号西100米,,,1,cb2b84fc7655a12371210bf8
un Livie Cafe,39.92331,116.458104,金汇路8号楼e座附近,,,1,c7a216583732272b17b54b37
卡罗莎咖啡吧,39.912191,116.459018,建外大街永安里8号华彬中心东大堂一层,3dbe2c61daddbf7ea80dd852,(010)58697412,1,3dbe2c61daddbf7ea80dd852
新加坡知名室内设计品牌,39.910574,116.459425,北京市朝阳区恒惠西路,,,1,9457edfe3ae1409c4afc8daf
微尺伴客,39.929423,116.439708,北京市东城区东二环朝阳门内大街2号凯恒中心C座一层,,18511570821,1,9b15b0c6e34d97bb08f5ebf7
素写咖啡,39.911756,116.459246,建外SOHO17号楼2层1721室,575088fd1feffbe5abf0cd97,"(010)58690206,(010)57901851,18201642861",1,575088fd1feffbe5abf0cd97
水晶厅咖啡,39.924756,116.457389,东大桥路8号院2号楼SOHO·尚都西塔4层1421,,,1,e7099bd8b4819caab7f42f53
北京可诺咖啡馆公司,39.918135,116.476831,光华路8号和乔庭园大厦B座中庭1层,7a9a6412e1cb279197ec8432,,1,7a9a6412e1cb279197ec8432
PCF-Pasta coffee fresh(国贸店),39.913417,116.459561,朝阳区建外大街IFC大厦B108,,,1,c1bd29231dd54c1f57bfff49
咖啡厅入口,39.899722,116.453332,北京市东城区如家精选酒店(广渠门地铁站店),fe20978461e010943913fd68,,1,fe20978461e010943913fd68
bakery&coffee,39.905309,116.484647,朝阳区西大望路甲16号院5号楼底商,,,1,8aed7653a0a5cf760782c28d
CAFE RESTAURANT,39.924381,116.462543,北京市朝阳区朝阳门外大街6号院-8附近,,,1,2e790027b662bb5e29fc4827
友天咖啡厅,39.912972,116.463476,朝阳区建国门外大街甲6号1号楼SK大厦B2层,,,1,0d641d3532c8ede29122e07a
win coffee,39.923653,116.462382,政务区新城国际C座1205,,18715517709,1,929231e182e025b636b06ce8
MANDALA CAFE,39.929188,116.482121,北京市朝阳区朝阳北路189号北50米,,,1,8876d028c9d4847ee215f97a
coffee time,39.912553,116.459334,建外SOHO西区18号楼一层1806号(华彬大厦东侧对面),71fd1d3be93781d33913fd56,,1,71fd1d3be93781d33913fd56
咖啡舍,39.930529,116.448702,北京市朝阳区朝外大街223号,20b16f9321c541f444e2741b,,1,20b16f9321c541f444e2741b
福来咖啡店,39.923422,116.466989,东三环中路5号财富金融中心地下一层,,,1,718a3210e24158404151c0ec
Maie Max Coffee,39.906212,116.472424,百子湾黄木厂路1号院1号楼A2、1层,,(010)59440727,1,8fce77ade66c18b438e4a65b
海豚湾咖啡馆,39.925612,116.461808,朝外大街乙6号朝外soho-c座0732室,,(010)58691182,1,66b12df02ff2fc298936ee12
UCC coffee shop,39.92191,116.457436,东大桥路20号楼,,,1,3dbb62655194143c4054d77f
兮琴轩,39.918105,116.486913,建国路89号华贸公寓10号楼105B,4b1567577db9d9fa3913fd23,,1,4b1567577db9d9fa3913fd23
星纪咖啡,39.930146,116.437558,南水关胡同与朝阳门内大街交叉口西100米,,,1,d2722824c8e70a1d8bb98833
漫咖啡(百子湾店),39.90669,116.506444,百子湾西里金都杭城二期102号楼110室,07f3c8b554d3007a6340a9bc,"(010)87950870,(010)87950096",1,07f3c8b554d3007a6340a9bc
星巴克(朝阳大悦城店),39.930529,116.525612,北京市朝阳区朝阳北路101号朝阳大悦城F1层02号,7fd72311108e4c865cbe861f,(010)85521068,1,7fd72311108e4c865cbe861f
星巴克(北京远洋天地店),39.920618,116.49781,朝阳区东四环中路56号远洋国际中心A座首层109号单元,9fbfeef27a4d055cede4a557,(010)85868829,1,9fbfeef27a4d055cede4a557
星巴克(世东国际店),39.89829,116.509057,朝阳区广渠路18号世东国际1号楼1层105-106单元,,(010)67719342,1,ddfd86e8fa603dd1b6f42f56
星巴克(燕莎奥特莱斯购物中心店),39.883618,116.492504,朝阳区东四环南路9号燕莎奥特莱斯购物中心二期C座一层,,(010)87381381,1,658e66ba633c5e9fb5f42fe7
麦隆咖啡(北京大郊亭店),39.892869,116.493902,朝阳区西大望路大郊亭南街朗姿大厦1楼底商,,(010)86207006,1,399bed37e6e9f37c266e9857
碧莎莎BISASA咖啡馆,39.901052,116.500588,北京市朝阳区广渠路21号金海国际7号楼1层7-01,05efa716daf1efb20bf5ebd1,"(010)58200264,(010)58202283",1,05efa716daf1efb20bf5ebd1
圈内咖啡,39.911835,116.543033,北京市朝阳区高碑店东区A区4号,,"18610241144,4008087835",1,c4d21dd911b8b5ba99005078
COSTA COFFEE(朝阳大悦城店),39.93022,116.525282,北京市朝阳区朝阳北路101号朝阳大悦城F3,6a13b311b350ef6b8f1a8974,(010)85517351,1,b47ca8898216d8a89e95dece
Today Coffee(北京市朝阳区高碑店医院东),39.912437,116.542755,高碑店新村东区A88号,a3e7149f9752b88eca09f046,,1,a3e7149f9752b88eca09f046
瑞幸咖啡(北工大理工楼店),39.880467,116.492348,北京市朝阳区平乐园100号北京工业大学环境与能源学院C座1层大堂,,,1,ba05c2dc96e62486047ce871
meow coffee(喵咖啡),39.927338,116.522756,北京市朝阳区青年路青年汇佳园5号楼2单元103室,,"15710033277,(010)85766107",1,b3d882af2c9e30d0902ca374
微时光咖啡馆,39.92668,116.52762,北京市朝阳区雅成三里5号楼1层119,a7c56ee0246b56aaa2acc4ad,(010)59154798,1,a7c56ee0246b56aaa2acc4ad
宅COFFEE SHOP,39.927072,116.510243,新华联丽景5号楼6号(丽景湾国际酒店正门东侧),6352c71eb5dcdd75a7c75625,13811151176,1,6352c71eb5dcdd75a7c75625
仿佛被遗忘的时光,39.905363,116.494815,北京市朝阳区百子湾路后现代城3号楼C座105室,46c90513060fc72403ff2dc3,13146821118,1,46c90513060fc72403ff2dc3
COSTA COFFEE(北京尚街购物中心店),39.923348,116.524054,北京市朝阳区朝阳路甘露园南里25号尚街购物中心一层115A,ee21b24fb937ebca8433042e,(010)85762631,1,ee21b24fb937ebca8433042e
红卡咖啡(尚8里文创园店),39.917969,116.515962,北京市朝阳区高碑店乡八里庄村陈家林甲2号B座一层,b73845c85c3fe0973ce231f6,(010)85768929,1,b73845c85c3fe0973ce231f6
赛洛城·邻咖啡,39.902314,116.510683,百子湾路5号沿海赛洛城309-3号(近大望路),a3f21eee2543065d2eb17ef6,(010)87955401,1,a3f21eee2543065d2eb17ef6
享咖啡,39.905256,116.55088,北京市朝阳区文化新大街,,,1,462b4ebaf4d2b75a40afe686
luckin coffee(青年汇店),39.928736,116.521267,朝阳北路青年汇102号楼一层123,,,1,790567da6a8bf4fd921fc9b6
luckincoffee(慈云寺北里店),39.922957,116.498953,朝阳区朝阳路慈云寺北里207号楼1层122号,52d38c5094789cf94c3a59a3,4000100100,1,52d38c5094789cf94c3a59a3
年代咖啡酒吧,39.911557,116.526116,朝阳区惠河南街南岸一号礼安门54号楼104号一层,,,1,522fb3aa46c45af3d12dd668
恋上咖啡,39.931125,116.519266,北京市朝阳区朝阳北路107号珠江罗马嘉园4号楼103号(近朝阳大悦城),c61bd305717a0d71c27da257,(010)58626793,1,c61bd305717a0d71c27da257
星巴克(青年路三店),39.930219,116.525114,北京市朝阳区朝阳北路101号朝阳大悦城F8,,(010)85564387,1,d04d31e890c848edd13ce313
愿君在此咖啡廳,39.915094,116.51298,惠生园26,,13611246181,1,836cdcc2d53d798e6140a964
三月,39.901703,116.512708,北京市朝阳区金海湾中街百子湾东里325-7号,d76d72257af5947f2afc4845,17501063350,1,d76d72257af5947f2afc4845
luckincoffee(金泰国际店),39.899921,116.50666,朝阳区广渠路金泰国际大厦B座负一层,,4000100100,1,f2a80344c58b690083a00c52
半小时咖啡,39.92117,116.49915,八里庄西里100住邦2000商务中心1号楼1层B区,ce641943dc45c390128824d1,(010)85861587,1,ce641943dc45c390128824d1
酷车百视咖啡,39.879335,116.507541,朝阳区金蝉西路甲一号酷车小镇一期B2区域6号一层,,(010)67204142,1,d2def29f4cc523cccb213d5b
被遗忘的时光,39.905444,116.494796,北京市朝阳区后现代城a区3号楼1层,8eef2018a56ef8a5e8e582cd,,1,8eef2018a56ef8a5e8e582cd
某年某月咖啡厅,39.911679,116.541602,北京市朝阳区高碑店新村东区E33-12,,"13466508191,(010)85868801",1,d462f07acff0d112f603b8e9
安的咖啡(朝阳路店),39.924528,116.533327,北京市朝阳区铜牛电影产业园7号楼1层,ecb5b0130faf9b3860180918,,1,ecb5b0130faf9b3860180918
柏悦春天cafe,39.906243,116.550855,北京市朝阳区文化艺术新街1704号,a4d15691c0f7afea3010af53,"(010)87773166,18618481107",1,a4d15691c0f7afea3010af53
乌鸡国咖啡馆,39.916161,116.538174,建国路23号(兴隆公园南门),,13718732057,1,b5c847c984a7af650869d9f0
EAST COFFEE,39.90012,116.517051,北京市朝阳区广渠路3号竞园艺术中心5号铺,53110bcc9355935b4054d753,,1,53110bcc9355935b4054d753
美胶咖,39.911429,116.547013,北京市朝阳区惠河南街高碑店东区C区1-7号,6a9e8b0b113078bccf06a411,(010)85755644,1,6a9e8b0b113078bccf06a411
星巴克(花园闸路店),39.918108,116.547997,朝阳区建国路27号紫檀大厦1层,f01afc0476dfec9c4e554712,(010)85774421,1,f01afc0476dfec9c4e554712
velar cafe,39.917884,116.516806,北京市朝阳区八里庄村陈家林9号院华腾世纪总部公园E2座103-2号,e3431abd8ff22d7a9e82ea87,(010)53855678,1,e3431abd8ff22d7a9e82ea87
木兰,39.900686,116.516475,北京市朝阳区广渠路3号竞园图片产业基地17号库,18dbf83fd8e563502cb96d14,010-87712376,1,18dbf83fd8e563502cb96d14
星巴克(万科时代中心店),39.921438,116.509262,朝阳区朝阳路十里堡甲3号院甲1号万科时代中心1层底商,,(010)51077507,1,ba9e2edf081c37ea2102208d
盈科咖啡厅,39.905843,116.498836,朝阳区东四环中路76号大成国际中心C座6层,,(010)57488991,1,f5b90f2a7f815dc54d5547f6
Bracketcoffee(超级蜂巢店),39.905445,116.554356,高碑店乡北花园村1号北京传媒时尚文化产业园超级蜂巢北区G座101号,,,1,25bf242736b2fd458d7727fa
猎户座户外露营主题咖啡厅,39.879151,116.508904,北京市朝阳区金蝉西路1号酷车小镇酷车工厂F205B号,347176393e4fa0ec3617dc61,13701367407,1,347176393e4fa0ec3617dc61
星巴克(北京远洋未来汇影院店),39.922066,116.498881,朝阳区慈云寺北里209号209号楼远洋未来汇购物中心2楼,,(010)85772884,1,835ee5700f45f4546ca3cc31
瑞幸咖啡,39.923171,116.542627,北京市朝阳区朝阳路67号院附近,,,1,e805ad0a6df0a63b8605bf6f
咖啡好了,39.918479,116.54563,北京市朝阳区东亿国际传媒产业园c13座,13825a976db4d53affa7785d,,1,13825a976db4d53affa7785d
luckincoffee(北工大理科楼店),39.880556,116.492667,平乐园100号北京工业大学环境与能源学院C座一层大堂,,,1,68da67848e74c445940319f2
D BLACK COFFEE,39.904542,116.525356,北京市朝阳区高碑店乡西店记忆文创小镇A1,,15501145333,1,18808edb0445cf71c26c1482
dblack咖啡,39.904466,116.525387,朝阳区高碑店乡西店记忆文创小镇A1,40e4b62345d88e432811d17a,15501145333,1,40e4b62345d88e432811d17a
豪庭国际酒店-咖啡吧,39.931132,116.527354,朝阳北路雅成一里18号豪庭国际酒店1层,d1ae1a5afbab47fb6240a9e8,(010)85517599,1,d1ae1a5afbab47fb6240a9e8
luckin coffee,39.891462,116.494654,东四环中路195号华腾新天地一层商业01内101室,,18601175262,1,478d2c04d823834f75e5b691
luckincoffee(四惠卓明大厦店),39.912312,116.522644,朝阳区高碑店惠河南街1069号卓明大厦一层,,4000100100,1,c73414ebe1ee89741df74d38
迈克咖啡的小酒馆,39.90962,116.544881,北京市朝阳区高碑店古家具一条街琦檀宇艺术博物馆,5fddd53e14685b2f7069d38e,,1,5fddd53e14685b2f7069d38e
电影人咖啡,39.911275,116.53022,西店村A区8号楼108,,,1,3da42d866bad64407d29bdf5
忆浓咖啡生活馆,39.911826,116.52771,北京市朝阳区西店村45号楼101,,,1,9a778398c5d220010e3dda43
瑞幸咖啡,39.899904,116.507217,北京市朝阳区广渠东路金泰国际大厦地下一层,,,1,63e94a2adb6103c5ab175aee
紫檀世家,39.918135,116.547868,花园闸路27号紫檀大厦一楼,78c3a238d914b5e0b75f1e23,(010)85766172,1,78c3a238d914b5e0b75f1e23
瑞幸咖啡,39.908272,116.511045,北京市朝阳区自空间CBD创意园,,,1,920c2f321f54fc1e2fe67be3
CSCA精品咖啡学院,39.904704,116.54801,北京市朝阳区文化新大街1367号东辰民族艺术大厦C座C06,6d1221c08e839cdf03ec014a,(010)87729001,1,6d1221c08e839cdf03ec014a
October coffee club,39.904477,116.511291,北京市朝阳区百子湾南一路下沉街209-104,,"18210161898,15910669381",1,10dcdcacb76fd7ed0aa8d4ba
咖啡之翼(高碑店),39.907498,116.531137,朝阳区御河大厦A座,,,1,5b4e5027979d43f1b426559e
kaffee latte Macchiato CAFE,39.91064,116.546723,北京市朝阳区高碑店古家具一条街,,,1,e3ed049dd3ecad3f8e55eca7
住邦阳光商务酒店-咖啡厅,39.920249,116.5009,八里庄西里96号,f28bf555616038db35b06c79,,1,f28bf555616038db35b06c79
怡己咖啡厅,39.921611,116.512213,朝阳路乙2号阳光新城市广场1层底商,,,1,53d7cb920c9dd01e2cb17e38
清风咖啡,39.904168,116.512713,北京市朝阳区百子湾南路,,,1,ff18f70b211800f733169b74
沃欧咖啡,39.920839,116.497844,北京市朝阳区八里庄街道东四环中路56号远洋国际中心a座2007沃欧咖啡,,,1,7576cf4ad40424d48b36ee79
埃塞俄比亚咖啡文化中心,39.912926,116.539141,朝阳区东三区G58-4号,,,1,fed9a4e001776ec3d13ce357
美食家咖啡,39.89986,116.50685,广渠路11号院1号楼101室,aa688f1d39b7da4d0a5cb3e4,"15718840801,13683211800",1,aa688f1d39b7da4d0a5cb3e4
1+cafe,39.900344,116.494428,广渠路金茂府东区底商,,13520681889,1,1b2f7cb1341e4bc4b11e3633
NINETYONECOBFFBEBAB,39.904327,116.549729,北京市朝阳区文化新大街南东北70米,9fbc35a70cee1b497d29bd81,,1,9fbc35a70cee1b497d29bd81
coffee box(慈云寺店),39.923607,116.499364,朝阳路慈云寺北里207-2号八里庄中心小学西南门对面,,,1,449da57d8ffa2ba68f55ecda
萨缇娜,39.90922,116.53316,北京市朝阳区南上坡二巷18号东北90米,,,1,c8686e05f166a9b0373a71c0
波点男神的主题咖啡馆,39.931156,116.552721,朝阳北路白家楼甲1号红庄国际文化保税创新园D-2-1号,,15811382132,1,9855661bbfeb6f4ed518b7c9
惠家WPM咖啡体验中心,39.909723,116.534703,北京市朝阳区高碑店村二区4-8,a7775276b8e6d1d69ee321ac,,1,a7775276b8e6d1d69ee321ac
星咖啡,39.922817,116.49472,北京市朝阳区东四环中路41号5层523-526室,,13157604530,1,2a314a10522c23bb40e19264
北京咖啡体验中心,39.910851,116.517154,北京市朝阳区国投尚科大厦1层,f23605972fc01849750269a4,,1,f23605972fc01849750269a4
LIVING ROOM COFFEE ROASTERS,39.923429,116.55665,北京市朝阳区定福庄西里2号院24h齿轮场5号楼101,,,1,0b4eb918adbcc2d987420e0c
Luna咖啡外卖店,39.930154,116.526703,朝阳北路99号大悦公寓南楼,,(010)85855725,1,39bb098ef6a371418b2fb548
SPR咖啡(唐家村5号商务楼东北),39.900677,116.518191,朝阳区竞园52-A,,,1,d5768a143398ef045af6be50
星巴克(常通路第一店),39.930941,116.604649,朝阳区常通路1号院西区1号楼1F-08-2F-08号,ea6000f068bc1202fbf0cb7f,(010)65430972,1,ea6000f068bc1202fbf0cb7f
艾比路咖啡,39.916571,116.588921,华文国际传媒大厦A座103号,eeb03d58281b4a42744ff19f,"(010)85398198,18612945733",1,eeb03d58281b4a42744ff19f
啡客站(传媒大学店),39.915712,116.560289,北京市朝阳区定福庄东街2号楼底商,e2c734e402405c4414a190b0,(010)65771278,1,e2c734e402405c4414a190b0
星巴克(常通路二店),39.930771,116.606905,北京市朝阳区常通路1号院1号楼长楹天街东区购物中心4层,93fbfca31a88d0ffaeb22ac3,(010)65430236,1,93fbfca31a88d0ffaeb22ac3
云臻咖啡,39.918566,116.605428,北京市朝阳区中百世贸3层,44aa509dbf3d56e38c1a893e,18519150088,1,44aa509dbf3d56e38c1a893e
馨咖啡(龙湖天街店),39.930395,116.605817,北京市朝阳区常通路1号院1号楼长楹天街购物中心B2,53a1be3c90e317a29b68b4ad,(010)65700068,1,53a1be3c90e317a29b68b4ad
luckincoffee(长楹天街店),39.930001,116.602544,朝阳区常通路3号院2号楼1层110室,,4000100100,1,97c0762c23253191da2f281c
克姆陪您宠物主题咖啡(瑞和国际店),39.928205,116.559535,北京市朝阳区瑞和国际商业F2-01号,2f44a34f6cf3ded6626858e6,17888809280,1,2f44a34f6cf3ded6626858e6
趣舍咖啡,39.910366,116.573342,朝阳区双柳北街39号天籁轩D座,87cb93fce902a2b690114cb5,13810751640,1,87cb93fce902a2b690114cb5
楼里咖啡,39.876652,116.588531,北京市朝阳区豆各庄乡宇达创意中心5号楼,bd5a4cd57175b33779b55cb5,(010)52458896,1,bd5a4cd57175b33779b55cb5
Miss Miya米娅咖啡厅,39.920423,116.562449,北京市朝阳区传媒大学动画与数字媒体学院2楼(近中国传媒大学北门),00d233e923ca5f167fc87623,15810200018,1,00d233e923ca5f167fc87623
酷云咖啡(华文国际店),39.916972,116.588541,华文国际传媒大厦B座106,6139a09c4d05f5bff82213dc,,1,6139a09c4d05f5bff82213dc
清若轩茶艺,39.925432,116.595811,北京市朝阳区常营南路50号院10号楼,6deee308910eb07328fc48b1,,1,6deee308910eb07328fc48b1
CARACE COFFEE,39.929143,116.595591,常营朝阳北路22号院柏林爱乐三期13号楼4单元底商,,"18600598565,(010)85380181",1,fa7463d76445a527b6147f0e
McCafe(东苇路店),39.926631,116.596965,北京市朝阳区常营乡东苇路鑫兆佳园15号楼,dda23f226bb99e8928d7ab91,(010)65434510,1,dda23f226bb99e8928d7ab91
二外giftime咖啡馆,39.918486,116.570183,定福庄南里1号院求是楼2层,af2d5a2693c6b8b3cae33c25,,1,af2d5a2693c6b8b3cae33c25
SG105 coffee,39.909294,116.582827,双桥路金隅可乐A栋105室,43bf589e9c3dbc2be8e582f3,(010)65427727,1,43bf589e9c3dbc2be8e582f3
CAKENAIRE,39.930415,116.608427,朝阳区朝阳北路龙湖长楹天街东区商业街一楼底商,,(010)65776771,1,448c0abd85d1cbadce04ef24
luckincoffee(万东国际店),39.916753,116.573791,北京市朝阳区万东15号,,18601357208,1,33ae00d455d1dd4b71455bfa
弪山·咖啡,39.877459,116.577307,北京市朝阳区于家围路东村创意园D1-1,,,1,b1c77cd5e04690a2631c6711
105COFFEESG,39.90915,116.582884,北京市朝阳区双桥路,,,1,89d6a544cf2331f41b11d5d7
麦咖啡(定福庄餐厅),39.922272,116.568947,北京市朝阳区定福庄北里1号定福庄路,65fa56ad0400be49b020a850,(010)65766466,1,65fa56ad0400be49b020a850
西街公园咖啡厅梧桐书屋店(广告博物馆店),39.920218,116.565521,北京市朝阳区定福庄中国传媒大学院内,e60425ecf9f2199679b55c83,,1,e60425ecf9f2199679b55c83
8090休闲吧,39.930824,116.616431,常营丽景园4号楼地下一层008东,fd7cf8071b5cfa4a26d2bbd2,,1,fd7cf8071b5cfa4a26d2bbd2
SUCAFE,39.904092,116.561778,北京市朝阳区,,,1,5ebaaaa1288a51a46fa3cc22
SHLphoto COFFEE,39.894384,116.577829,北京市朝阳区双桥路临2049文创园10-1号,,13683353061,1,f5ce3bd08e1a78202d4733ae
小绿咖啡,39.921133,116.597499,北京市朝阳区管庄东街,,,1,83ecb5c106af2f060bf5eb7f
机车咖啡,39.930325,116.609619,北京市朝阳区朝阳北路未来时大厦1201室,,,1,bf71448482be3cfa3a221c55
布鲁诺咖啡店,39.929791,116.604367,常营镇朝阳北路龙湖长楹天街西区一层,,,1,ea7a45f54c3111bbcf06a41a
欧洲古董咖啡店大地时尚店-南门,39.904088,116.559554,金家村中街9号大地时尚文化创意园附近,68e0603c6ee1b6c53517dc6a,,1,68e0603c6ee1b6c53517dc6a
MIAO COFFEE(山树乐),39.940958,116.119907,滨河路熙旺中心大厦A座一层,,(010)61805898,1,12d8ee15cc358617b5f42f57
Space酒吧,39.941371,116.119965,双峪路35号院1号熙旺中心B座2506号,,15600665717,1,ad5492d2edaccce6f7eafcaf
龙泉宾馆-咖啡厅,39.968599,116.110472,北京市门头沟区水闸北路21号,00af4eccc03626a9b6147fdf,(010)69843366,1,00af4eccc03626a9b6147fdf
黄金时代自家烘焙咖啡馆,39.949764,116.213057,北京市石景山区香山南路168-12号(西山枫林小区二期底商),976690456a0c12f2fb22133c,(010)56212829,1,976690456a0c12f2fb22133c
龙泉茶社,39.965244,116.185324,北京市石景山区八大处公园5处龙泉庵里,,(010)88964661-2055,1,87b12d6be9a3a251081cc7b7
zcafé,39.953249,116.231985,巨山路燕西台院内,b0be5e2d16d565c6c056acae,,1,b0be5e2d16d565c6c056acae
熊晚风咖啡馆BearBreezeCafe,39.95151,116.211071,北京市石景山区香山南路启迪香山A座大堂138-139从好利来向北行80米,,,1,efedca86d4e3154387330418
研磨时光咖啡,39.942829,116.203103,北京市石景山区八大处路49号院6号楼一层106号,,,1,7780648f450a9b4c43e192ea
cafe 8,39.96152,116.230856,杏石口路89号,,(010)62598383,1,54410b42f22032dee115f991
肯德基现磨咖啡馆（五孔桥店）,39.934553,116.283112,北京市海淀区西四环北路家乐福首层,e825bf01486b0302f50e7740,(010)52963558,1,e825bf01486b0302f50e7740
漫咖啡(蓝靛厂店),39.967557,116.295271,蓝靛厂东路2号院金源时代商务中心2号楼B座1层,1cbc67293e2af32f41d63ef6,(010)88891329,1,1cbc67293e2af32f41d63ef6
星巴克(金源燕莎店),39.964608,116.294371,北京市海淀区远大路1号金源燕莎Mall首层1016号,,(010)88893779,1,10011b8b55dbee1e9f09f75a
花舍咖啡厅,39.957628,116.291168,北京市海淀区远大园六区甲3号二层,66d97332d5d6a74da1a93443,(010)88597129,1,66d97332d5d6a74da1a93443
上岛咖啡(美丽园店),39.94449,116.281467,北京市海淀区西四环北路136号金泰海博大酒店1层北侧,edd64ce1378d68883fe2314d,(010)88592592,1,edd64ce1378d68883fe2314d
星巴克(远大路第三店),39.965392,116.295348,北京市海淀区远大路1号金源燕莎mall首层,,"(010)88875519,(010)88877831",1,67b46bf1d405b664b13c81e3
永泰福朋喜来登大堂吧,39.963738,116.286258,远大路25号A座永泰福朋喜来登酒店1楼(四季青医院对面),9199ba9005b1f180d0ff2359,(010)88898615,1,9199ba9005b1f180d0ff2359
百年義利咖啡店,39.933052,116.259713,北京市海淀区玉泉路2号龙徽葡萄酒厂西门(北京国际葡萄酒交易所),58a0ae98483cba1616a1904d,(010)52292312,1,58a0ae98483cba1616a1904d
星巴克(玉泉商业中心店),39.982094,116.257868,海淀区茶棚路2号玉泉商业中心1层,,(010)52902044,1,2231d3cad2b32f3ab45f1e8f
星巴克(杏石口店),39.959844,116.23694,海淀区杏石口路50号西杉创意园一区4号楼一层107-1号,191aef2cc10868725b109354,(010)62868130,1,191aef2cc10868725b109354
书写生活咖啡馆,39.95151,116.283622,北京市海淀区紫竹院路诚品建筑3号楼1层,a74481d661484f5ff403b8bb,(010)88500332,1,a74481d661484f5ff403b8bb
Summer Forever永夏咖啡,39.960525,116.278225,北京市海淀区四季青路永泰郦城果岭南一门优客工场1楼(建设银行正对面),d4237225e07720fff4eafc5e,18911951416,1,698640b68408195fb4f42f8f
望满阁(远大路店),39.965646,116.289362,蓝靛厂晨月园甲3,491e5ddf4c25887ab6147fc6,(010)88546180,1,491e5ddf4c25887ab6147fc6
查令十字街84号主题咖啡厅,39.937218,116.28526,北京市海淀区阜外亮甲店1号(中关村互联网文化创意产业园5号楼南侧),eeadd491e1df855c8605bf0a,18610123906,1,eeadd491e1df855c8605bf0a
MANCAT COFFEE(京粮广场店),39.937095,116.260355,北京市海淀区田村路43号京粮广场F1,1cbeaca9ad0f92f00869d96e,(010)88185767,1,6e33d69754766fccb35c6a31
GNU弄咖啡,39.965411,116.294374,北京市海淀区远大路1号-1层-1011,,(010)88503037,1,9de65ae8ce69153188db7374
清心阁茶楼(田村路店),39.935226,116.255447,海淀区畅茜园兰德华庭7号楼1层,b703e96bd74842e38f1a8950,(010)88251530,1,b703e96bd74842e38f1a8950
怡景咖啡,39.982145,116.263963,北京市海淀区闵庄路3号玉泉慧谷清华科技园会议中心,15a93810b612cea414c8f64d,(010)88850169,1,15a93810b612cea414c8f64d
狄安娜咖啡厅,39.931518,116.293408,北京市海淀区八里庄街道阜成路101号永兴花园饭店,0ce65c2df9f98b402d4733d4,,1,0ce65c2df9f98b402d4733d4
WSFM CAFE(世纪金源购物中心店),39.965053,116.296367,北京市海淀区远大路1号世纪金源购物中心F3,b4b299b0afa9a14ca2a93479,,1,b4b299b0afa9a14ca2a93479
鲜榨果汁咖啡(京粮广场店),39.936814,116.260212,北京市海淀区田村路43号京粮广场F1,de4714fdc2b22316a2a934c7,,1,de4714fdc2b22316a2a934c7
WORLD DREAM HOTEL,39.938175,116.2966,北京市海淀区玲珑路,b20d42a3a61ffe0a9e9d68eb,,1,b20d42a3a61ffe0a9e9d68eb
COSTA COFFEE(北京物美慧科大厦店),39.939617,116.282589,西四环北路158-1号慧科大厦物美便利店对面,,,1,0a05627e885a1613deee8bbc
博物馆咖啡,39.963778,116.275715,北京市海淀区东冉北街9号,,,1,caa78a1958521c1546572668
乔治大叔咖啡馆,39.967473,116.295122,蓝靛厂东路金源时代商务中心B座11层,,,1,0349c57967904dc62ce67b6e
老咖啡馆(四季青店),39.951079,116.283341,四季青桥南诚品建筑小区(轻松阳光俱乐部北),,,1,e750caa833173f4540024534
帕斯库奇咖啡厅,39.964485,116.292984,远大路金源购物中心贵友大厦一层,,,1,913f852b2cfb03d0ad31e53e
金泰海博大酒店-咖啡厅,39.944174,116.281686,西四环北路136号金泰海博大酒店,24c5b3cc7ecb17b332f71df2,(010)88461188,1,24c5b3cc7ecb17b332f71df2
湖心岛咖啡厅,39.959619,116.250911,北京市海淀区杏石口路65号院,,,1,2031b33486ef5e3e14c8f6cf
欧本咖啡(北京有限公司),39.936,116.2352,北京市海淀区阜石路69号锦绣大地物流港1层,11973347d0e501671f3894c5,,1,11973347d0e501671f3894c5
漫咖啡(万柳店),39.974832,116.304163,北京市海淀区万柳中路6号,a7fa7945801297807bf796c9,(010)61934587,1,a7fa7945801297807bf796c9
星巴克(中关村南大街店),39.959149,116.331828,海淀区中关村南大街甲18号C座第一层01-101单元,,(010)62163669,1,ae201853fedc4337f32d838e
雕刻时光咖啡馆(魏公村店),39.963096,116.317681,北京市海淀区魏公村7号(北理工大学南门西楼2楼),923ffd00483e7caed92f2858,(010)68946825,1,923ffd00483e7caed92f2858
星巴克(西环广场2期店),39.947444,116.359269,西城区西直门外大街1号西区B1-45-47A号,,(010)58301229,1,294029c69c13642c36b06c7a
星巴克(首体南路店),39.940337,116.331484,海淀区首体南路9号主语国际4座1层,b27eb541a55097370f0e6bb4,(010)68790211,1,b27eb541a55097370f0e6bb4
么么咖啡(紫竹店),39.949605,116.31148,北京市海淀区紫竹院路紫竹花园F座二层88号,1eeed54649a7e6ebb5147f59,(010)88553117,1,1eeed54649a7e6ebb5147f59
仟岛咖啡(花园桥店),39.937789,116.328949,北京市海淀区车公庄西路20号水电集团东侧(水科院北门旁),3156813460311c5774026992,(010)58481828,1,3156813460311c5774026992
星巴克(新中关购物中心店),39.984075,116.322189,海淀区中关村大街19号新中关大厦首层L128A号,f757e6ee738d8a0e260bd059,(010)82486056,1,f757e6ee738d8a0e260bd059
雕刻时光咖啡馆(北航店),39.985592,116.354899,北京市海淀区学院路37号北京航空航天大学天行网球馆2楼(篮球场东),e116be546de3d162c81b95f2,(010)82310664,1,e116be546de3d162c81b95f2
CC咖啡馆,39.949954,116.355637,北京市海淀区高梁桥斜街59号院2号楼底商108号,7e36f6ad43bc9f4cc4f02554,(010)62198819,1,7e36f6ad43bc9f4cc4f02554
BunnyDrop(知春路店),39.982509,116.3499,知春路29号7-8号楼1-2层,a5d29e9ef52e676c94ca07bb,(010)52889111,1,21fbf8cdc1ff4c5d88b9888e
星巴克(腾达大厦店),39.943732,116.333277,海淀区西直门外大街168号腾达大厦2层210号,e54066a7ff619e9495f08cc5,(010)88577710,1,e54066a7ff619e9495f08cc5
阿狸咖啡馆,39.985972,116.320422,中关村大街15号东方创业谷·食宝街,fb504096090c8bfc07026f50,(010)53963733,1,fb504096090c8bfc07026f50
方桌咖啡,39.933815,116.357926,"百万庄大街6号(太平洋保险,汉博达数码快印)",586835c56cb9b9d6ede4a58d,(010)88365496,1,586835c56cb9b9d6ede4a58d
星巴克(华宇时尚店),39.970987,116.329656,海淀区中关村南大街2号数码大厦B座华宇时尚购物中心1层,e96b4420e426464082288a58,(010)51626615,1,e96b4420e426464082288a58
星巴克(西直门外大街店),39.944739,116.35587,西城区西直门外大街18号2单元101-07号,618b98d72eab2c3b220262ad,(010)88384680,1,618b98d72eab2c3b220262ad
星巴克（中关村大街第三咖啡店）,39.986082,116.320791,海淀区中关村大街15-9号,,(010)53938583,1,472cec9a7b790cc0e9f853ab
luckincoffee瑞幸咖啡(联想桥店),39.975798,116.341696,海淀区中关村东路118号神州优车集团一层,bde38561a8e64c67cae33c4c,4000100100,1,bde38561a8e64c67cae33c4c
白石桥七号咖啡馆,39.96864,116.317367,北京市海淀区北三环理工大学北门国际交流大厦1楼,84fab239d049cca03a04b113,"(010)68945587,(010)68945611",1,84fab239d049cca03a04b113
咖啡猫小窝,39.964502,116.358352,学院南路学院派15号院10号楼,60e0db6bd5d868d7354aaee6,(010)62440997,1,60e0db6bd5d868d7354aaee6
雕刻时光咖啡馆,39.952584,116.348113,北京市海淀区高粱桥斜街19号院11号楼,,(010)82163889,1,3c4e4cb8ba0cfd7ca20464f2
博乔咖啡(丹棱街店),39.985654,116.317905,丹棱街3号中国电子大厦A座1层101、102房间,d1fcc37f3d162b62b4f42f8a,"(010)58752308,(010)58752309",1,d1fcc37f3d162b62b4f42f8a
COSTA COFFEE(阳光大厦店),39.943797,116.352802,西直门外大街112号阳光大厦1层102号,5de7a4988964ffcfe5073801,(010)68305260,1,5de7a4988964ffcfe5073801
luckincoffee瑞幸咖啡(11大厦店),39.986002,116.315765,海淀区彩和坊路10号1加1大厦1层1-6-02号,c2c2d6f82924bc9252e5c5b5,4000100100,1,c2c2d6f82924bc9252e5c5b5
蓝调派咖啡馆,39.949618,116.317991,北京市海淀区紫竹院路广源闸5号广源大厦一层,073699968dedbbc900ff2db7,"18600735576,18303300880",1,073699968dedbbc900ff2db7
瑞幸咖啡(外文大厦店),39.94047,116.315623,海淀区西三环北路89号中国外文大厦B座1层,,,1,73436faae51fca93e60738c6
COSTA COFFEE(海淀中街店),39.98752,116.31934,北京市海淀区海淀中街6号1层,40cfbc7878cf0a9a2fe67bca,(010)82488485,1,40cfbc7878cf0a9a2fe67bca
luckincoffee(黄庄尚科店),39.982553,116.325341,海淀区中关村大街28-1号-1层尚科办公中心地下一层,,4000100100,1,e60aebda4b9825491b94c642
大象咖啡,39.966471,116.308258,北京市海淀区万柳亿城中心C座1层,58351a2a6f86c66d22022021,15100954955,1,58351a2a6f86c66d22022021
蓝芭咖啡,39.982526,116.356598,北京市海淀区知春路9号坤讯大厦16楼(近北京航空航天大学南门),89fd4ea303076d5ee5e965c1,(010)82332427,1,89fd4ea303076d5ee5e965c1
品诺咖啡,39.950008,116.328784,北京市海淀区中关村南大街33号国家图书馆北区1层,b703e96bd74142e38f1a895b,(010)88544518,1,b703e96bd74142e38f1a895b
COSTA COFFEE(北京双安商场店),39.972127,116.33255,北京市海淀区北三环西路38号北京双安商场F2,bba87388ca172ab9bca822d2,(010)62140330,1,bba87388ca172ab9bca822d2
星巴克(北京中关村亿世界店),39.98703,116.321898,海淀区中关村大街11号中关村e世界A座1楼,4128d2d9705a843d6140a982,(010)62418405,1,4128d2d9705a843d6140a982
麦咖啡(知春路店),39.982746,116.340776,北京市海淀区知春路59号,a53d448dd59cc3e1c036448a,(010)82628192,1,a53d448dd59cc3e1c036448a
奇遇花园咖啡馆,39.94809,116.354606,西城区北展北街9号华远企业号D座底商(近西直门凯德MALL购物中心),00586108524fe6bc46e2745e,(010)88320741,1,00586108524fe6bc46e2745e
luckincoffee(立方庭大厦店),39.986756,116.315766,海淀区善缘街1号立方庭大厦一层,,4000100100,1,0860eaa45c4a39c649fc8d2d
COSTA COFFEE(欧美汇购物中心店),39.985534,116.320503,北京市海淀区丹棱街甲1号欧美汇购物中心F3,173ddd6b8d342c617ab55c71,,1,173ddd6b8d342c617ab55c71
海德柒号咖啡馆,39.979409,116.358716,西土城路一号院6号楼,,(010)83031718,1,272eb8c27775c7b131870a0e
雅菲咖啡,39.952557,116.329821,北京市海淀区中关村南大街31号神舟大厦首层,09a99c11fb02f0e996ec84ef,(010)68118788,1,09a99c11fb02f0e996ec84ef
研磨时光咖啡(交大店),39.954491,116.350289,交通大学路交大嘉园1号楼底商,0920c32b05efd5dc6318092e,,1,0920c32b05efd5dc6318092e
FLOWER咖啡西餐,39.961952,116.315178,北京市海淀区西三环北路19号北京外国语大学北外宾馆B1层,89fd4ea32894165ee5e96556,(010)88812688,1,89fd4ea32894165ee5e96556
Circle Coffee咖啡厅,39.97412,116.321821,北京市海淀区中关村大街59号中国人民大学留学生食堂第1餐厅,7da4a05b094386d142d63ea6,15801458389,1,7da4a05b094386d142d63ea6
科学猫头鹰咖啡厅,39.951637,116.308651,紫竹院路中国兵器大厦69号二楼,a1fa5fbc8bda6ef1990050c0,(010)68423399,1,a1fa5fbc8bda6ef1990050c0
赛博咖啡(中关村店),39.983446,116.317996,"海淀区海淀中街16号中关村公馆B座102底商(中国移动设计院,微软大厦,中国电子大厦,人大北校区,新东方,新中关,巴比伦时尚酒店)",a73eed9ac574dd118433048c,(010)62682418,1,a73eed9ac574dd118433048c
luckincoffee(紫金数码园店),39.984337,116.343135,海淀区紫金数码园4号楼一层0113室,9f0869c278b302699ee3211f,4000100100,1,9f0869c278b302699ee3211f
Coffee Craft·CC咖啡馆,39.950092,116.35493,北京市海淀区高梁桥斜街59号院2号楼底商108号,1386cc578877a5af36b06cce,(010)62198819,1,1386cc578877a5af36b06cce
海洋文化空间,39.962744,116.337723,学院南路72号,530e4beeb6ebed55601c6729,,1,530e4beeb6ebed55601c6729
雕刻时光咖啡馆(腾讯员工店),39.983031,116.343423,海淀区知春路49号希格玛大厦1层,92dd5edee6074b03c42ba1f7,(010)82173307,1,92dd5edee6074b03c42ba1f7
舍得茶馆(总店),39.948865,116.318533,北京市海淀区紫竹院路甲2号,cb4fd14647d6cd589d9d6859,(010)68465743,1,cb4fd14647d6cd589d9d6859
光盐咖啡,39.964278,116.358472,北京市海淀区学院南路15,fcc086b6f5546fbe2eb17ebe,18511370703,1,fcc086b6f5546fbe2eb17ebe
汇贤·迦南美地(人民大学店),39.975993,116.314734,北京市海淀区中关村大街59号人民大学汇贤楼B座1楼(近人大西门),96b672aa5244466ccf04efa1,18801439331,1,96b672aa5244466ccf04efa1
蓝薇咖啡(人大店),39.974182,116.322771,北京市海淀区人民大学国际交流中心高丽会馆B1,68047115cc447fc58e77276e,"(010)56210969,13011857586",1,68047115cc447fc58e77276e
泊星地咖啡馆(人民大学店),39.977294,116.314073,中关村大街59号中国人民大学经济学院图书馆附近,56e73c48b8989fdbc61b75cd,,1,56e73c48b8989fdbc61b75cd
咖啡茶自助餐厅(香格里拉饭店),39.950131,116.315037,北京市海淀区紫竹院路29号香格里拉饭店1楼(西三环北路与紫竹院路交叉口西北角),04409c0ea75eb6237bf79601,(010)68412211,1,04409c0ea75eb6237bf79601
精品购物指南咖啡厅,39.982429,116.326281,中关村大街28号文化艺术大厦B座7、8楼,8f1bb1f16ec1f62ecd04ef9f,(010)82623388,1,8f1bb1f16ec1f62ecd04ef9f
大容咖啡(蓟门里店),39.97903,116.358418,北京海淀区西土城路蓟门里北乙11号烟树商务楼2楼(近首都体育学院),a1418eb4faf90666eae582a0,(010)82086510,1,a1418eb4faf90666eae582a0
加纳达咖啡,39.942841,116.315636,北京市海淀区西三环北路83号国际文化大厦二层,b301607d725eae144e2fdf19,13811769522,1,b301607d725eae144e2fdf19
品诺咖啡-读者餐厅,39.950113,116.328803,中关村南大街33号中国国家图书馆附近,,,1,e8e3b01b0272075153e5c5e3
元咖啡(湖北大厦店),39.953397,116.331765,中关村南大街36号湖北大厦首层,b275fa2503b2f8a75e0d020c,(010)62108399,1,b275fa2503b2f8a75e0d020c
啡诗阁咖啡厅(数码大厦店),39.971979,116.329539,中关村南大街2号数码大厦A座一层,,(010)51627775,1,f1c9997120e59962c33644d1
林茵时光咖啡厅,39.978621,116.316218,北京市海淀区人民大学北路29号,f022c4544729fa2d9a005055,15510181832,1,f022c4544729fa2d9a005055
Latte Only Café(拿铁Only咖啡馆),39.964608,116.32102,北京市海淀区中关村南大街5号北京理工大学体育馆南厅B1楼,5503801d2daef0e771210b65,18612692557,1,5503801d2daef0e771210b65
九榀咖啡JOY BEANS(财大店),39.96423,116.35241,学院南路35号超市发旁九榀咖啡,,18810811913,1,abbf47d6001f80069de3219f
新7天咖啡厅(人大店),39.975651,116.328609,北京市海淀区中关村大街46-1号,72e57fd7ac4a5db6f8dc855d,(010)62642523,1,72e57fd7ac4a5db6f8dc855d
